sample_idx,t_rel_s,stamp_s,t_in_traj_s,x_des_m,y_des_m,z_des_m,x_act_m,y_act_m,z_act_m,ex_m,ey_m,ez_m,e_pos_norm_m,vx_des_mps,vy_des_mps,vz_des_mps,speed_des_mps,vx_act_mps,vy_act_mps,vz_act_mps,speed_act_mps,wx_act_radps,wy_act_radps,wz_act_radps,roll_des_rad,pitch_des_rad,yaw_des_rad,roll_act_rad,pitch_act_rad,yaw_act_rad,e_roll_rad,e_pitch_rad,e_yaw_rad,e_ang_norm_rad,roll_des_deg,pitch_des_deg,yaw_des_deg,roll_act_deg,pitch_act_deg,yaw_act_deg,e_roll_deg,e_pitch_deg,e_yaw_deg,e_ang_norm_deg
0,0.000553131103515625,1775825937.3282557,0.047691658,-19.249094239658316,-0.9767453714738397,0.7944444906657521,-19.31,-0.92,0.8124612686031365,-0.060905760341682935,0.05674537147383962,0.01801677793738443,0.0851713162616828,2.3512500081872107,-2.1666880264123995,-0.6740734895186311,3.2676120752119644,0.0,0.0,0.002593150490470408,0.002593150490470408,0.0,0.0,0.0,0.0,0.20778119136199216,-0.744569932147027,0.0,0.0,0.0,0.0,-0.20778119136199225,0.7445699321470269,0.7730183745172149,0.0,11.904985327242269,-42.66071466436673,0.0,0.0,0.0,0.0,-11.904985327242272,42.66071466436672,44.29069034589964
1,0.005563259124755859,1775825937.3332658,0.052701647,-19.236681518855704,-0.988185580601358,0.7908835438988129,-19.31,-0.92,0.8124740716952195,-0.07331848114429462,0.06818558060135793,0.021590527796406578,0.1024256997524448,2.5413436098053137,-2.3345631709512347,-0.7226579660621514,3.525740642499569,0.0,0.0,0.002528349342029226,0.002528349342029226,0.0,0.0,0.0,0.0,0.20642926216857665,-0.7430149478163717,0.0,0.0,0.0,0.0,-0.2064292621685766,0.7430149478163717,0.7711577354588544,0.0,11.827525490259035,-42.5716206250112,0.0,0.0,0.0,0.0,-11.827525490259031,42.5716206250112,44.18408358065839
2,0.010550975799560547,1775825937.3382535,0.057689371,-19.223406279129865,-1.0003806475055794,0.7871078684242381,-19.31,-0.92,0.8124865547684896,-0.08659372087013395,0.08038064750557938,0.025378686344251555,0.12084535037853454,2.7192433764739117,-2.4897787449449478,-0.7665287570192524,3.7657468149909334,0.0,0.0,0.0024651565306749823,0.0024651565306749823,0.0,0.0,0.0,0.0,0.2049854547155749,-0.7413752409520918,0.0,0.0,0.0,0.0,-0.20498545471557472,0.7413752409520917,0.7691919685889362,0.0,11.7448014167725,-42.47767234204933,0.0,0.0,0.0,0.0,-11.744801416772491,42.47767234204933,44.07145343550543
3,0.015557289123535156,1775825937.3432598,0.062695791,-19.20921743810964,-1.013370071308368,0.7831092759188689,-19.31,-0.92,0.8124987259320587,-0.10078256189035883,0.09337007130836794,0.029389450013189822,0.14049496350186902,2.886422473117189,-2.6336222286721163,-0.8060509753003041,3.9896264125171426,0.0,0.0,0.0024035586927639413,0.0024035586927639413,0.0,0.0,0.0,0.0,0.20343706701101183,-0.7396333655093695,0.0,0.0,0.0,0.0,-0.20343706701101194,0.7396333655093694,0.7671011377965485,0.0,11.656085336251087,-42.377870230743866,0.0,0.0,0.0,0.0,-11.656085336251094,42.37787023074386,43.95165765542563
4,0.0205538272857666,1775825937.3482563,0.067692268,-19.194250735736603,-1.0270218441525196,0.7789326185865931,-19.31,-0.92,0.8125105928932824,-0.11574926426339616,0.10702184415251959,0.033577974306689296,0.16118017142894592,3.0418946963149724,-2.765239423715187,-0.8409867007690279,4.196061372860058,0.0,0.0,0.0023434885731406577,0.0023434885731406577,0.0,0.0,0.0,0.0,0.20178953887956233,-0.7377935704666576,0.0,0.0,0.0,0.0,-0.20178953887956252,0.7377935704666578,0.7648910841571928,0.0,11.561688927689957,-42.27245773962738,0.0,0.0,0.0,0.0,-11.561688927689968,42.27245773962739,43.825030909393014
5,0.02555704116821289,1775825937.3532596,0.072695633,-19.1785134539426,-1.0413215297882104,0.7745865712648115,-19.31,-0.92,0.8125221633575814,-0.13148654605739907,0.12132152978821031,0.037935592092769976,0.1828844841195807,3.186194199408287,-2.88508464495171,-0.8714577520073539,4.385770798663886,0.0,0.0,0.0022849346519210616,0.0022849346519210616,0.0,0.0,0.0,0.0,0.20003247826747841,-0.7358430297210151,0.0,0.0,0.0,0.0,-0.20003247826747828,0.735843029721015,0.7625470193704987,0.0,11.461016770268875,-42.16069998713377,0.0,0.0,0.0,0.0,-11.461016770268866,42.16069998713376,43.69072589021021
6,0.03055882453918457,1775825937.3582613,0.077697321,-19.162088312452557,-1.0561858479562831,0.7701008887329548,-19.31,-0.92,0.8125334446519817,-0.14791168754744177,0.13618584795628308,0.04243255591902695,0.2054871633424464,3.3190561720941143,-2.992934059178542,-0.897404916207725,4.558412414398326,0.0,0.0,0.0022278327811119793,0.0022278327811119793,0.0,0.0,0.0,0.0,0.1981622349445593,-0.7337769833977308,0.0,0.0,0.0,0.0,-0.1981622349445593,0.733776983397731,0.7600637688526515,0.0,11.353859721203088,-42.04232425253105,0.0,0.0,0.0,0.0,-11.353859721203088,42.04232425253107,43.548446116063886
7,0.035594940185546875,1775825937.3632975,0.082733498,-19.144907393757805,-1.0716673410544086,0.7654646057845989,-19.31,-0.92,0.8125444440983004,-0.1650926062421938,0.1516673410544086,0.04707983831370155,0.22907435944251514,3.4413289834226637,-3.0894495889151714,-0.9189712956620547,4.71507711250238,0.0,0.0,0.0021721713818834572,0.0021721713818834572,0.0,0.0,0.0,0.0,0.196156092140858,-0.7315700520722642,0.0,0.0,0.0,0.0,-0.19615609214085783,0.7315700520722643,0.7574113503064159,0.0,11.23891620545046,-41.9158764019066,0.0,0.0,0.0,0.0,-11.238916205450451,41.91587640190661,43.396473727862364
8,0.040563106536865234,1775825937.3682656,0.087701594,-19.127383603689196,-1.0873861753423628,0.7607957651553525,-19.31,-0.92,0.8125551686534731,-0.1826163963108023,0.16738617534236278,0.05175940349812058,0.25307294550735654,3.5506370714986515,-3.1727859676745513,-0.9357631224458954,4.852756642518019,0.0,0.0,0.0021178837852752173,0.0021178837852752173,0.0,0.0,0.0,0.0,0.19404673492334287,-0.7292580011357728,0.0,0.0,0.0,0.0,-0.1940467349233428,0.729258001135773,0.7546332669283492,0.0,11.118058939401385,-41.78340564122637,0.0,0.0,0.0,0.0,-11.11805893940138,41.78340564122639,43.237301275163695
9,0.04568290710449219,1775825937.3733854,0.092821324,-19.108786584718985,-1.1039866693218792,0.7559089498843237,-19.31,-0.92,0.8125656252074237,-0.2012134152810141,0.18398666932187913,0.056656675323100036,0.2784742570434034,3.6515270102895228,-3.2463268611107816,-0.9484090398098775,4.977124400980592,0.0,0.0,0.0020649526898571086,0.0020649526898571086,0.0,0.0,0.0,0.0,0.19172606258761746,-0.7267226622460771,0.0,0.0,0.0,0.0,-0.19172606258761737,0.7267226622460772,0.7515881258358045,0.0,10.985094208931551,-41.63814142321143,0.0,0.0,0.0,0.0,-10.985094208931546,41.63814142321144,43.062827542539026
10,0.05056047439575195,1775825937.378263,0.097698955,-19.09061601684092,-1.120123509787117,0.7512039001499995,-19.31,-0.92,0.8125758203637443,-0.21938398315908003,0.2001235097871169,0.061371920213744824,0.3032247744281131,3.736547980476778,-3.304740054587196,-0.956058626877476,5.079089065651922,0.0,0.0,0.0020133358653954877,0.0020133358653954877,0.0,0.0,0.0,0.0,0.1893639681564169,-0.7241497339142308,0.0,0.0,0.0,0.0,-0.18936396815641698,0.7241497339142309,0.7484995321067315,0.0,10.849756167212405,-41.490723488807,0.0,0.0,0.0,0.0,-10.84975616721241,41.490723488807006,42.88586415723257
11,0.05557131767272949,1775825937.3832738,0.102709897,-19.07154497490345,-1.1369686953683242,0.7463424993875672,-19.31,-0.92,0.8125857607497377,-0.23845502509654892,0.2169686953683242,0.0662432613621704,0.3291266981566905,3.8126152694013973,-3.3529114331282854,-0.9594479064779668,5.167067887701885,0.0,0.0,0.0019630227159533552,0.0019630227159533552,0.0,0.0,0.0,0.0,0.18676911831947476,-0.7213310379937744,0.0,0.0,0.0,0.0,-0.18676911831947463,0.7213310379937745,0.745118225472314,0.0,10.701082223085411,-41.329224108834104,0.0,0.0,0.0,0.0,-10.701082223085402,41.32922410883411,42.692129557840865
12,0.06056523323059082,1775825937.3882678,0.107703734,-19.052188238057127,-1.1539666902308994,0.7414920616639717,-19.31,-0.92,0.8125954526654122,-0.2578117619428717,0.23396669023089933,0.07110339100144047,0.35533506574160856,3.877051924109232,-3.3889818325877235,-0.958319151147713,5.237853098293729,0.0,0.0,0.0019139582943243025,0.0019139582943243025,0.0,0.0,0.0,0.0,0.1839967350142143,-0.718327457359182,0.0,0.0,0.0,0.0,-0.18399673501421443,0.718327457359182,0.7415181282288373,0.0,10.542236360501455,-41.15713161504474,0.0,0.0,0.0,0.0,-10.542236360501464,41.15713161504474,42.48585917995297
13,0.06558537483215332,1775825937.393288,0.112723969,-19.032433506794135,-1.1712060033050884,0.7366330277252542,-19.31,-0.92,0.8126049024070723,-0.2775664932058639,0.25120600330508835,0.0759718746818181,0.3819939004614954,3.930387496041642,-3.413232115809999,-0.9526499338795622,5.2920356425441835,0.0,0.0,0.0018661323321603753,0.0018661323321603753,0.0,0.0,0.0,0.0,0.1810024951923143,-0.7150918253570375,0.0,0.0,0.0,0.0,-0.18100249519231415,0.7150918253570375,0.7376436958032676,0.0,10.370679055856582,-40.971743557264396,0.0,0.0,0.0,0.0,-10.370679055856575,40.971743557264396,42.26387055395919
14,0.07056021690368652,1775825937.3982627,0.117698807,-19.012621512613144,-1.1883798810007402,0.7318571989177123,-19.31,-0.92,0.8126141159590105,-0.2973784873868546,0.2683798810007402,0.08075691704129817,0.40863602990495124,3.9719240387939605,-3.425383512313229,-0.9425470167606945,5.328961217271254,0.0,0.0,0.0018194924189935291,0.0018194924189935291,0.0,0.0,0.0,0.0,0.17780800111895806,-0.7116484535649329,0.0,0.0,0.0,0.0,-0.177808001118958,0.711648453564933,0.7335251916078138,0.0,10.187648027773715,-40.7744528862824,0.0,0.0,0.0,0.0,-10.187648027773713,40.774452886282404,42.027897645652764
15,0.07555127143859863,1775825937.4032538,0.122689871,-18.992565469789,-1.2056408968915329,0.7271274837147728,-19.31,-0.92,0.8126230993027286,-0.3174345302109991,0.2856408968915328,0.08549561558795582,0.4355053423691155,4.002275556866587,-3.425690983293756,-0.9279246863684422,5.34926280618964,0.0,0.0,0.0017740294271646842,0.0017740294271646842,0.0,0.0,0.0,0.0,0.17434973669627768,-0.7079300316376195,0.0,0.0,0.0,0.0,-0.17434973669627762,0.7079300316376194,0.7290835071379013,0.0,9.989504071913885,-40.56140300339844,0.0,0.0,0.0,0.0,-9.989504071913881,40.56140300339843,41.773407871597975
16,0.08056068420410156,1775825937.4082632,0.127699235,-18.972312091920873,-1.2229368036075727,0.7224651132737047,-19.31,-0.92,0.8126318581263836,-0.3376879080791255,0.3029368036075727,0.09016674485267895,0.46252986078755726,4.0213369896436655,-3.4140311307471976,-0.9087302311764052,5.352807709888455,0.0,0.0,0.001729693948839889,0.001729693948839889,0.0,0.0,0.0,0.0,0.17059325595693714,-0.703901091000922,0.0,0.0,0.0,0.0,-0.1705932559569372,0.703901091000922,0.7242781267512346,0.0,9.774273579727488,-40.33056170900692,0.0,0.0,0.0,0.0,-9.774273579727492,40.33056170900692,41.49807985648703
17,0.08559036254882812,1775825937.413293,0.132728769,-18.951909960865812,-1.2402132951497062,0.71789214084227,-19.31,-0.92,0.8126403981157823,-0.35809003913418636,0.3202132951497062,0.09474825727351222,0.4896348259408471,4.028983858814251,-3.3902614628732293,-0.884904333482306,5.339441862277822,0.0,0.0,0.0016864770019174192,0.0016864770019174192,0.0,0.0,0.0,0.0,0.1664979424635086,-0.6995199656315783,0.0,0.0,0.0,0.0,-0.16649794246350869,0.6995199656315783,0.7190617130412287,0.0,9.539629400771055,-40.07954171582583,0.0,0.0,0.0,0.0,-9.53962940077106,40.07954171582583,41.19920136670951
18,0.09056639671325684,1775825937.418269,0.13770484,-18.931715145540213,-1.257158788601563,0.7134969207693913,-19.31,-0.92,0.8126487246764205,-0.37828485445978544,0.3371587886015629,0.09915180390702916,0.5163395782457049,4.025217984708985,-3.354849400743449,-0.8568408964754666,5.309573490212394,0.0,0.0,0.001644331530868478,0.001644331530868478,0.0,0.0,0.0,0.0,0.16208537325732358,-0.6948117383871811,0.0,0.0,0.0,0.0,-0.16208537325732353,0.6948117383871812,0.7134669018423929,0.0,9.286807808447263,-39.809780165733365,0.0,0.0,0.0,0.0,-9.286807808447259,39.80978016573337,40.87864229784369
19,0.09556460380554199,1775825937.4232671,0.142703142,-18.911477287976197,-1.2739728688296657,0.7092338690487596,-19.31,-0.92,0.8126568432114549,-0.3985227120238015,0.3539728688296656,0.1034229741626953,0.5429672692262095,4.010088732159468,-3.3073682245824525,-0.8241552970875144,5.262958119393258,0.0,0.0,0.0016032489571198058,0.0016032489571198058,0.0,0.0,0.0,0.0,0.15724262683602627,-0.6896583283719914,0.0,0.0,0.0,0.0,-0.1572426268360263,0.6896583283719915,0.707356949203967,0.0,9.009338877254843,-39.51451152176254,0.0,0.0,0.0,0.0,-9.009338877254844,39.51451152176255,40.52856779863706
20,0.10056447982788086,1775825937.428267,0.147703071,-18.89133694027861,-1.2905251265220352,0.7051441530766238,-19.31,-0.92,0.8126647588578141,-0.4186630597213892,0.3705251265220352,0.10752060578119027,0.5693226744360352,3.983577158363884,-3.247928308565808,-0.7869500482369622,5.1997322674001,0.0,0.0,0.0015631847514309166,0.0015631847514309166,0.0,0.0,0.0,0.0,0.1519281374061089,-0.6840186046031286,0.0,0.0,0.0,0.0,-0.151928137406109,0.6840186046031285,0.7006879550690882,0.0,8.70484106265369,-39.19137915218709,0.0,0.0,0.0,0.0,-8.704841062653696,39.19137915218709,40.14646258111101
21,0.10556149482727051,1775825937.433264,0.152700086,-18.871369182477427,-1.3067409768717524,0.701253941603324,-19.31,-0.92,0.8126724767509915,-0.43863081752257216,0.38674097687175235,0.11141853514766753,0.5952979650953708,3.945711733735104,-3.176588247513475,-0.7452606809202792,5.120035884884145,0.0,0.0,0.0015241307278171159,0.0015241307278171159,0.0,0.0,0.0,0.0,0.14607665936981643,-0.677826937521921,0.0,0.0,0.0,0.0,-0.1460766593698164,0.677826937521921,0.6933885978605299,0.0,8.369576067260633,-38.83662276028382,0.0,0.0,0.0,0.0,-8.369576067260631,38.83662276028382,39.728240219902226
22,0.11056828498840332,1775825937.4382708,0.157706851,-18.851580750747708,-1.3226009989785557,0.697576374325033,-19.31,-0.92,0.8126800017729485,-0.45841924925229094,0.4026009989785556,0.11510362744791547,0.6208740754092037,3.8963731524412477,-3.0931427393560598,-0.6989722901005583,5.023725511154494,0.0,0.0,0.0014860445454017467,0.0014860445454017467,0.0,0.0,0.0,0.0,0.13958710928604043,-0.6709807643392953,0.0,0.0,0.0,0.0,-0.13958710928604035,0.6709807643392951,0.6853464431892659,0.0,7.997752236521499,-38.44436593110372,0.0,0.0,0.0,0.0,-7.997752236521493,38.444365931103704,39.267458699047374
23,0.11556339263916016,1775825937.443266,0.162701995,-18.832112837588383,-1.3379780356875637,0.694149555409207,-19.31,-0.92,0.812687338804946,-0.47788716241161566,0.41797803568756364,0.11853778339573906,0.6458583315305574,3.8357783994020362,-2.997954669537585,-0.6482849855035614,4.91133398908594,0.0,0.0,0.0014489186573020138,0.0014489186573020138,0.0,0.0,0.0,0.0,0.13238408489912726,-0.6634057782490219,0.0,0.0,0.0,0.0,-0.13238408489912734,0.6634057782490217,0.6764856040957336,0.0,7.585049339421566,-38.01035119826074,0.0,0.0,0.0,0.0,-7.5850493394215714,38.01035119826073,38.75977001604345
24,0.12056541442871094,1775825937.448268,0.167704006,-18.812949915855068,-1.3528698869310503,0.6909830136325015,-19.31,-0.92,0.8126944924877452,-0.4970500841449308,0.4328698869310502,0.1217114788552437,0.6702602548602397,3.763719435430703,-2.890688769707951,-0.5930175972112376,4.782607596547794,0.0,0.0,0.0014127127260474884,0.0014127127260474884,0.0,0.0,0.0,0.0,0.12431456485922773,-0.6549473747173317,0.0,0.0,0.0,0.0,-0.12431456485922787,0.6549473747173318,0.6666409638518055,0.0,7.122699898439084,-37.52572037447634,0.0,0.0,0.0,0.0,-7.122699898439092,37.52572037447635,38.19571367924173
25,0.12557387351989746,1775825937.4532764,0.172712351,-18.79415241442801,-1.367213048740707,0.6881007547816735,-19.31,-0.92,0.8127014674620917,-0.51584758557199,0.447213048740707,0.12460071268041817,0.6939910518910727,3.6801588558843097,-2.7713091444397167,-0.5331581473645183,4.637669801602963,0.0,0.0,0.001377420081851865,0.001377420081851865,0.0,0.0,0.0,0.0,0.11521725641357614,-0.6454442736819687,0.0,0.0,0.0,0.0,-0.11521725641357605,0.6454442736819685,0.6556472577570318,0.0,6.601462519574528,-36.981232792863636,0.0,0.0,0.0,0.0,-6.601462519574524,36.981232792863636,37.56582071880395
26,0.13058090209960938,1775825937.4582834,0.177719424,-18.775806603786787,-1.3809249039548377,0.685530235521703,-19.31,-0.92,0.8127082681421292,-0.5341933962132117,0.46092490395483765,0.12717803262042615,0.7169299851622778,3.5852062602237407,-2.63997892981679,-0.46879068578660776,4.476936160512497,0.0,0.0,0.0013430024096432052,0.0013430024096432052,0.0,0.0,0.0,0.0,0.1049046968920997,-0.6347099442652993,0.0,0.0,0.0,0.0,-0.10490469689209991,0.6347099442652993,0.6433208443531755,0.0,6.010596383016477,-36.36620102138536,0.0,0.0,0.0,0.0,-6.010596383016489,36.36620102138536,36.85956925422949
27,0.13559317588806152,1775825937.4632957,0.182731601,-18.757946886952872,-1.393962093562869,0.6832912291454853,-19.31,-0.92,0.8127148989400362,-0.5520531130471262,0.4739620935628689,0.1294236697945509,0.7390217805062377,3.478727629920188,-2.4965171322339175,-0.39982805295237256,4.3004658104251074,0.0,0.0,0.001309452697430848,0.001309452697430848,0.0,0.0,0.0,0.0,0.09310766386071095,-0.6224752109912869,0.0,0.0,0.0,0.0,-0.09310766386071112,0.6224752109912868,0.6294000519290145,0.0,5.334676179541478,-35.66520244131617,0.0,0.0,0.0,0.0,-5.334676179541487,35.66520244131617,36.06196660084738
28,0.1405496597290039,1775825937.4682522,0.187688176,-18.740838110512545,-1.4061181564842569,0.6814280697926307,-19.31,-0.92,0.812721364050043,-0.5691618894874537,0.4861181564842568,0.13129329425741232,0.7599302912935794,3.362184718370111,-2.342841994910229,-0.3271737155391948,4.110989824080834,0.0,0.0,0.001276734275620872,0.001276734275620872,0.0,0.0,0.0,0.0,0.07966939663800408,-0.6085894350637797,0.0,0.0,0.0,0.0,-0.07966939663800421,0.6085894350637799,0.613781975323416,0.0,4.564720183711384,-34.86960608540566,0.0,0.0,0.0,0.0,-4.564720183711391,34.869606085405664,35.16711672723458
29,0.14555954933166504,1775825937.473262,0.192698068,-18.724160670520725,-1.4176011677082585,0.6799220581962206,-19.31,-0.92,0.8127276676647107,-0.5858393294792741,0.49760116770825846,0.13280560946849007,0.7800333146575503,3.233024325491753,-2.1755847375425974,-0.24923420703913968,3.904834558519493,0.0,0.0,0.0012448408209575388,0.0012448408209575388,0.0,0.0,0.0,0.0,0.0638705020732954,-0.5923231826489385,0.0,0.0,0.0,0.0,-0.06387050207329548,0.5923231826489386,0.5957568243322628,0.0,3.6595102041814003,-33.937618473540766,0.0,0.0,0.0,0.0,-3.659510204181405,33.93761847354077,34.13435165035545
30,0.15056276321411133,1775825937.4782653,0.197701228,-18.708179951509102,-1.42820254201071,0.6788190608689899,-19.31,-0.92,0.8127338137710401,-0.6018200484908967,0.50820254201071,0.13391475290205024,0.7989933388436664,3.161584079869214,-2.0827680512865903,-0.20586762098237313,3.791558799084032,0.0,0.0,0.0012137376135422664,0.0012137376135422664,0.0,0.0,0.0,0.0,0.05432301567327586,-0.5825182318327972,0.0,0.0,0.0,0.0,-0.05432301567327569,0.5825182318327973,0.5850457080001934,0.0,3.112479528501729,-33.37583617344252,0.0,0.0,0.0,0.0,-3.1124795285017193,33.37583617344252,33.52064989065423
31,0.15555834770202637,1775825937.4832609,0.202696866,-18.692952471573697,-1.4378646013592438,0.6781400796131988,-19.31,-0.92,0.8127398063541593,-0.6170475284263013,0.5178646013592437,0.13459972674096055,0.8167303619412692,3.0959930313422928,-1.9981233499870656,-0.1665353093197903,3.688550363101175,0.0,0.0,0.0011834184423120282,0.0011834184423120282,0.0,0.0,0.0,0.0,0.045164610488723736,-0.5731277105299339,0.0,0.0,0.0,0.0,-0.04516461048872378,0.5731277105299339,0.5749045265240846,0.0,2.5877415643561603,-32.837798935360766,0.0,0.0,0.0,0.0,-2.587741564356163,32.837798935360766,32.93960299279694
32,0.16057181358337402,1775825937.4882743,0.207710268,-18.67846054807283,-1.4465734182700065,0.6779056264143208,-19.31,-0.92,0.812745649200204,-0.6315394519271678,0.5265734182700065,0.13484002278588314,0.833248747922206,3.0263619515866043,-1.9091815225320987,-0.12555445317393454,3.5804475514523135,0.0,0.0,0.0011538467806374191,0.0011538467806374191,0.0,0.0,0.0,0.0,0.035073883205109166,-0.5627952574216191,0.0,0.0,0.0,0.0,-0.03507388320510918,0.5627952574216191,0.5638871155287662,0.0,2.009585478787536,-32.245792980237496,0.0,0.0,0.0,0.0,-2.0095854787875367,32.245792980237496,32.30835184160417
33,0.16554927825927734,1775825937.4932518,0.212687785,-18.664911526737125,-1.4541817915536543,0.6781381988025703,-19.31,-0.92,0.8127513460581895,-0.6450884732628737,0.5341817915536543,0.13461314725561924,0.8482983108424536,2.953456573354959,-1.8169159729614788,-0.08337175848459016,3.468578993422088,0.0,0.0,0.001125013402838636,0.001125013402838636,0.0,0.0,0.0,0.0,0.024038601582906983,-0.5515086590868808,0.0,0.0,0.0,0.0,-0.02403860158290705,0.5515086590868807,0.5520322956257822,0.0,1.3773104160970702,-31.59911853059761,0.0,0.0,0.0,0.0,-1.377310416097074,31.599118530597604,31.629120694275493
34,0.17055082321166992,1775825937.4982533,0.217689433,-18.663218498740523,-1.455089693316127,0.6782034899152043,-19.31,-0.92,0.8127569005224997,-0.6467815012594755,0.535089693316127,0.13455341060729542,0.8501481697743419,2.876411214992106,-1.7202282508957525,-0.03948390917207073,3.3517884318667446,0.0,0.0,0.0010968952984774956,0.0010968952984774956,0.0,0.0,0.0,0.0,0.01178022515766545,-0.5389820165831296,0.0,0.0,0.0,0.0,-0.011780225157665303,0.5389820165831294,0.5391107380722276,0.0,0.6749571832480651,-30.881394783663474,0.0,0.0,0.0,0.0,-0.6749571832480566,30.881394783663463,30.88876998172143
35,0.17555904388427734,1775825937.5032616,0.222697442,-18.663218498740523,-1.455089693316127,0.6782034899152043,-19.31,-0.92,0.812762316199252,-0.6467815012594755,0.535089693316127,0.1345588262840477,0.8501490269332479,2.7954649365624196,-1.6194254779989463,0.005966908482977818,3.23066536402935,0.0,0.0,0.0010694864935445678,0.0010694864935445678,0.0,0.0,0.0,0.0,-0.0018469606731372709,-0.5250632246913484,0.0,0.0,0.0,0.0,0.0018469606731370547,0.5250632246913485,0.525066473112696,0.0,-0.10582305149740719,-30.0839067523435,0.0,0.0,0.0,0.0,0.1058230514973948,30.083906752343506,30.0840928731768
36,0.1805555820465088,1775825937.508258,0.227694122,-18.663218498740523,-1.455089693316127,0.6782034899152043,-19.31,-0.92,0.8127675965165837,-0.6467815012594755,0.535089693316127,0.1345641066013794,0.8501498627007095,2.710909323755829,-1.514869661193757,0.05281790520234922,3.1059055335186128,0.0,0.0,0.0010427573735073952,0.0010427573735073952,0.0,0.0,0.0,0.0,-0.017006457766936822,-0.5095781381270816,0.0,0.0,0.0,0.0,0.017006457766936656,0.5095781381270816,0.5098618425248567,0.0,-0.9743982545129585,-29.19667664681628,0.0,0.0,0.0,0.0,0.974398254512949,29.19667664681628,29.212931711438088
37,0.18558430671691895,1775825937.5132868,0.232722886,-18.663218498740523,-1.455089693316127,0.6782034899152043,-19.31,-0.92,0.8127727449027208,-0.6467815012594755,0.535089693316127,0.13456925498751648,0.850150677616917,2.6219860552276906,-1.4056275326369856,0.1014855208511583,2.9767262126803056,0.0,0.0,0.001016702717757413,0.001016702717757413,0.0,0.0,0.0,0.0,-0.03409960603557988,-0.49210314506801217,0.0,0.0,0.0,0.0,0.03409960603557982,0.492103145068012,0.4932831727492948,0.0,-1.9537635088975558,-28.19543329751119,0.0,0.0,0.0,0.0,1.9537635088975527,28.19543329751118,28.263043903357293
38,0.1905508041381836,1775825937.5182533,0.237689209,-18.663218498740523,-1.455089693316127,0.6782034899152043,-19.31,-0.92,0.8127777646172466,-0.6467815012594755,0.535089693316127,0.1345742747020423,0.8501514721955074,0.0,0.0,0.0,0.0,0.0,0.0,0.0009912942803912096,0.0009912942803912096,0.0,0.0,0.0,0.0,-0.03409960603557988,-0.49210314506801217,0.0,0.0,0.0,0.0,0.03409960603557982,0.492103145068012,0.4932831727492948,0.0,-1.9537635088975558,-28.19543329751119,0.0,0.0,0.0,0.0,1.9537635088975527,28.19543329751118,28.263043903357293
39,0.1955578327178955,1775825937.5232604,0.242696436,-18.663218498740523,-1.455089693316127,0.6782034899152043,-19.31,-0.92,0.8127826589204133,-0.6467815012594755,0.535089693316127,0.13457916900520905,0.8501522469503568,0.0,0.0,0.0,0.0,0.0,0.0,0.0009665275073388121,0.0009665275073388121,0.0,0.0,0.0,0.0,-0.03409960603557988,-0.49210314506801217,0.0,0.0,0.0,0.0,0.03409960603557982,0.492103145068012,0.4932831727492948,0.0,-1.9537635088975558,-28.19543329751119,0.0,0.0,0.0,0.0,1.9537635088975527,28.19543329751118,28.263043903357293
40,0.20067119598388672,1775825937.5283737,0.247809677,-18.663218498740523,-1.455089693316127,0.6782034899152043,-19.31,-0.92,0.8127874309132015,-0.6467815012594755,0.535089693316127,0.1345839409979972,0.8501530023702558,0.0,0.0,0.0,0.0,0.0,0.0,0.0009423752402438574,0.0009423752402438574,0.0,0.0,0.0,0.0,-0.03409960603557988,-0.49210314506801217,0.0,0.0,0.0,0.0,0.03409960603557982,0.492103145068012,0.4932831727492948,0.0,-1.9537635088975558,-28.19543329751119,0.0,0.0,0.0,0.0,1.9537635088975527,28.19543329751118,28.263043903357293
41,0.20568442344665527,1775825937.533387,0.25282301,-18.663218498740523,-1.455089693316127,0.6782034899152043,-19.31,-0.92,0.8127920836931347,-0.6467815012594755,0.535089693316127,0.13458859377793042,0.850153738943568,0.0,0.0,0.0,0.0,0.0,0.0,0.0009188321342773009,0.0009188321342773009,0.0,0.0,0.0,0.0,-0.03409960603557988,-0.49210314506801217,0.0,0.0,0.0,0.0,0.03409960603557982,0.492103145068012,0.4932831727492948,0.0,-1.9537635088975558,-28.19543329751119,0.0,0.0,0.0,0.0,1.9537635088975527,28.19543329751118,28.263043903357293
42,0.21055912971496582,1775825937.5382617,0.257697593,-18.663218498740523,-1.455089693316127,0.6782034899152043,-19.31,-0.92,0.8127966202042362,-0.6467815012594755,0.535089693316127,0.13459313028903186,0.8501544571344716,0.0,0.0,0.0,0.0,0.0,0.0,0.0008958727015103303,0.0008958727015103303,0.0,0.0,0.0,0.0,-0.03409960603557988,-0.49210314506801217,0.0,0.0,0.0,0.0,0.03409960603557982,0.492103145068012,0.4932831727492948,0.0,-1.9537635088975558,-28.19543329751119,0.0,0.0,0.0,0.0,1.9537635088975527,28.19543329751118,28.263043903357293
43,0.21558785438537598,1775825937.5432904,0.262726415,-18.663218498740523,-1.455089693316127,0.6782034899152043,-19.31,-0.92,0.8128010433896036,-0.6467815012594755,0.535089693316127,0.13459755347439928,0.8501551574071062,0.0,0.0,0.0,0.0,0.0,0.0,0.0008734920852722714,0.0008734920852722714,0.0,0.0,0.0,0.0,-0.03409960603557988,-0.49210314506801217,0.0,0.0,0.0,0.0,0.03409960603557982,0.492103145068012,0.4932831727492948,0.0,-1.9537635088975558,-28.19543329751119,0.0,0.0,0.0,0.0,1.9537635088975527,28.19543329751118,28.263043903357293
44,0.22054457664489746,1775825937.548247,0.267682977,-18.663218498740523,-1.455089693316127,0.6782034899152043,-19.31,-0.92,0.8128053560462603,-0.6467815012594755,0.535089693316127,0.13460186613105596,0.8501558402025893,0.0,0.0,0.0,0.0,0.0,0.0,0.0008516659584751227,0.0008516659584751227,0.0,0.0,0.0,0.0,-0.03409960603557988,-0.49210314506801217,0.0,0.0,0.0,0.0,0.03409960603557982,0.492103145068012,0.4932831727492948,0.0,-1.9537635088975558,-28.19543329751119,0.0,0.0,0.0,0.0,1.9537635088975527,28.19543329751118,28.263043903357293
45,0.22556376457214355,1775825937.5532663,0.272702323,-18.663218498740523,-1.455089693316127,0.6782034899152043,-19.31,-0.92,0.812809560970598,-0.6467815012594755,0.535089693316127,0.13460607105539368,0.8501565059620361,0.0,0.0,0.0,0.0,0.0,0.0,0.0008303899316677331,0.0008303899316677331,0.0,0.0,0.0,0.0,-0.03409960603557988,-0.49210314506801217,0.0,0.0,0.0,0.0,0.03409960603557982,0.492103145068012,0.4932831727492948,0.0,-1.9537635088975558,-28.19543329751119,0.0,0.0,0.0,0.0,1.9537635088975527,28.19543329751118,28.263043903357293
46,0.23055219650268555,1775825937.5582547,0.27769066,-18.663218498740523,-1.455089693316127,0.6782034899152043,-19.31,-0.92,0.8128136608214996,-0.6467815012594755,0.535089693316127,0.13461017090629535,0.850157155104884,0.0,0.0,0.0,0.0,0.0,0.0,0.0008096411699717355,0.0008096411699717355,0.0,0.0,0.0,0.0,-0.03409960603557988,-0.49210314506801217,0.0,0.0,0.0,0.0,0.03409960603557982,0.492103145068012,0.4932831727492948,0.0,-1.9537635088975558,-28.19543329751119,0.0,0.0,0.0,0.0,1.9537635088975527,28.19543329751118,28.263043903357293
47,0.23557806015014648,1775825937.5632806,0.282716523,-18.663218498740523,-1.455089693316127,0.6782034899152043,-19.31,-0.92,0.8128176582591335,-0.6467815012594755,0.535089693316127,0.13461416834392925,0.8501577880508626,0.0,0.0,0.0,0.0,0.0,0.0,0.0007894158757283929,0.0007894158757283929,0.0,0.0,0.0,0.0,-0.03409960603557988,-0.49210314506801217,0.0,0.0,0.0,0.0,0.03409960603557982,0.492103145068012,0.4932831727492948,0.0,-1.9537635088975558,-28.19543329751119,0.0,0.0,0.0,0.0,1.9537635088975527,28.19543329751118,28.263043903357293
48,0.24056482315063477,1775825937.5682673,0.287703372,-18.663218498740523,-1.455089693316127,0.6782034899152043,-19.31,-0.92,0.8128215558125077,-0.6467815012594755,0.535089693316127,0.1346180658973034,0.8501584051990185,0.0,0.0,0.0,0.0,0.0,0.0,0.0007696915799859553,0.0007696915799859553,0.0,0.0,0.0,0.0,-0.03409960603557988,-0.49210314506801217,0.0,0.0,0.0,0.0,0.03409960603557982,0.492103145068012,0.4932831727492948,0.0,-1.9537635088975558,-28.19543329751119,0.0,0.0,0.0,0.0,1.9537635088975527,28.19543329751118,28.263043903357293
49,0.24557018280029297,1775825937.5732727,0.292708643,-18.663218498740523,-1.455089693316127,0.6782034899152043,-19.31,-0.92,0.812825356007244,-0.6467815012594755,0.535089693316127,0.13462186609203974,0.850159006947942,0.0,0.0,0.0,0.0,0.0,0.0,0.0007504641482045329,0.0007504641482045329,0.0,0.0,0.0,0.0,-0.03409960603557988,-0.49210314506801217,0.0,0.0,0.0,0.0,0.03409960603557982,0.492103145068012,0.4932831727492948,0.0,-1.9537635088975558,-28.19543329751119,0.0,0.0,0.0,0.0,1.9537635088975527,28.19543329751118,28.263043903357293
50,0.2505607604980469,1775825937.5782633,0.297699163,-18.663218498740523,-1.455089693316127,0.6782034899152043,-19.31,-0.92,0.8128290612453851,-0.6467815012594755,0.535089693316127,0.13462557133018083,0.8501595936767317,0.0,0.0,0.0,0.0,0.0,0.0,0.0007317130762740231,0.0007317130762740231,0.0,0.0,0.0,0.0,-0.03409960603557988,-0.49210314506801217,0.0,0.0,0.0,0.0,0.03409960603557982,0.492103145068012,0.4932831727492948,0.0,-1.9537635088975558,-28.19543329751119,0.0,0.0,0.0,0.0,1.9537635088975527,28.19543329751118,28.263043903357293
51,0.255565881729126,1775825937.5832684,0.302704329,-18.663218498740523,-1.455089693316127,0.6782034899152043,-19.31,-0.92,0.8128326739296545,-0.6467815012594755,0.535089693316127,0.13462918401445023,0.850160165764666,0.0,0.0,0.0,0.0,0.0,0.0,0.0007134346498633826,0.0007134346498633826,0.0,0.0,0.0,0.0,-0.03409960603557988,-0.49210314506801217,0.0,0.0,0.0,0.0,0.03409960603557982,0.492103145068012,0.4932831727492948,0.0,-1.9537635088975558,-28.19543329751119,0.0,0.0,0.0,0.0,1.9537635088975527,28.19543329751118,28.263043903357293
52,0.26056504249572754,1775825937.5882676,0.307703636,-18.663218498740523,-1.455089693316127,0.6782034899152043,-19.31,-0.92,0.8128361963442445,-0.6467815012594755,0.535089693316127,0.13463270642904024,0.8501607235723231,0.0,0.0,0.0,0.0,0.0,0.0,0.0006956090901276031,0.0006956090901276031,0.0,0.0,0.0,0.0,-0.03409960603557988,-0.49210314506801217,0.0,0.0,0.0,0.0,0.03409960603557982,0.492103145068012,0.4932831727492948,0.0,-1.9537635088975558,-28.19543329751119,0.0,0.0,0.0,0.0,1.9537635088975527,28.19543329751118,28.263043903357293
53,0.26563549041748047,1775825937.593338,0.312774018,-18.663218498740523,-1.455089693316127,0.6782034899152043,-19.31,-0.92,0.812839630772978,-0.6467815012594755,0.535089693316127,0.13463614085777376,0.8501612674602873,0.0,0.0,0.0,0.0,0.0,0.0,0.0006782327545815995,0.0006782327545815995,0.0,0.0,0.0,0.0,-0.03409960603557988,-0.49210314506801217,0.0,0.0,0.0,0.0,0.03409960603557982,0.492103145068012,0.4932831727492948,0.0,-1.9537635088975558,-28.19543329751119,0.0,0.0,0.0,0.0,1.9537635088975527,28.19543329751118,28.263043903357293
54,0.270580530166626,1775825937.598283,0.317719037,-18.663218498740523,-1.455089693316127,0.6782034899152043,-19.31,-0.92,0.8128429793871979,-0.6467815012594755,0.535089693316127,0.13463948947199356,0.850161797771393,0.0,0.0,0.0,0.0,0.0,0.0,0.0006612870367959458,0.0006612870367959458,0.0,0.0,0.0,0.0,-0.03409960603557988,-0.49210314506801217,0.0,0.0,0.0,0.0,0.03409960603557982,0.492103145068012,0.4932831727492948,0.0,-1.9537635088975558,-28.19543329751119,0.0,0.0,0.0,0.0,1.9537635088975527,28.19543329751118,28.263043903357293
55,0.27559781074523926,1775825937.6033003,0.3227362,-18.663218498740523,-1.455089693316127,0.6782034899152043,-19.31,-0.92,0.8128462443589888,-0.6467815012594755,0.535089693316127,0.13464275444378448,0.8501623148486511,0.0,0.0,0.0,0.0,0.0,0.0,0.000644768590357464,0.000644768590357464,0.0,0.0,0.0,0.0,-0.03409960603557988,-0.49210314506801217,0.0,0.0,0.0,0.0,0.03409960603557982,0.492103145068012,0.4932831727492948,0.0,-1.9537635088975558,-28.19543329751119,0.0,0.0,0.0,0.0,1.9537635088975527,28.19543329751118,28.263043903357293
56,0.2805657386779785,1775825937.6082683,0.327704177,-18.663218498740523,-1.455089693316127,0.6782034899152043,-19.31,-0.92,0.812849427753002,-0.6467815012594755,0.535089693316127,0.13464593783779766,0.8501628190181149,0.0,0.0,0.0,0.0,0.0,0.0,0.0006286594275582444,0.0006286594275582444,0.0,0.0,0.0,0.0,-0.03409960603557988,-0.49210314506801217,0.0,0.0,0.0,0.0,0.03409960603557982,0.492103145068012,0.4932831727492948,0.0,-1.9537635088975558,-28.19543329751119,0.0,0.0,0.0,0.0,1.9537635088975527,28.19543329751118,28.263043903357293
57,0.28560876846313477,1775825937.6133113,0.332747331,-18.663218498740523,-1.455089693316127,0.6782034899152043,-19.31,-0.92,0.8128525316338957,-0.6467815012594755,0.535089693316127,0.1346490417186914,0.8501633106058916,0.0,0.0,0.0,0.0,0.0,0.0,0.0006129565794419025,0.0006129565794419025,0.0,0.0,0.0,0.0,-0.03409960603557988,-0.49210314506801217,0.0,0.0,0.0,0.0,0.03409960603557982,0.492103145068012,0.4932831727492948,0.0,-1.9537635088975558,-28.19543329751119,0.0,0.0,0.0,0.0,1.9537635088975527,28.19543329751118,28.263043903357293
58,0.29058146476745605,1775825937.618284,0.337719896,-18.663218498740523,-1.455089693316127,0.6782034899152043,-19.31,-0.92,0.8128555579634336,-0.6467815012594755,0.535089693316127,0.13465206804822927,0.8501637899218437,0.0,0.0,0.0,0.0,0.0,0.0,0.0005976408589904534,0.0005976408589904534,0.0,0.0,0.0,0.0,-0.03409960603557988,-0.49210314506801217,0.0,0.0,0.0,0.0,0.03409960603557982,0.492103145068012,0.4932831727492948,0.0,-1.9537635088975558,-28.19543329751119,0.0,0.0,0.0,0.0,1.9537635088975527,28.19543329751118,28.263043903357293
59,0.29560399055480957,1775825937.6233065,0.342742417,-18.663218498740523,-1.455089693316127,0.6782034899152043,-19.31,-0.92,0.8128585086821117,-0.6467815012594755,0.535089693316127,0.13465501876690744,0.8501642572725132,0.0,0.0,0.0,0.0,0.0,0.0,0.0005827071377171934,0.0005827071377171934,0.0,0.0,0.0,0.0,-0.03409960603557988,-0.49210314506801217,0.0,0.0,0.0,0.0,0.03409960603557982,0.492103145068012,0.4932831727492948,0.0,-1.9537635088975558,-28.19543329751119,0.0,0.0,0.0,0.0,1.9537635088975527,28.19543329751118,28.263043903357293
60,0.30062222480773926,1775825937.6283247,0.347760813,-18.663218498740523,-1.455089693316127,0.6782034899152043,-19.31,-0.92,0.8128613856503156,-0.6467815012594755,0.535089693316127,0.13465789573511133,0.8501647129517996,0.0,0.0,0.0,0.0,0.0,0.0,0.0005681439075717517,0.0005681439075717517,0.0,0.0,0.0,0.0,-0.03409960603557988,-0.49210314506801217,0.0,0.0,0.0,0.0,0.03409960603557982,0.492103145068012,0.4932831727492948,0.0,-1.9537635088975558,-28.19543329751119,0.0,0.0,0.0,0.0,1.9537635088975527,28.19543329751118,28.263043903357293
61,0.30556726455688477,1775825937.6332698,0.352705833,-18.663218498740523,-1.455089693316127,0.6782034899152043,-19.31,-0.92,0.8128641907370988,-0.6467815012594755,0.535089693316127,0.13466070082189452,0.8501651572550193,0.0,0.0,0.0,0.0,0.0,0.0,0.0005539483943933365,0.0005539483943933365,0.0,0.0,0.0,0.0,-0.03409960603557988,-0.49210314506801217,0.0,0.0,0.0,0.0,0.03409960603557982,0.492103145068012,0.4932831727492948,0.0,-1.9537635088975558,-28.19543329751119,0.0,0.0,0.0,0.0,1.9537635088975527,28.19543329751118,28.263043903357293
62,0.311185359954834,1775825937.638888,0.358323836,-18.663218498740523,-1.455089693316127,0.6782034899152043,-19.31,-0.92,0.8128669257183799,-0.6467815012594755,0.535089693316127,0.13466343580317564,0.8501655904627778,0.0,0.0,0.0,0.0,0.0,0.0,0.0005401036492238182,0.0005401036492238182,0.0,0.0,0.0,0.0,-0.03409960603557988,-0.49210314506801217,0.0,0.0,0.0,0.0,0.03409960603557982,0.492103145068012,0.4932831727492948,0.0,-1.9537635088975558,-28.19543329751119,0.0,0.0,0.0,0.0,1.9537635088975527,28.19543329751118,28.263043903357293
63,0.3155670166015625,1775825937.6432695,0.362705443,-18.663218498740523,-1.455089693316127,0.6782034899152043,-19.31,-0.92,0.8128695923530813,-0.6467815012594755,0.535089693316127,0.13466610243787702,0.850166012853029,0.0,0.0,0.0,0.0,0.0,0.0,0.0005266050375726403,0.0005266050375726403,0.0,0.0,0.0,0.0,-0.03409960603557988,-0.49210314506801217,0.0,0.0,0.0,0.0,0.03409960603557982,0.492103145068012,0.4932831727492948,0.0,-1.9537635088975558,-28.19543329751119,0.0,0.0,0.0,0.0,1.9537635088975527,28.19543329751118,28.263043903357293
64,0.3205559253692627,1775825937.6482584,0.367694388,-18.663218498740523,-1.455089693316127,0.6782034899152043,-19.31,-0.92,0.8128721923253911,-0.6467815012594755,0.535089693316127,0.1346687024101868,0.8501664246919254,0.0,0.0,0.0,0.0,0.0,0.0,0.0005134414893193249,0.0005134414893193249,0.0,0.0,0.0,0.0,-0.03409960603557988,-0.49210314506801217,0.0,0.0,0.0,0.0,0.03409960603557982,0.492103145068012,0.4932831727492948,0.0,-1.9537635088975558,-28.19543329751119,0.0,0.0,0.0,0.0,1.9537635088975527,28.19543329751118,28.263043903357293
65,0.3255729675292969,1775825937.6532755,0.37271153,-18.663218498740523,-1.455089693316127,0.6782034899152043,-19.31,-0.92,0.8128747273244467,-0.6467815012594755,0.535089693316127,0.13467123740924236,0.8501668262464399,0.0,0.0,0.0,0.0,0.0,0.0,0.0005006101651070244,0.0005006101651070244,0.0,0.0,0.0,0.0,-0.03409960603557988,-0.49210314506801217,0.0,0.0,0.0,0.0,0.03409960603557982,0.492103145068012,0.4932831727492948,0.0,-1.9537635088975558,-28.19543329751119,0.0,0.0,0.0,0.0,1.9537635088975527,28.19543329751118,28.263043903357293
66,0.33073949813842773,1775825937.658442,0.377878051,-18.663218498740523,-1.455089693316127,0.6782034899152043,-19.31,-0.92,0.8128771989345681,-0.6467815012594755,0.535089693316127,0.13467370901936382,0.8501672177669756,0.0,0.0,0.0,0.0,0.0,0.0,0.00048808800670546487,0.00048808800670546487,0.0,0.0,0.0,0.0,-0.03409960603557988,-0.49210314506801217,0.0,0.0,0.0,0.0,0.03409960603557982,0.492103145068012,0.4932831727492948,0.0,-1.9537635088975558,-28.19543329751119,0.0,0.0,0.0,0.0,1.9537635088975527,28.19543329751118,28.263043903357293
67,0.33557653427124023,1775825937.663279,0.382715151,-18.663218498740523,-1.455089693316127,0.6782034899152043,-19.31,-0.92,0.8128796087359443,-0.6467815012594755,0.535089693316127,0.13467611882074004,0.8501675995033132,0.0,0.0,0.0,0.0,0.0,0.0,0.0004758822592285682,0.0004758822592285682,0.0,0.0,0.0,0.0,-0.03409960603557988,-0.49210314506801217,0.0,0.0,0.0,0.0,0.03409960603557982,0.492103145068012,0.4932831727492948,0.0,-1.9537635088975558,-28.19543329751119,0.0,0.0,0.0,0.0,1.9537635088975527,28.19543329751118,28.263043903357293
68,0.34056544303894043,1775825937.668268,0.387703983,-18.663218498740523,-1.455089693316127,0.6782034899152043,-19.31,-0.92,0.8128819582611214,-0.6467815012594755,0.535089693316127,0.13467846834591712,0.850167971697717,0.0,0.0,0.0,0.0,0.0,0.0,0.0004639791470799759,0.0004639791470799759,0.0,0.0,0.0,0.0,-0.03409960603557988,-0.49210314506801217,0.0,0.0,0.0,0.0,0.03409960603557982,0.492103145068012,0.4932831727492948,0.0,-1.9537635088975558,-28.19543329751119,0.0,0.0,0.0,0.0,1.9537635088975527,28.19543329751118,28.263043903357293
69,0.3455631732940674,1775825937.6732657,0.392701642,-18.663218498740523,-1.455089693316127,0.6782034899152043,-19.31,-0.92,0.8128842490272453,-0.6467815012594755,0.535089693316127,0.13468075911204103,0.8501683345900407,0.0,0.0,0.0,0.0,0.0,0.0,0.0004523745791578737,0.0004523745791578737,0.0,0.0,0.0,0.0,-0.03409960603557988,-0.49210314506801217,0.0,0.0,0.0,0.0,0.03409960603557982,0.492103145068012,0.4932831727492948,0.0,-1.9537635088975558,-28.19543329751119,0.0,0.0,0.0,0.0,1.9537635088975527,28.19543329751118,28.263043903357293
70,0.35143494606018066,1775825937.6791375,0.39857336,-18.663218498740523,-1.455089693316127,0.6782034899152043,-19.31,-0.92,0.8128851492065069,-0.6467815012594755,0.535089693316127,0.1346816592913026,0.8501684771938244,0.0,0.0,0.0,0.0,0.0,0.0,0.00044781307475582385,0.00044781307475582385,0.0,0.0,0.0,0.0,-0.03409960603557988,-0.49210314506801217,0.0,0.0,0.0,0.0,0.03409960603557982,0.492103145068012,0.4932831727492948,0.0,-1.9537635088975558,-28.19543329751119,0.0,0.0,0.0,0.0,1.9537635088975527,28.19543329751118,28.263043903357293
71,0.3555943965911865,1775825937.683297,0.402732957,-18.663218498740523,-1.455089693316127,0.6782034899152043,-19.31,-0.92,0.8128873601748694,-0.6467815012594755,0.535089693316127,0.1346838702596651,0.8501688274529536,0.0,0.0,0.0,0.0,0.0,0.0,0.000436623183624092,0.000436623183624092,0.0,0.0,0.0,0.0,-0.03409960603557988,-0.49210314506801217,0.0,0.0,0.0,0.0,0.03409960603557982,0.492103145068012,0.4932831727492948,0.0,-1.9537635088975558,-28.19543329751119,0.0,0.0,0.0,0.0,1.9537635088975527,28.19543329751118,28.263043903357293
72,0.36217331886291504,1775825937.6898758,0.409311704,-18.663218498740523,-1.455089693316127,0.6782034899152043,-19.31,-0.92,0.8128895159069972,-0.6467815012594755,0.535089693316127,0.1346860259917929,0.8501691689670179,0.0,0.0,0.0,0.0,0.0,0.0,0.0004257173613186967,0.0004257173613186967,0.0,0.0,0.0,0.0,-0.03409960603557988,-0.49210314506801217,0.0,0.0,0.0,0.0,0.03409960603557982,0.492103145068012,0.4932831727492948,0.0,-1.9537635088975558,-28.19543329751119,0.0,0.0,0.0,0.0,1.9537635088975527,28.19543329751118,28.263043903357293
73,0.3655412197113037,1775825937.6932437,0.412679659,-18.663218498740523,-1.455089693316127,0.6782034899152043,-19.31,-0.92,0.8128916178091685,-0.6467815012594755,0.535089693316127,0.13468812789396423,0.8501695019583969,0.0,0.0,0.0,0.0,0.0,0.0,0.0004150864988021215,0.0004150864988021215,0.0,0.0,0.0,0.0,-0.03409960603557988,-0.49210314506801217,0.0,0.0,0.0,0.0,0.03409960603557982,0.492103145068012,0.4932831727492948,0.0,-1.9537635088975558,-28.19543329751119,0.0,0.0,0.0,0.0,1.9537635088975527,28.19543329751118,28.263043903357293
74,0.3705177307128906,1775825937.6982203,0.417656296,-18.663218498740523,-1.455089693316127,0.6782034899152043,-19.31,-0.92,0.8128936672087994,-0.6467815012594755,0.535089693316127,0.13469017729359511,0.8501698266370008,0.0,0.0,0.0,0.0,0.0,0.0,0.0004047185828832315,0.0004047185828832315,0.0,0.0,0.0,0.0,-0.03409960603557988,-0.49210314506801217,0.0,0.0,0.0,0.0,0.03409960603557982,0.492103145068012,0.4932831727492948,0.0,-1.9537635088975558,-28.19543329751119,0.0,0.0,0.0,0.0,1.9537635088975527,28.19543329751118,28.263043903357293
75,0.37554407119750977,1775825937.7032466,0.422682552,-18.663218498740523,-1.455089693316127,0.6782034899152043,-19.31,-0.92,0.8128956654321065,-0.6467815012594755,0.535089693316127,0.13469217551690216,0.8501701432125712,0.0,0.0,0.0,0.0,0.0,0.0,0.00039461161441717237,0.00039461161441717237,0.0,0.0,0.0,0.0,-0.03409960603557988,-0.49210314506801217,0.0,0.0,0.0,0.0,0.03409960603557982,0.492103145068012,0.4932831727492948,0.0,-1.9537635088975558,-28.19543329751119,0.0,0.0,0.0,0.0,1.9537635088975527,28.19543329751118,28.263043903357293
76,0.3834240436553955,1775825937.7111266,0.430562457,-18.663218498740523,-1.455089693316127,0.6782034899152043,-19.31,-0.92,0.812897613740651,-0.6467815012594755,0.535089693316127,0.13469412382544665,0.8501704518846279,0.0,0.0,0.0,0.0,0.0,0.0,0.00038475488835640695,0.00038475488835640695,0.0,0.0,0.0,0.0,-0.03409960603557988,-0.49210314506801217,0.0,0.0,0.0,0.0,0.03409960603557982,0.492103145068012,0.4932831727492948,0.0,-1.9537635088975558,-28.19543329751119,0.0,0.0,0.0,0.0,1.9537635088975527,28.19543329751118,28.263043903357293
77,0.3857998847961426,1775825937.7135024,0.432938484,-18.663218498740523,-1.455089693316127,0.6782034899152043,-19.31,-0.92,0.8128987592945032,-0.6467815012594755,0.535089693316127,0.13469526937929888,0.8501706333776589,0.0,0.0,0.0,0.0,0.0,0.0,0.0003789621216656078,0.0003789621216656078,0.0,0.0,0.0,0.0,-0.03409960603557988,-0.49210314506801217,0.0,0.0,0.0,0.0,0.03409960603557982,0.492103145068012,0.4932831727492948,0.0,-1.9537635088975558,-28.19543329751119,0.0,0.0,0.0,0.0,1.9537635088975527,28.19543329751118,28.263043903357293
78,0.390796422958374,1775825937.718499,0.437934868,-18.663218498740523,-1.455089693316127,0.6782034899152043,-19.31,-0.92,0.8129006303579946,-0.6467815012594755,0.535089693316127,0.13469714044279035,0.8501709298182764,0.0,0.0,0.0,0.0,0.0,0.0,0.000369504702241367,0.000369504702241367,0.0,0.0,0.0,0.0,-0.03409960603557988,-0.49210314506801217,0.0,0.0,0.0,0.0,0.03409960603557982,0.492103145068012,0.4932831727492948,0.0,-1.9537635088975558,-28.19543329751119,0.0,0.0,0.0,0.0,1.9537635088975527,28.19543329751118,28.263043903357293
79,0.3957786560058594,1775825937.7234812,0.442917059,-18.663218498740523,-1.455089693316127,0.6782034899152043,-19.31,-0.92,0.8129024547380898,-0.6467815012594755,0.535089693316127,0.13469896482288546,0.8501712188665085,0.0,0.0,0.0,0.0,0.0,0.0,0.0003602843459672986,0.0003602843459672986,0.0,0.0,0.0,0.0,-0.03409960603557988,-0.49210314506801217,0.0,0.0,0.0,0.0,0.03409960603557982,0.492103145068012,0.4932831727492948,0.0,-1.9537635088975558,-28.19543329751119,0.0,0.0,0.0,0.0,1.9537635088975527,28.19543329751118,28.263043903357293
80,0.4007833003997803,1775825937.7284858,0.447921827,-18.663218498740523,-1.455089693316127,0.6782034899152043,-19.31,-0.92,0.8129042335783759,-0.6467815012594755,0.535089693316127,0.13470074366317164,0.8501715007032518,0.0,0.0,0.0,0.0,0.0,0.0,0.0003512908831443041,0.0003512908831443041,0.0,0.0,0.0,0.0,-0.03409960603557988,-0.49210314506801217,0.0,0.0,0.0,0.0,0.03409960603557982,0.492103145068012,0.4932831727492948,0.0,-1.9537635088975558,-28.19543329751119,0.0,0.0,0.0,0.0,1.9537635088975527,28.19543329751118,28.263043903357293
81,0.4057896137237549,1775825937.7334921,0.452928095,-18.663218498740523,-1.455089693316127,0.6782034899152043,-19.31,-0.92,0.812905968025018,-0.6467815012594755,0.535089693316127,0.13470247810981373,0.8501717755098276,0.0,0.0,0.0,0.0,0.0,0.0,0.00034252313147664697,0.00034252313147664697,0.0,0.0,0.0,0.0,-0.03409960603557988,-0.49210314506801217,0.0,0.0,0.0,0.0,0.03409960603557982,0.492103145068012,0.4932831727492948,0.0,-1.9537635088975558,-28.19543329751119,0.0,0.0,0.0,0.0,1.9537635088975527,28.19543329751118,28.263043903357293
82,0.41079115867614746,1775825937.7384937,0.457929674,-18.663218498740523,-1.455089693316127,0.6782034899152043,-19.31,-0.92,0.8129076591684535,-0.6467815012594755,0.535089693316127,0.13470416925324924,0.8501720434587436,0.0,0.0,0.0,0.0,0.0,0.0,0.00033397139150452587,0.00033397139150452587,0.0,0.0,0.0,0.0,-0.03409960603557988,-0.49210314506801217,0.0,0.0,0.0,0.0,0.03409960603557982,0.492103145068012,0.4932831727492948,0.0,-1.9537635088975558,-28.19543329751119,0.0,0.0,0.0,0.0,1.9537635088975527,28.19543329751118,28.263043903357293
83,0.4157865047454834,1775825937.743489,0.462924936,-18.663218498740523,-1.455089693316127,0.6782034899152043,-19.31,-0.92,0.8129093080987828,-0.6467815012594755,0.535089693316127,0.13470581818357852,0.8501723047224693,0.0,0.0,0.0,0.0,0.0,0.0,0.0003256344062047188,0.0003256344062047188,0.0,0.0,0.0,0.0,-0.03409960603557988,-0.49210314506801217,0.0,0.0,0.0,0.0,0.03409960603557982,0.492103145068012,0.4932831727492948,0.0,-1.9537635088975558,-28.19543329751119,0.0,0.0,0.0,0.0,1.9537635088975527,28.19543329751118,28.263043903357293
84,0.4209320545196533,1775825937.7486346,0.468070653,-18.663218498740523,-1.455089693316127,0.6782034899152043,-19.31,-0.92,0.8129109158540487,-0.6467815012594755,0.535089693316127,0.13470742593884444,0.8501725594652401,0.0,0.0,0.0,0.0,0.0,0.0,0.00031750251966596407,0.00031750251966596407,0.0,0.0,0.0,0.0,-0.03409960603557988,-0.49210314506801217,0.0,0.0,0.0,0.0,0.03409960603557982,0.492103145068012,0.4932831727492948,0.0,-1.9537635088975558,-28.19543329751119,0.0,0.0,0.0,0.0,1.9537635088975527,28.19543329751118,28.263043903357293
85,0.42578649520874023,1775825937.753489,0.472924999,-18.663218498740523,-1.455089693316127,0.6782034899152043,-19.31,-0.92,0.8129124834633275,-0.6467815012594755,0.535089693316127,0.13470899354812316,0.8501728078498841,0.0,0.0,0.0,0.0,0.0,0.0,0.0003095733016570096,0.0003095733016570096,0.0,0.0,0.0,0.0,-0.03409960603557988,-0.49210314506801217,0.0,0.0,0.0,0.0,0.03409960603557982,0.492103145068012,0.4932831727492948,0.0,-1.9537635088975558,-28.19543329751119,0.0,0.0,0.0,0.0,1.9537635088975527,28.19543329751118,28.263043903357293
86,0.43077778816223145,1775825937.7584803,0.477916174,-18.663218498740523,-1.455089693316127,0.6782034899152043,-19.31,-0.92,0.8129140119134229,-0.6467815012594755,0.535089693316127,0.13471052199821865,0.8501730500325451,0.0,0.0,0.0,0.0,0.0,0.0,0.00030184053075337587,0.00030184053075337587,0.0,0.0,0.0,0.0,-0.03409960603557988,-0.49210314506801217,0.0,0.0,0.0,0.0,0.03409960603557982,0.492103145068012,0.4932831727492948,0.0,-1.9537635088975558,-28.19543329751119,0.0,0.0,0.0,0.0,1.9537635088975527,28.19543329751118,28.263043903357293
87,0.4358067512512207,1775825937.7635093,0.482945296,-18.663218498740523,-1.455089693316127,0.6782034899152043,-19.31,-0.92,0.8129155021950943,-0.6467815012594755,0.535089693316127,0.13471201227989005,0.8501732861700049,0.0,0.0,0.0,0.0,0.0,0.0,0.00029430266278157255,0.00029430266278157255,0.0,0.0,0.0,0.0,-0.03409960603557988,-0.49210314506801217,0.0,0.0,0.0,0.0,0.03409960603557982,0.492103145068012,0.4932831727492948,0.0,-1.9537635088975558,-28.19543329751119,0.0,0.0,0.0,0.0,1.9537635088975527,28.19543329751118,28.263043903357293
88,0.4407997131347656,1775825937.7685022,0.487938326,-18.663218498740523,-1.455089693316127,0.6782034899152043,-19.31,-0.92,0.8129169552376027,-0.6467815012594755,0.535089693316127,0.13471346532239836,0.8501735164093133,0.0,0.0,0.0,0.0,0.0,0.0,0.00028694603242830033,0.00028694603242830033,0.0,0.0,0.0,0.0,-0.03409960603557988,-0.49210314506801217,0.0,0.0,0.0,0.0,0.03409960603557982,0.492103145068012,0.4932831727492948,0.0,-1.9537635088975558,-28.19543329751119,0.0,0.0,0.0,0.0,1.9537635088975527,28.19543329751118,28.263043903357293
89,0.44579219818115234,1775825937.7734947,0.492930754,-18.663218498740523,-1.455089693316127,0.6782034899152043,-19.31,-0.92,0.812918371966677,-0.6467815012594755,0.535089693316127,0.13471488205147275,0.8501737408969711,0.0,0.0,0.0,0.0,0.0,0.0,0.0002797747180981025,0.0002797747180981025,0.0,0.0,0.0,0.0,-0.03409960603557988,-0.49210314506801217,0.0,0.0,0.0,0.0,0.03409960603557982,0.492103145068012,0.4932831727492948,0.0,-1.9537635088975558,-28.19543329751119,0.0,0.0,0.0,0.0,1.9537635088975527,28.19543329751118,28.263043903357293
90,0.45079922676086426,1775825937.7785017,0.497937666,-18.663218498740523,-1.455089693316127,0.6782034899152043,-19.31,-0.92,0.8129197532798756,-0.6467815012594755,0.535089693316127,0.13471626336467135,0.8501739597750259,0.0,0.0,0.0,0.0,0.0,0.0,0.0002727806082693132,0.0002727806082693132,0.0,0.0,0.0,0.0,-0.03409960603557988,-0.49210314506801217,0.0,0.0,0.0,0.0,0.03409960603557982,0.492103145068012,0.4932831727492948,0.0,-1.9537635088975558,-28.19543329751119,0.0,0.0,0.0,0.0,1.9537635088975527,28.19543329751118,28.263043903357293
91,0.45578956604003906,1775825937.783492,0.502927958,-18.663218498740523,-1.455089693316127,0.6782034899152043,-19.31,-0.92,0.8129211000651163,-0.6467815012594755,0.535089693316127,0.13471761014991201,0.8501741731840079,0.0,0.0,0.0,0.0,0.0,0.0,0.0002659611333441391,0.0002659611333441391,0.0,0.0,0.0,0.0,-0.03409960603557988,-0.49210314506801217,0.0,0.0,0.0,0.0,0.03409960603557982,0.492103145068012,0.4932831727492948,0.0,-1.9537635088975558,-28.19543329751119,0.0,0.0,0.0,0.0,1.9537635088975527,28.19543329751118,28.263043903357293
92,0.4607999324798584,1775825937.7885025,0.507938465,-18.663218498740523,-1.455089693316127,0.6782034899152043,-19.31,-0.92,0.8129224131489845,-0.6467815012594755,0.535089693316127,0.1347189232337802,0.8501743812547382,0.0,0.0,0.0,0.0,0.0,0.0,0.0002592974690727099,0.0002592974690727099,0.0,0.0,0.0,0.0,-0.03409960603557988,-0.49210314506801217,0.0,0.0,0.0,0.0,0.03409960603557982,0.492103145068012,0.4932831727492948,0.0,-1.9537635088975558,-28.19543329751119,0.0,0.0,0.0,0.0,1.9537635088975527,28.19543329751118,28.263043903357293
93,0.4657859802246094,1775825937.7934885,0.512924513,-18.663218498740523,-1.455089693316127,0.6782034899152043,-19.31,-0.92,0.8129236933137182,-0.6467815012594755,0.535089693316127,0.13472020339851387,0.8501745841110193,0.0,0.0,0.0,0.0,0.0,0.0,0.00025279645278191673,0.00025279645278191673,0.0,0.0,0.0,0.0,-0.03409960603557988,-0.49210314506801217,0.0,0.0,0.0,0.0,0.03409960603557982,0.492103145068012,0.4932831727492948,0.0,-1.9537635088975558,-28.19543329751119,0.0,0.0,0.0,0.0,1.9537635088975527,28.19543329751118,28.263043903357293
94,0.47080278396606445,1775825937.7985053,0.517941299,-18.663218498740523,-1.455089693316127,0.6782034899152043,-19.31,-0.92,0.8129249413851037,-0.6467815012594755,0.535089693316127,0.13472145146989944,0.8501747818835632,0.0,0.0,0.0,0.0,0.0,0.0,0.00024645873159560367,0.00024645873159560367,0.0,0.0,0.0,0.0,-0.03409960603557988,-0.49210314506801217,0.0,0.0,0.0,0.0,0.03409960603557982,0.492103145068012,0.4932831727492948,0.0,-1.9537635088975558,-28.19543329751119,0.0,0.0,0.0,0.0,1.9537635088975527,28.19543329751118,28.263043903357293
95,0.4758000373840332,1775825937.8035026,0.522938588,-18.663218498740523,-1.455089693316127,0.6782034899152043,-19.31,-0.92,0.8129261581679477,-0.6467815012594755,0.535089693316127,0.13472266825274337,0.8501749746997653,0.0,0.0,0.0,0.0,0.0,0.0,0.00024027994284277996,0.00024027994284277996,0.0,0.0,0.0,0.0,-0.03409960603557988,-0.49210314506801217,0.0,0.0,0.0,0.0,0.03409960603557982,0.492103145068012,0.4932831727492948,0.0,-1.9537635088975558,-28.19543329751119,0.0,0.0,0.0,0.0,1.9537635088975527,28.19543329751118,28.263043903357293
96,0.481400728225708,1775825937.8091033,0.528539203,-18.663218498740523,-1.455089693316127,0.6782034899152043,-19.31,-0.92,0.8129271095800562,-0.6467815012594755,0.535089693316127,0.1347236196648519,0.8501751254654581,0.0,0.0,0.0,0.0,0.0,0.0,0.0002354403882334667,0.0002354403882334667,0.0,0.0,0.0,0.0,-0.03409960603557988,-0.49210314506801217,0.0,0.0,0.0,0.0,0.03409960603557982,0.492103145068012,0.4932831727492948,0.0,-1.9537635088975558,-28.19543329751119,0.0,0.0,0.0,0.0,1.9537635088975527,28.19543329751118,28.263043903357293
97,0.4864022731781006,1775825937.8141048,0.533540691,-18.663218498740523,-1.455089693316127,0.6782034899152043,-19.31,-0.92,0.8129282718964919,-0.6467815012594755,0.535089693316127,0.13472478198128757,0.8501753096535521,0.0,0.0,0.0,0.0,0.0,0.0,0.0002295090704725003,0.0002295090704725003,0.0,0.0,0.0,0.0,-0.03409960603557988,-0.49210314506801217,0.0,0.0,0.0,0.0,0.03409960603557982,0.492103145068012,0.4932831727492948,0.0,-1.9537635088975558,-28.19543329751119,0.0,0.0,0.0,0.0,1.9537635088975527,28.19543329751118,28.263043903357293
98,0.49140095710754395,1775825937.8191035,0.538539561,-18.663218498740523,-1.455089693316127,0.6782034899152043,-19.31,-0.92,0.8129294049206438,-0.6467815012594755,0.535089693316127,0.1347259150054395,0.8501754892012947,0.0,0.0,0.0,0.0,0.0,0.0,0.00022372714728309808,0.00022372714728309808,0.0,0.0,0.0,0.0,-0.03409960603557988,-0.49210314506801217,0.0,0.0,0.0,0.0,0.03409960603557982,0.492103145068012,0.4932831727492948,0.0,-1.9537635088975558,-28.19543329751119,0.0,0.0,0.0,0.0,1.9537635088975527,28.19543329751118,28.263043903357293
99,0.49639296531677246,1775825937.8240955,0.543531493,-18.663218498740523,-1.455089693316127,0.6782034899152043,-19.31,-0.92,0.8129305094224288,-0.6467815012594755,0.535089693316127,0.13472701950722454,0.85017566423058,0.0,0.0,0.0,0.0,0.0,0.0,0.00021809724067163084,0.00021809724067163084,0.0,0.0,0.0,0.0,-0.03409960603557988,-0.49210314506801217,0.0,0.0,0.0,0.0,0.03409960603557982,0.492103145068012,0.4932831727492948,0.0,-1.9537635088975558,-28.19543329751119,0.0,0.0,0.0,0.0,1.9537635088975527,28.19543329751118,28.263043903357293
100,0.5013997554779053,1775825937.8291023,0.548538219,-18.663218498740523,-1.455089693316127,0.6782034899152043,-19.31,-0.92,0.8129315861342575,-0.6467815012594755,0.535089693316127,0.13472809621905324,0.8501758348573655,0.0,0.0,0.0,0.0,0.0,0.0,0.0002126126801532266,0.0002126126801532266,0.0,0.0,0.0,0.0,-0.03409960603557988,-0.49210314506801217,0.0,0.0,0.0,0.0,0.03409960603557982,0.492103145068012,0.4932831727492948,0.0,-1.9537635088975558,-28.19543329751119,0.0,0.0,0.0,0.0,1.9537635088975527,28.19543329751118,28.263043903357293
101,0.5063984394073486,1775825937.834101,0.553537052,-18.663218498740523,-1.455089693316127,0.6782034899152043,-19.31,-0.92,0.8129326357879099,-0.6467815012594755,0.535089693316127,0.13472914587270557,0.8501760011975148,0.0,0.0,0.0,0.0,0.0,0.0,0.00020727096016894306,0.00020727096016894306,0.0,0.0,0.0,0.0,-0.03409960603557988,-0.49210314506801217,0.0,0.0,0.0,0.0,0.03409960603557982,0.492103145068012,0.4932831727492948,0.0,-1.9537635088975558,-28.19543329751119,0.0,0.0,0.0,0.0,1.9537635088975527,28.19543329751118,28.263043903357293
102,0.5111942291259766,1775825937.8388968,0.558332754,-18.663218498740523,-1.455089693316127,0.6782034899152043,-19.31,-0.92,0.8129334564903195,-0.6467815012594755,0.535089693316127,0.13472996657511516,0.8501761312563059,0.0,0.0,0.0,0.0,0.0,0.0,0.00020309557740293404,0.00020309557740293404,0.0,0.0,0.0,0.0,-0.03409960603557988,-0.49210314506801217,0.0,0.0,0.0,0.0,0.03409960603557982,0.492103145068012,0.4932831727492948,0.0,-1.9537635088975558,-28.19543329751119,0.0,0.0,0.0,0.0,1.9537635088975527,28.19543329751118,28.263043903357293
103,0.5164122581481934,1775825937.8441148,0.563550845,-18.663218498740523,-1.455089693316127,0.6782034899152043,-19.31,-0.92,0.8129346566745982,-0.6467815012594755,0.535089693316127,0.1347311667593939,0.8501763214539413,0.0,0.0,0.0,0.0,0.0,0.0,0.00019699666967282174,0.00019699666967282174,0.0,0.0,0.0,0.0,-0.03409960603557988,-0.49210314506801217,0.0,0.0,0.0,0.0,0.03409960603557982,0.492103145068012,0.4932831727492948,0.0,-1.9537635088975558,-28.19543329751119,0.0,0.0,0.0,0.0,1.9537635088975527,28.19543329751118,28.263043903357293
104,0.5216090679168701,1775825937.8493116,0.56874762,-18.663218498740523,-1.455089693316127,0.6782034899152043,-19.31,-0.92,0.8129356292516431,-0.6467815012594755,0.535089693316127,0.1347321393364388,0.8501764755830293,0.0,0.0,0.0,0.0,0.0,0.0,0.0001920565610210492,0.0001920565610210492,0.0,0.0,0.0,0.0,-0.03409960603557988,-0.49210314506801217,0.0,0.0,0.0,0.0,0.03409960603557982,0.492103145068012,0.4932831727492948,0.0,-1.9537635088975558,-28.19543329751119,0.0,0.0,0.0,0.0,1.9537635088975527,28.19543329751118,28.263043903357293
105,0.5264034271240234,1775825937.854106,0.573541904,-18.663218498740523,-1.455089693316127,0.6782034899152043,-19.31,-0.92,0.8129365774531139,-0.6467815012594755,0.535089693316127,0.13473308753790958,0.850176625850244,0.0,0.0,0.0,0.0,0.0,0.0,0.00018724381691995266,0.00018724381691995266,0.0,0.0,0.0,0.0,-0.03409960603557988,-0.49210314506801217,0.0,0.0,0.0,0.0,0.03409960603557982,0.492103145068012,0.4932831727492948,0.0,-1.9537635088975558,-28.19543329751119,0.0,0.0,0.0,0.0,1.9537635088975527,28.19543329751118,28.263043903357293
