sample_idx,t_rel_s,stamp_s,t_in_traj_s,x_des_m,y_des_m,z_des_m,x_act_m,y_act_m,z_act_m,ex_m,ey_m,ez_m,e_pos_norm_m,vx_des_mps,vy_des_mps,vz_des_mps,speed_des_mps,vx_act_mps,vy_act_mps,vz_act_mps,speed_act_mps,wx_act_radps,wy_act_radps,wz_act_radps,roll_des_rad,pitch_des_rad,yaw_des_rad,roll_act_rad,pitch_act_rad,yaw_act_rad,e_roll_rad,e_pitch_rad,e_yaw_rad,e_ang_norm_rad,roll_des_deg,pitch_des_deg,yaw_des_deg,roll_act_deg,pitch_act_deg,yaw_act_deg,e_roll_deg,e_pitch_deg,e_yaw_deg,e_ang_norm_deg
0,-0.003304004669189453,1775872616.6820123,0.021029864,-19.318717865746926,0.902425127982731,0.7213669345561072,-19.31,0.92,0.7276916844181279,0.008717865746927345,0.01757487201726904,0.0063247498620206954,0.020612611926244723,-0.6499433998646609,-1.3995497799344863,-0.3122819821976458,1.5743843387011933,0.0,0.0,0.0029004741863885323,0.0029004741863885323,0.0,0.0,0.0,0.0,0.19967603117019925,-2.005556138007902,0.0,0.0,0.0,0.0,-0.19967603117019905,2.0055561380079023,2.0154716421039156,0.0,11.44059385597509,-114.90990228440965,0.0,0.0,0.0,0.0,-11.440593855975079,114.90990228440967,115.47801882085592
1,0.0016949176788330078,1775872616.6870112,0.02602871,-19.322313690732503,0.8946883364048185,0.7197813544002014,-19.31,0.92,0.7277059990232152,0.012313690732504767,0.025311663595181555,0.007924644623013788,0.029242217525565235,-0.7583532969831275,-1.663919016071033,-0.31757515548422877,1.8559580260525308,0.0,0.0,0.0028257421123927613,0.0028257421123927613,0.0,0.0,0.0,0.0,0.1719573654639831,-1.9984327044811399,0.0,0.0,0.0,0.0,-0.171957365463983,1.9984327044811394,2.0058171925370254,0.0,9.852431297274892,-114.50175960768419,0.0,0.0,0.0,0.0,-9.852431297274887,114.50175960768416,114.9248596071512
2,0.00670313835144043,1775872616.6920195,0.03103705,-19.326445964370873,0.8856261207198464,0.7181682898863876,-19.31,0.92,0.7277199453361674,0.016445964370873867,0.034373879280153674,0.009551655449779761,0.039284442756464526,-0.8614348589496501,-1.9229650745441278,-0.322054345646855,2.131568365237233,0.0,0.0,0.0027531074045584075,0.0027531074045584075,0.0,0.0,0.0,0.0,0.1516687890294662,-1.9919626381382793,0.0,0.0,0.0,0.0,-0.15166878902946612,1.9919626381382791,1.997728353231359,0.0,8.689981495248494,-114.13105211306865,0.0,0.0,0.0,0.0,-8.68998149524849,114.13105211306863,114.46140325377698
3,0.011698722839355469,1775872616.697015,0.036032477,-19.331068061908198,0.8753094125873193,0.7165390916800647,-19.31,0.92,0.7277335333617487,0.0210680619081991,0.04469058741268073,0.011194441681684042,0.050659918677617245,-0.9587325692276495,-2.1755349612785055,-0.3257003564161504,2.399625226824498,0.0,0.0,0.0026824308832591177,0.0026824308832591177,0.0,0.0,0.0,0.0,0.1361499177235975,-1.985879623643806,0.0,0.0,0.0,0.0,-0.13614991772359764,1.9858796236438057,1.990541303188609,0.0,7.8008156666155415,-113.78252105581842,0.0,0.0,0.0,0.0,-7.8008156666155495,113.78252105581839,114.0496156191781
4,0.01669478416442871,1775872616.702011,0.041028693,-19.33616327875248,0.8637435752595495,0.7148934687055424,-19.31,0.92,0.7277467726902559,0.026163278752481034,0.05625642474045056,0.012853303984713516,0.0633601602190324,-1.0505333876829506,-2.42234258961003,-0.3285261785078098,2.6606941707081235,0.0,0.0,0.0026135828851991394,0.0026135828851991394,0.0,0.0,0.0,0.0,0.12378977465616815,-1.980000099102509,0.0,0.0,0.0,0.0,-0.12378977465616803,1.9800000991025088,1.9838659986892688,0.0,7.092631634673957,-113.44564911405851,0.0,0.0,0.0,0.0,-7.09263163467395,113.4456491140585,113.66714884440121
5,0.021697998046875,1775872616.7070143,0.046031766,-19.34171127754027,0.850940759294793,0.7132334963422318,-19.31,0.92,0.7277596720528052,0.031711277540271254,0.06905924070520708,0.014526175710573463,0.07736791085967293,-1.1369361484485194,-2.6636743866324553,-0.33053335892968544,2.914967812003433,0.0,0.0,0.0025464516213070786,0.0025464516213070786,0.0,0.0,0.0,0.0,0.11363617930839372,-1.974215982216678,0.0,0.0,0.0,0.0,-0.11363617930839354,1.9742159822166778,1.9774837358844628,0.0,6.510873474362814,-113.11424362829004,0.0,0.0,0.0,0.0,-6.510873474362803,113.11424362829003,113.3014721219425
6,0.026709318161010742,1775872616.7120256,0.051043018,-19.34768780897877,0.8369212572786568,0.71156280983117,-19.31,0.92,0.7277722398936998,0.03768780897877022,0.08307874272134319,0.01620943006252973,0.09265632229228317,-1.2179387605367966,-2.899567888789606,-0.3317187172407477,3.162420919720455,0.0,0.0,0.002480933904727311,0.002480933904727311,0.0,0.0,0.0,0.0,0.10508722890448316,-1.9684595700448202,0.0,0.0,0.0,0.0,-0.10508722890448308,1.9684595700448204,1.971262642211804,0.0,6.021054696952079,-112.78442550570485,0.0,0.0,0.0,0.0,-6.021054696952074,112.78442550570486,112.94502971054361
7,0.03170371055603027,1775872616.71702,0.056037506,-19.354034441648405,0.821786978724489,0.7098938559920605,-19.31,0.92,0.7277844837644422,0.04403444164840664,0.09821302127551101,0.017890627772381706,0.10910959701804798,-1.2931522694527684,-3.1288639360904473,-0.33207847193330026,3.401809582278204,0.0,0.0,0.002416849287632472,0.002416849287632472,0.0,0.0,0.0,0.0,0.097773891086873,-1.9627134182933086,0.0,0.0,0.0,0.0,-0.09777389108687284,1.9627134182933084,1.9651472454060206,0.0,5.6020313058496,-112.45519526190152,0.0,0.0,0.0,0.0,-5.602031305849591,112.45519526190151,112.59464328352443
8,0.03669857978820801,1775872616.722015,0.061032435,-19.360743577776855,0.8055204790915307,0.7082250065457225,-19.31,0.92,0.727796410813655,0.05074357777685634,0.11447952090846936,0.01957140426793247,0.12674190805746688,-1.3628628077338336,-3.352380866116492,-0.3316178880791249,3.633981690639369,0.0,0.0,0.002354217937605584,0.002354217937605584,0.0,0.0,0.0,0.0,0.09138182390612669,-1.9569242778343952,0.0,0.0,0.0,0.0,-0.09138182390612659,1.9569242778343954,1.9590567288667473,0.0,5.23579283402875,-112.12350194659736,0.0,0.0,0.0,0.0,-5.235792834028745,112.12350194659737,112.24568239076945
9,0.04169964790344238,1775872616.727016,0.066033529,-19.36779604127348,0.7881299065947013,0.7065584565837941,-19.31,0.92,0.727808028350229,0.05779604127348037,0.13187009340529876,0.021249571766434827,0.14553916387648008,-1.4271393263332042,-3.57036331107878,-0.330334809712493,3.8591892822679754,0.0,0.0,0.002293030671623372,0.002293030671623372,0.0,0.0,0.0,0.0,0.08570181616357879,-1.9510597807321262,0.0,0.0,0.0,0.0,-0.08570181616357875,1.951059780732126,1.952941133082159,0.0,4.9103523627791255,-111.78749101367065,0.0,0.0,0.0,0.0,-4.910352362779123,111.78749101367063,111.89528456310455
10,0.04669666290283203,1775872616.732013,0.071030534,-19.375150010077153,0.769679251232643,0.7049017310473387,-19.31,0.92,0.7278193433921677,0.06515001007715426,0.15032074876735702,0.02291761234482903,0.16542692730816233,-1.485846598890994,-3.7823607127112795,-0.32823135584573443,4.076975410700688,0.0,0.0,0.002233246652872632,0.002233246652872632,0.0,0.0,0.0,0.0,0.08059577009024604,-1.9451114310377438,0.0,0.0,0.0,0.0,-0.08059577009024599,1.945111431037744,1.946780459453541,0.0,4.617797472777812,-111.4466756811146,0.0,0.0,0.0,0.0,-4.617797472777809,111.44667568111461,111.54230396522718
11,0.05169510841369629,1775872616.7370114,0.076028809,-19.382785534869374,0.7501786610287965,0.7032571520491593,-19.31,0.92,0.7278303635532706,0.07278553486937511,0.16982133897120355,0.024573211504111292,0.18638901249756978,-1.5390522535967397,-3.988605339528819,-0.3253059657049528,4.287595872414078,0.0,0.0,0.0021750908270311104,0.0021750908270311104,0.0,0.0,0.0,0.0,0.07594439613142812,-1.9390558984642676,0.0,0.0,0.0,0.0,-0.0759443961314279,1.939055898464268,1.940542534620882,0.0,4.351293376000488,-111.09971922195042,0.0,0.0,0.0,0.0,-4.351293376000474,111.09971922195045,111.18489719939598
12,0.05669260025024414,1775872616.742009,0.081026388,-19.39067209319918,0.7296646432845436,0.7016294733430282,-19.31,0.92,0.7278410971341025,0.08067209319917978,0.19033535671545643,0.026211623791074334,0.208380862506378,-1.5867344124953495,-4.189015067909653,-0.32155964845693435,4.490988080866707,0.0,0.0,0.0021186256941742483,0.0021186256941742483,0.0,0.0,0.0,0.0,0.07166241281205664,-1.9328808703669078,0.0,0.0,0.0,0.0,-0.07166241281205643,1.9328808703669083,1.9342088719785107,0.0,4.105953803855083,-110.74591617359701,0.0,0.0,0.0,0.0,-4.105953803855071,110.74591617359702,110.82200506112842
13,0.061701059341430664,1775872616.7470174,0.086034818,-19.398800999728923,0.7081158324330213,0.7000191059426949,-19.31,0.92,0.727851552448258,0.08880099972892452,0.2118841675669787,0.027832446505563158,0.23141988483467232,-1.6289864214319214,-4.384035238798782,-0.31698124300421066,4.687626141732675,0.0,0.0,0.002063744575510226,0.002063744575510226,0.0,0.0,0.0,0.0,0.06767248541625744,-1.9265585820220965,0.0,0.0,0.0,0.0,-0.06767248541625737,1.9265585820220963,1.9277467508066,0.0,3.877347803512165,-110.38367573457457,0.0,0.0,0.0,0.0,-3.877347803512161,110.38367573457455,110.45175279127581
14,0.06670618057250977,1775872616.7520225,0.091040062,-19.407122296147136,0.6856194982974723,0.6984347344388786,-19.31,0.92,0.7278617370429483,0.09712229614713763,0.23438050170252778,0.02942700260406972,0.25540733832347273,-1.6656771565958015,-4.573105900756465,-0.31158168935245806,4.876972536182504,0.0,0.0,0.0020103409214575377,0.0020103409214575377,0.0,0.0,0.0,0.0,0.06393188442234225,-1.9200943931239511,0.0,0.0,0.0,0.0,-0.06393188442234221,1.920094393123951,1.921158443323149,0.0,3.6630271537183843,-110.01330499273551,0.0,0.0,0.0,0.0,-3.6630271537183816,110.0133049927355,110.07427057833961
15,0.07169628143310547,1775872616.7570126,0.096030033,-19.41558725258826,0.6622642698927972,0.69688414804861,-19.31,0.92,0.72787165815607,0.1055872525882613,0.25773573010720285,0.030987510107460037,0.2802438228858758,-1.6967485960687865,-4.7558026628438546,-0.30537858020802383,5.058643182062159,0.0,0.0,0.0019583174598836934,0.0019583174598836934,0.0,0.0,0.0,0.0,0.06040441156592942,-1.9134934441311504,0.0,0.0,0.0,0.0,-0.06040441156592946,1.9134934441311504,1.9144466181300324,0.0,3.4609178466989716,-109.6350984746669,0.0,0.0,0.0,0.0,-3.4609178466989743,109.6350984746669,109.68971132194444
16,0.07669687271118164,1775872616.7620132,0.101030774,-19.424212243108226,0.6379585369716815,0.6953633210088127,-19.31,0.92,0.7278813223785982,0.11421224310822709,0.28204146302831856,0.03251800136978544,0.30602163935913507,-1.7223703601925595,-4.933086880465711,-0.2983406513591746,5.233632865624621,0.0,0.0,0.0019075901800984815,0.0019075901800984815,0.0,0.0,0.0,0.0,0.057035423147377334,-1.9067106493146937,0.0,0.0,0.0,0.0,-0.05703542314737753,1.906710649314694,1.9075635086947071,0.0,3.2678890290874834,-109.24647295838072,0.0,0.0,0.0,0.0,-3.267889029087495,109.24647295838074,109.29533820137364
17,0.08169960975646973,1775872616.767016,0.106033458,-19.432954966907445,0.6127708382280956,0.6938791762654344,-19.31,0.92,0.7278907361747645,0.12295496690744656,0.3072291617719044,0.034011559909330136,0.33266269393748416,-1.7424761755520992,-5.104623468094977,-0.2904771917999261,5.401646135424703,0.0,0.0,0.0018581333084292397,0.0018581333084292397,0.0,0.0,0.0,0.0,0.053801631666875994,-1.8997467194454758,0.0,0.0,0.0,0.0,-0.053801631666876126,1.899746719445476,1.9005084092457645,0.0,3.0826064254293946,-108.84746916804944,0.0,0.0,0.0,0.0,-3.082606425429402,108.84746916804946,108.89111077890415
18,0.08670401573181152,1775872616.7720203,0.111037759,-19.441787313855023,0.5867310008099275,0.6924359692216754,-19.31,0.92,0.727899905614843,0.13178731385502473,0.3332689991900726,0.03546393639316758,0.360130271844473,-1.7570588324344878,-5.270395037773117,-0.2817878355264036,5.562708331296023,0.0,0.0,0.001809819189321087,0.001809819189321087,0.0,0.0,0.0,0.0,0.050678280005088124,-1.892591362559867,0.0,0.0,0.0,0.0,-0.050678280005088006,1.892591362559867,1.8932697519636466,0.0,2.9036515572737778,-108.43749741759419,0.0,0.0,0.0,0.0,-2.9036515572737707,108.43749741759419,108.47636626729715
19,0.09395241737365723,1775872616.7792687,0.118286176,-19.454677943400725,0.5475764766649007,0.6904274263400043,-19.31,0.92,0.7279088361753652,0.14467794340072615,0.3724235233350993,0.03748140983536086,0.4012927162598884,-1.7683741027485484,-5.500182250421458,-0.2677416338803917,5.783669884911823,0.0,0.0,0.0017625897806608007,0.0017625897806608007,0.0,0.0,0.0,0.0,0.046309239724869306,-1.8818701405198235,0.0,0.0,0.0,0.0,-0.04630923972486922,1.8818701405198235,1.8824398453772688,0.0,2.6533239886945847,-107.82321664347705,0.0,0.0,0.0,0.0,-2.65332398869458,107.82321664347705,107.85585832737678
20,0.09704208374023438,1775872616.7823584,0.121375817,-19.460189617853743,0.5303888610163293,0.6896034073146635,-19.31,0.92,0.7279158122581714,0.1501896178537443,0.3896111389836707,0.03831240494350785,0.41931086475759516,-1.7696702981495174,-5.594416726555657,-0.2612292791807969,5.87345487858889,0.0,0.0,0.0017255549169833116,0.0017255549169833116,0.0,0.0,0.0,0.0,0.044490931811153815,-1.8771647572741548,0.0,0.0,0.0,0.0,-0.04449093181115371,1.877164757274155,1.8776919259999927,0.0,2.549142619383449,-107.55361804250867,0.0,0.0,0.0,0.0,-2.5491426193834434,107.55361804250867,107.58382258559047
21,0.10203719139099121,1775872616.7873535,0.126371011,-19.469099397630174,0.5019950431653716,0.6883151797036342,-19.31,0.92,0.7279243263239051,0.15909939763017533,0.41800495683462846,0.03960914662027093,0.4490096288060985,-1.7673065432453507,-5.742076925683696,-0.25003640031633917,6.013097208573142,0.0,0.0,0.0016803083243919022,0.0016803083243919022,0.0,0.0,0.0,0.0,0.04159395772476643,-1.869376972377792,0.0,0.0,0.0,0.0,-0.04159395772476637,1.8693769723777915,1.8698396514609397,0.0,2.3831582308746846,-107.10741083619135,0.0,0.0,0.0,0.0,-2.3831582308746815,107.10741083619133,107.1339203949247
22,0.10703778266906738,1775872616.792354,0.131371475,-19.477992956902753,0.4728470302197798,0.6870836460565743,-19.31,0.92,0.7279326176153874,0.1679929569027543,0.44715296978022023,0.04084897155881306,0.4794121926167647,-1.7594211314209576,-5.88408349124993,-0.23800992031957627,6.146108522623165,0.0,0.0,0.0016364194152082897,0.0016364194152082897,0.0,0.0,0.0,0.0,0.03873498949578414,-1.8613479441068097,0.0,0.0,0.0,0.0,-0.038734989495784244,1.86134794410681,1.8617509415713709,0.0,2.2193514175920077,-106.64738140267285,0.0,0.0,0.0,0.0,-2.219351417592014,106.64738140267286,106.67047145654668
23,0.11203670501708984,1775872616.797353,0.136370402,-19.48683057273806,0.4430127280580627,0.6859146555902649,-19.31,0.92,0.7279406925584424,0.17683057273806213,0.47698727194193735,0.04202603696817753,0.5104430397534414,-1.7460186160903393,-6.020236607616168,-0.22516529021370527,6.27236233227425,0.0,0.0,0.0015937670822324702,0.0015937670822324702,0.0,0.0,0.0,0.0,0.03590571890644101,-1.8530767316917145,0.0,0.0,0.0,0.0,-0.03590571890644112,1.853076731691715,1.853424558536828,0.0,2.0572461537221556,-106.17347583983168,0.0,0.0,0.0,0.0,-2.057246153722162,106.17347583983171,106.19340485005804
24,0.11839056015014648,1775872616.803707,0.142724443,-19.49794368788644,0.4041332762798978,0.6845249517425022,-19.31,0.92,0.72794543623802,0.18794368788644178,0.5158667237201022,0.04342048449551783,0.5507509826880875,-1.721017471970754,-6.184913876072996,-0.2076526837285542,6.423253103399287,0.0,0.0,0.0015687552697534715,0.0015687552697534715,0.0,0.0,0.0,0.0,0.03233390738948951,-1.8421913012593745,0.0,0.0,0.0,0.0,-0.03233390738948971,1.8421913012593745,1.8424750397231382,0.0,1.8525964285846144,-105.54978661787533,0.0,0.0,0.0,0.0,-1.852596428584626,105.54978661787533,105.56604363433452
25,0.12164449691772461,1775872616.8069608,0.14597821,-19.503565572103557,0.38382663640017933,0.6838574968108035,-19.31,0.92,0.7279516456050302,0.19356557210355874,0.5361733635998207,0.044094148794226684,0.5717462728305371,-1.7047629941137297,-6.265608073893453,-0.19817087068976513,6.4964092463243395,0.0,0.0,0.001536045893945189,0.001536045893945189,0.0,0.0,0.0,0.0,0.030509410694216997,-1.8364482450038335,0.0,0.0,0.0,0.0,-0.0305094106942172,1.836448245003833,1.8367016580595137,0.0,1.748060468209933,-105.22073373292663,0.0,0.0,0.0,0.0,-1.7480604682099445,105.2207337329266,105.23525323149062
26,0.1264650821685791,1775872616.8117814,0.150798872,-19.51178828820941,0.3532681222508804,0.6829267098564228,-19.31,0.92,0.7279592255546203,0.20178828820941064,0.5667318777491197,0.04503251569819755,0.6032673221596175,-1.676382919227227,-6.380637570938091,-0.1834829947590184,6.599731927351995,0.0,0.0,0.0014961075165388204,0.0014961075165388204,0.0,0.0,0.0,0.0,0.027805165653468845,-1.827719526580858,0.0,0.0,0.0,0.0,-0.02780516565346902,1.8277195265808581,1.827931014858595,0.0,1.5931186406058806,-104.72061500673205,0.0,0.0,0.0,0.0,-1.5931186406058906,104.72061500673205,104.73273239246286
27,0.13150668144226074,1775872616.816823,0.155840517,-19.520227940372703,0.32072990637159815,0.6820310338997703,-19.31,0.92,0.7279666083689532,0.21022794037270387,0.5992700936284019,0.04593557446918295,0.6367342530699575,-1.6412115001224423,-6.49516099293579,-0.16730430828057205,6.70139405227435,0.0,0.0,0.0014571830734361256,0.0014571830734361256,0.0,0.0,0.0,0.0,0.02496819190949893,-1.8182978059500254,0.0,0.0,0.0,0.0,-0.024968191909498838,1.8182978059500252,1.8184692248509198,0.0,1.4305720184869768,-104.180790178834,0.0,0.0,0.0,0.0,-1.4305720184869712,104.18079017883399,104.19061175838402
28,0.13712763786315918,1775872616.822444,0.161461363,-19.529410159077287,0.28379180131971754,0.6811312954253365,-19.31,0.92,0.7279737989593559,0.2194101590772881,0.6362081986802826,0.04684250353401942,0.6746079677202644,-1.5953816974998434,-6.615875444053446,-0.14828158690878843,6.807131413522369,0.0,0.0,0.0014191994696990586,0.0014191994696990586,0.0,0.0,0.0,0.0,0.02178499389480822,-1.8074231534919791,0.0,0.0,0.0,0.0,-0.021784993894808036,1.8074231534919791,1.8075544367287772,0.0,1.2481882068907764,-103.55771848931639,0.0,0.0,0.0,0.0,-1.2481882068907657,103.55771848931639,103.56524046470574
29,0.14139461517333984,1775872616.826711,0.165728306,-19.536197648660586,0.25530956332821464,0.6805213082197484,-19.31,0.92,0.7279794160090011,0.22619764866058745,0.6646904366717854,0.047458107789252635,0.7037265270383402,-1.555932269242711,-6.702609460386395,-0.1331472259430339,6.882123726634701,0.0,0.0,0.0013894144465687683,0.0013894144465687683,0.0,0.0,0.0,0.0,0.019348029589271194,-1.7988946173006486,0.0,0.0,0.0,0.0,-0.0193480295892714,1.7988946173006486,1.7989986632574895,0.0,1.108560437359475,-103.06906936012857,0.0,0.0,0.0,0.0,-1.1085604373594868,103.06906936012857,103.07503075433095
30,0.14615607261657715,1775872616.8314724,0.17048977,-19.543562148659106,0.2231009232030129,0.6799184879985539,-19.31,0.92,0.7279849151753041,0.2335621486591073,0.6968990767969871,0.04806642717675014,0.7365663459243096,-1.5071639913828434,-6.794399128539074,-0.11555206251420153,6.960513996391708,0.0,0.0,0.001360284192257485,0.001360284192257485,0.0,0.0,0.0,0.0,0.01660184446798773,-1.7890862070909457,0.0,0.0,0.0,0.0,-0.016601844467987625,1.7890862070909455,1.789163233928868,0.0,0.9512156201483104,-102.50708885137956,0.0,0.0,0.0,0.0,-0.9512156201483045,102.50708885137955,102.51150216410174
31,0.15146970748901367,1775872616.836786,0.175803493,-19.551491489608917,0.18665648897039375,0.6793469250963646,-19.31,0.92,0.7279942631135494,0.24149148960891864,0.7333435110296063,0.048647338017184794,0.7736132161609721,-1.4468277387910795,-6.89061256166832,-0.09503589927532256,7.041511471474546,0.0,0.0,0.0013108911441853722,0.0013108911441853722,0.0,0.0,0.0,0.0,0.013496929618613634,-1.7777605968147983,0.0,0.0,0.0,0.0,-0.013496929618613596,1.7777605968147983,1.7778118310711168,0.0,0.773317103531677,-101.85817918214632,0.0,0.0,0.0,0.0,-0.7733171035316748,101.85817918214632,101.86111468879987
32,0.15647435188293457,1775872616.8417907,0.180808106,-19.558651825925274,0.1518799232077066,0.6789104684625005,-19.31,0.92,0.728000731970088,0.24865182592527546,0.7681200767922934,0.049090263507587495,0.8088547687184743,-1.3842993089392415,-6.9752271335497795,-0.07486417737843924,7.111658230426522,0.0,0.0,0.001276805204405228,0.001276805204405228,0.0,0.0,0.0,0.0,0.010527159450790293,-1.766710091140604,0.0,0.0,0.0,0.0,-0.01052715945079008,1.7667100911406042,1.7667414545496305,0.0,0.6031618067915414,-101.22503184552961,0.0,0.0,0.0,0.0,-0.6031618067915292,101.22503184552963,101.22682883649799
33,0.16158509254455566,1775872616.8469014,0.185918913,-19.56562665117339,0.11594363731304072,0.6785710951440717,-19.31,0.92,0.7280070325926525,0.25562665117339023,0.8040563626869593,0.04943593744858088,0.8451600624017472,-1.3147355358387187,-7.05562840904973,-0.05341443710034924,7.177274892177218,0.0,0.0,0.001243576142124316,0.001243576142124316,0.0,0.0,0.0,0.0,0.007442229952405256,-1.7550220323616685,0.0,0.0,0.0,0.0,-0.007442229952405288,1.7550220323616683,1.7550378118039354,0.0,0.4264083664386687,-100.55535540679578,0.0,0.0,0.0,0.0,-0.4264083664386705,100.55535540679578,100.55625950224075
34,0.16624760627746582,1775872616.851564,0.190581458,-19.571667497288136,0.08281358292043285,0.6783589148947178,-19.31,0.92,0.7280119547296691,0.261667497288137,0.8371864170795672,0.049653039834951285,0.8785308192911684,-1.2462413685103264,-7.123681437558269,-0.03309680864661825,7.2319464994661935,0.0,0.0,0.0012175844330634463,0.0012175844330634463,0.0,0.0,0.0,0.0,0.004576489079483915,-1.7439871178071176,0.0,0.0,0.0,0.0,-0.004576489079483714,1.7439871178071176,1.7439931225006227,0.0,0.26221350924213943,-99.92310137553254,0.0,0.0,0.0,0.0,-0.262213509242128,99.92310137553254,99.92344541912765
35,0.17147445678710938,1775872616.8567908,0.195808344,-19.57804545241157,0.04531146639769838,0.6782358189951728,-19.31,0.92,0.7280191456643181,0.2680454524115703,0.8746885336023017,0.04978332666914531,0.9161914510560089,-1.1855905008036955,-7.179755906059454,-0.015407980472119505,7.277001931568646,0.0,0.0,0.0011795938957237105,0.0011795938957237105,0.0,0.0,0.0,0.0,0.002117354389875843,-1.7344491460975737,0.0,0.0,0.0,0.0,-0.002117354389875814,1.7344491460975737,1.7344504384929005,0.0,0.12131547027338326,-99.3766158514605,0.0,0.0,0.0,0.0,-0.12131547027338159,99.3766158514605,99.37668990025819
36,0.17646527290344238,1775872616.8617816,0.200799096,-19.58371860058079,0.009175761604774717,0.6782356607625056,-19.31,0.92,0.728024966364674,0.2737186005807928,0.9108242383952253,0.04978930560216832,0.9523663373431969,-1.147979273562659,-7.215174068138175,-0.00439210298433259,7.305929957002849,0.0,0.0,0.0011488088462524436,0.0011488088462524436,0.0,0.0,0.0,0.0,0.0006011696354517214,-1.7285800244744787,0.0,0.0,0.0,0.0,-0.0006011696354515372,1.7285800244744784,1.7285801290125717,0.0,0.034444482882801906,-99.04033995300817,0.0,0.0,0.0,0.0,-0.03444448288279135,99.04033995300816,99.0403459425997
37,0.18195772171020508,1775872616.867274,0.206291427,-19.589458156686284,-0.030926730839331347,0.6783729728050079,-19.31,0.92,0.7280306348913815,0.27945815668628526,0.9509267308393314,0.04965766208637368,0.9923831881723708,-1.1044688346692233,-7.251921145213315,0.008046436431548442,7.335548817115653,0.0,0.0,0.0011187087762996957,0.0011187087762996957,0.0,0.0,0.0,0.0,-0.0010969101625183132,-1.7219350683471852,0.0,0.0,0.0,0.0,0.0010969101625182276,1.721935068347185,1.7219354177249881,0.0,-0.06284832281730858,-98.65961201186467,0.0,0.0,0.0,0.0,0.06284832281730367,98.65961201186465,98.65963202973823
38,0.18654799461364746,1775872616.8718643,0.21088183,-19.59382455810874,-0.06468609376150355,0.6786020799342137,-19.31,0.92,0.7280350624147013,0.28382455810874063,0.9846860937615036,0.04943298248048755,1.0259662288739462,-1.066399933299896,-7.280840609730674,0.018696027950994388,7.358545939484682,0.0,0.0,0.0010951331659488682,0.0010951331659488682,0.0,0.0,0.0,0.0,-0.0025407258743058415,-1.7162288432709933,0.0,0.0,0.0,0.0,0.0025407258743057604,1.7162288432709936,1.7162307239305736,0.0,-0.1455728694974108,-98.33266939804716,0.0,0.0,0.0,0.0,0.14557286949740617,98.33266939804716,98.3327771519038
39,0.19147324562072754,1775872616.8767896,0.215807049,-19.595987850346404,-0.08279727656402233,0.6787682691864714,-19.31,0.92,0.7280415293122524,0.2859878503464053,1.0027972765640223,0.04927326012578104,1.043944099362318,-1.0238293370335882,-7.310053675135872,0.030379233533685195,7.381465582292462,0.0,0.0,0.0010607103131763127,0.0010607103131763127,0.0,0.0,0.0,0.0,-0.004115621614362925,-1.709948862997818,0.0,0.0,0.0,0.0,0.004115621614362741,1.709948862997818,1.7099538158701255,0.0,-0.23580774857581407,-97.97285303296879,0.0,0.0,0.0,0.0,0.23580774857580353,97.97285303296879,97.97313681164847
40,0.19666147232055664,1775872616.8819778,-0.01934190800000002,-19.31,0.92,0.7280415293122524,-19.31,0.92,0.728045727474394,0.0,0.0,4.198162141588746e-06,4.198162141588746e-06,-0.15693672352349808,-0.25835525748776117,-0.28673512117498184,0.4166456575761828,0.0,0.0,0.001038458198603995,0.001038458198603995,0.0,0.0,0.0,0.0,0.7590037577067748,-2.116672438657185,0.0,0.0,0.0,0.0,-0.7590037577067745,2.1166724386571847,2.24864157143462,0.0,43.48771195116832,-121.27639734672034,0.0,0.0,0.0,0.0,-43.487711951168315,121.27639734672032,128.83767168086897
41,0.20148372650146484,1775872616.8868,-0.014519707000000048,-19.31,0.92,0.7280415293122524,-19.31,0.92,0.728051860310067,0.0,0.0,1.0330997814556042e-05,1.0330997814556042e-05,-0.22066732275380047,-0.39791271436204356,-0.29097453787231886,0.5400877496039961,0.0,0.0,0.0010059919375833505,0.0010059919375833505,0.0,0.0,0.0,0.0,0.5689576373962205,-2.077135384591527,0.0,0.0,0.0,0.0,-0.5689576373962204,2.077135384591527,2.1536490426886363,0.0,32.59887134453809,-119.01109101437757,0.0,0.0,0.0,0.0,-32.59887134453809,119.01109101437757,123.39500069844892
42,0.20681428909301758,1775872616.8921306,-0.009189043000000008,-19.31,0.92,0.7280415293122524,-19.31,0.92,0.7280558420114458,0.0,0.0,1.431269919338618e-05,1.431269919338618e-05,-0.28912570918064834,-0.5500885077341546,-0.2953637759593863,0.6880630801019544,0.0,0.0,0.0009849385213864163,0.0009849385213864163,0.0,0.0,0.0,0.0,0.4436826532430914,-2.054712415425754,0.0,0.0,0.0,0.0,-0.44368265324309153,2.0547124154257546,2.102069791156699,0.0,25.421143473995524,-117.72634951702682,0.0,0.0,0.0,0.0,-25.42114347399553,117.72634951702685,120.43972727522524
43,0.21165227890014648,1775872616.8969686,-0.0043510300000000335,-19.31,0.92,0.7280415293122524,-19.31,0.92,0.7280616589283759,0.0,0.0,2.0129616123520933e-05,2.0129616123520933e-05,-0.3494464765392142,-0.6862944030514451,-0.29907722231595246,0.8261719146361951,0.0,0.0,0.0009541903959949478,0.0009541903959949478,0.0,0.0,0.0,0.0,0.3704163961854131,-2.041759886509299,0.0,0.0,0.0,0.0,-0.370416396185413,2.0417598865092987,2.0750883693764592,0.0,21.22329616386998,-116.98422427609279,0.0,0.0,0.0,0.0,-21.22329616386997,116.98422427609276,118.89380568195514
44,0.2164626121520996,1775872616.901779,0.000459151,-19.31007083356238,0.9198840372454805,0.7279099574178085,-19.31,0.92,0.7280663673752099,7.083356238268834e-05,0.00011596275451952742,0.0001564099574014044,0.00020719273339064648,-0.40771199211630926,-0.8199186351317103,-0.30251446225296497,0.9643705909161149,0.0,0.0,0.0009292968550627881,0.0009292968550627881,0.0,0.0,0.0,0.0,0.319077850935559,-2.0322488024417233,0.0,0.0,0.0,0.0,-0.31907785093555896,2.032248802441723,2.0571450775245466,0.0,18.281814194711938,-116.43927930042658,0.0,0.0,0.0,0.0,-18.281814194711934,116.43927930042655,117.86573078826906
45,0.22248578071594238,1775872616.907802,0.006482334,-19.31151489268695,0.9172340770211599,0.7261498323668363,-19.31,0.92,0.7280709530008741,0.0015148926869521517,0.002765922978840152,0.0019211206340378206,0.0036926865922229262,-0.47826878198640205,-0.9847112972040277,-0.3064601767189579,1.1368004251312587,0.0,0.0,0.0009050654275630625,0.0009050654275630625,0.0,0.0,0.0,0.0,0.2729582445540678,-2.0229341149997992,0.0,0.0,0.0,0.0,-0.2729582445540677,2.0229341149997992,2.041266429670576,0.0,15.639355396247872,-115.90558702252082,0.0,0.0,0.0,0.0,-15.639355396247867,115.90558702252082,116.95595128186207
46,0.2267158031463623,1775872616.9120321,0.010712496,-19.313083915473378,0.9141370758264057,0.7248782842251584,-19.31,0.92,0.7280754190693028,0.003083915473379051,0.005862924173594353,0.0031971348441444114,0.007355683905926496,-0.5262252775039378,-1.0987669240747842,-0.30899313360285163,1.2568526376383864,0.0,0.0,0.000881458358468098,0.000881458358468098,0.0,0.0,0.0,0.0,0.24839315447163404,-2.0174409984975763,0.0,0.0,0.0,0.0,-0.24839315447163424,2.0174409984975767,2.032674922757515,0.0,14.231879411165743,-115.59085463056978,0.0,0.0,0.0,0.0,-14.231879411165753,115.59085463056981,116.46369419608622
47,0.2314589023590088,1775872616.9167752,0.01545541,-19.315364051086014,0.9094767222007561,0.7234213881062617,-19.31,0.92,0.7280797684848891,0.005364051086015564,0.01052327779924389,0.004658380378627425,0.012696965284879104,-0.5784282478197299,-1.2249987164555955,-0.3115994215676736,1.390070247402975,0.0,0.0,0.0008583968104421182,0.0008583968104421182,0.0,0.0,0.0,0.0,0.22608195752216917,-2.0119468592288556,0.0,0.0,0.0,0.0,-0.2260819575221693,2.011946859228855,2.0246093983477187,0.0,12.953541990076248,-115.276063638415,0.0,0.0,0.0,0.0,-12.953541990076257,115.27606363841497,116.00157368784515
48,0.23646092414855957,1775872616.9217772,0.020457462,-19.318340340166355,0.9032274990955618,0.7218528749744187,-19.31,0.92,0.7280840039514971,0.008340340166355986,0.01677250090443827,0.006231128977078337,0.019740948027105965,-0.6371495084359857,-1.368861691760073,-0.31439525838850013,1.5422665806421534,0.0,0.0,0.0008358763585059429,0.0008358763585059429,0.0,0.0,0.0,0.0,0.20529169005190678,-2.0064316394717365,0.0,0.0,0.0,0.0,-0.20529169005190662,2.006431639471737,2.0169066914157456,0.0,11.762347409082087,-114.9600648232449,0.0,0.0,0.0,0.0,-11.762347409082077,114.96006482324492,115.56024108981693
49,0.24168014526367188,1775872616.9269965,0.02567663,-19.322041962862915,0.8952777620228145,0.7201856243408924,-19.31,0.92,0.7280881281306523,0.012041962862916478,0.024722237977185535,0.007902503789759874,0.02861201646755474,-0.7508738369966573,-1.6454493886150254,-0.3199573873143458,1.836760174676233,0.0,0.0,0.0008138849954613999,0.0008138849954613999,0.0,0.0,0.0,0.0,0.1750898406607808,-1.9989047743231645,0.0,0.0,0.0,0.0,-0.17508984066078082,1.9989047743231643,2.006558434014459,0.0,10.031908905480812,-114.52880721726761,0.0,0.0,0.0,0.0,-10.031908905480813,114.5288072172676,114.96732961540819
50,0.2467784881591797,1775872616.9320948,0.030775206,-19.326216265405947,0.8861335073254497,0.7185310918641001,-19.31,0.92,0.7280921436340325,0.016216265405947894,0.03386649267455033,0.009561051769932383,0.03874687472221264,-0.8561615642973307,-1.9095318516695794,-0.32452439425777463,2.117697003631322,0.0,0.0,0.0007923935557175412,0.0007923935557175412,0.0,0.0,0.0,0.0,0.1538502349317835,-1.9922872754099847,0.0,0.0,0.0,0.0,-0.15385023493178362,1.9922872754099847,1.9982188274934019,0.0,8.814969138687385,-114.14965245861,0.0,0.0,0.0,0.0,-8.81496913868739,114.14965245861,114.48950535895183
51,0.2518124580383301,1775872616.9371288,0.035808947,-19.33084987180855,0.8757996477187967,0.716876879727,-19.31,0.92,0.7280960528582827,0.0208498718085508,0.04420035228120334,0.011219173131282734,0.05014237870270192,-0.9544784258750384,-2.1643278989333243,-0.32819311643488563,2.3881069995369284,0.0,0.0,0.0007713771291092903,0.0007713771291092903,0.0,0.0,0.0,0.0,0.1378644533466531,-1.9861444934789716,0.0,0.0,0.0,0.0,-0.1378644533466531,1.9861444934789718,1.9909235436031723,0.0,7.89905132164146,-113.79769697949372,0.0,0.0,0.0,0.0,-7.89905132164146,113.79769697949374,114.0715163816919
52,0.25678038597106934,1775872616.9420967,0.040776871,-19.335894441677034,0.8643577819668018,0.7152282320878054,-19.31,0.92,0.7280998583348001,0.025894441677035474,0.05564221803319824,0.012871626246994672,0.06270771323897632,-1.0460230942709539,-2.4100171364942558,-0.33099533847200663,2.648000155973249,0.0,0.0,0.0007509174233308889,0.0007509174233308889,0.0,0.0,0.0,0.0,0.1253260494352235,-1.980291708068807,0.0,0.0,0.0,0.0,-0.1253260494352233,1.9802917080688065,1.9842534786949753,0.0,7.18065369568622,-113.46235707709555,0.0,0.0,0.0,0.0,-7.1806536956862095,113.46235707709552,113.6893498133739
53,0.26195430755615234,1775872616.9472706,0.045950933,-19.341617023072235,0.851159134414755,0.713498582803984,-19.31,0.92,0.7281020930647909,0.03161702307223635,0.06884086558524505,0.014603510260806862,0.07714896910791222,-1.1355717798644525,-2.6598016150998434,-0.3330493800800804,2.9111835717597714,0.0,0.0,0.0007389409376110982,0.0007389409376110982,0.0,0.0,0.0,0.0,0.11465446408752047,-1.9743077763690144,0.0,0.0,0.0,0.0,-0.11465446408752067,1.9743077763690149,1.9776341527103443,0.0,6.5692168945491884,-113.1195030458029,0.0,0.0,0.0,0.0,-6.5692168945492,113.11950304580292,113.31009037123326
54,0.26715731620788574,1775872616.9524736,0.051153925,-19.347823343791884,0.8365997242925407,0.7117508549807345,-19.31,0.92,0.7281064563737379,0.03782334379188512,0.08340027570745934,0.016355601393003405,0.0930253568690074,-1.2196591917277286,-2.904707127102859,-0.3342254697183605,3.1680591381501295,0.0,0.0,0.0007156295478668008,0.0007156295478668008,0.0,0.0,0.0,0.0,0.10569517976046468,-1.968331311292162,0.0,0.0,0.0,0.0,-0.10569517976046461,1.9683313112921619,1.9711670710616385,0.0,6.055887715151186,-112.77707682049193,0.0,0.0,0.0,0.0,-6.055887715151181,112.77707682049191,112.93955388699591
55,0.27204465866088867,1775872616.957361,0.056041302,-19.35403809570149,0.8217771590606773,0.7101055991676938,-19.31,0.92,0.7281099872412381,0.04403809570149164,0.09822284093932276,0.01800438807354432,0.10913861986074418,-1.2932002388295947,-3.1290245380041015,-0.33451781582390366,3.402214512085371,0.0,0.0,0.000696808255815043,0.000696808255815043,0.0,0.0,0.0,0.0,0.09848266946099483,-1.9627083938580383,0.0,0.0,0.0,0.0,-0.09848266946099482,1.9627083938580387,1.965177619327313,0.0,5.642641315296926,-112.4549073829661,0.0,0.0,0.0,0.0,-5.642641315296925,112.45490738296613,112.59638358102175
56,0.2767658233642578,1775872616.9620821,0.060762509,-19.360370883528276,0.806430106373186,0.7085167098115562,-19.31,0.92,0.7281120610621626,0.05037088352827723,0.11356989362681402,0.019595351250606408,0.12577489589126983,-1.359231624748425,-3.340442405203745,-0.33405291304010604,3.621830672589513,0.0,0.0,0.0006857703779816935,0.0006857703779816935,0.0,0.0,0.0,0.0,0.092364440691751,-1.9572382317910404,0.0,0.0,0.0,0.0,-0.09236444069175098,1.95723823179104,1.959416414621664,0.0,5.292092628723734,-112.14149018327457,0.0,0.0,0.0,0.0,-5.292092628723733,112.14149018327454,112.26629086647715
57,0.2826061248779297,1775872616.9679224,0.066602713,-19.36861735620209,0.786084122181713,0.7065570443157485,-19.31,0.92,0.7281161107051979,0.05861735620209174,0.13391587781828707,0.021559066389449377,0.14776417063534036,-1.4341024135276823,-3.594800164074737,-0.3324617180636868,3.8845551542094934,0.0,0.0,0.0006642230192187433,0.0006642230192187433,0.0,0.0,0.0,0.0,0.08569036155470912,-1.9503868576913164,0.0,0.0,0.0,0.0,-0.08569036155470933,1.9503868576913161,1.952268355713011,0.0,4.90969606203492,-111.74893536349514,0.0,0.0,0.0,0.0,-4.909696062034932,111.74893536349512,111.85673725930044
58,0.28630566596984863,1775872616.971622,0.070302224,-19.374058754520416,0.7724363518990817,0.7053217735187624,-19.31,0.92,0.72811938797275,0.06405875452041698,0.14756364810091838,0.022797614453987647,0.16247549198679592,-1.4776326399286608,-3.751822443676147,-0.33087237634452643,4.045867817524749,0.0,0.0,0.0006467518929753689,0.0006467518929753689,0.0,0.0,0.0,0.0,0.08187175639102427,-1.9459845409067829,0.0,0.0,0.0,0.0,-0.08187175639102406,1.9459845409067826,1.9477060399204837,0.0,4.690906102528915,-111.49670119166176,0.0,0.0,0.0,0.0,-4.690906102528904,111.49670119166174,111.59533581958276
59,0.2943408489227295,1775872616.9796572,0.078337552,-19.386397898608163,0.7408284497028772,0.7026641415757139,-19.31,0.92,0.7281219475435262,0.07639789860816393,0.17917155029712284,0.02545780596781233,0.19643620652087665,-1.561767952870685,-4.081914461236932,-0.3258669828794358,4.382617265744297,0.0,0.0,0.0006330876650022512,0.0006330876650022512,0.0,0.0,0.0,0.0,0.0744231075219779,-1.9362191784759035,0.0,0.0,0.0,0.0,-0.0744231075219779,1.9362191784759037,1.9376489635718674,0.0,4.264129959257664,-110.93718713895676,0.0,0.0,0.0,0.0,-4.264129959257664,110.93718713895677,111.0191077905662
60,0.2963986396789551,1775872616.981715,0.080395205,-19.38966173735099,0.7323127467943419,0.7019907475859248,-19.31,0.92,0.728123831723369,0.07966173735099247,0.18768725320565816,0.026133084137444196,0.20556126945560071,-1.581019704739006,-4.164029135153637,-0.32424310197781964,4.465858879808178,0.0,0.0,0.0006230637594718427,0.0006230637594718427,0.0,0.0,0.0,0.0,0.07266881050464548,-1.9336681180516593,0.0,0.0,0.0,0.0,-0.07266881050464535,1.933668118051659,1.9350331125822124,0.0,4.163616144152128,-110.79102214336471,0.0,0.0,0.0,0.0,-4.163616144152121,110.7910221433647,110.86923056902384
61,0.30141496658325195,1775872616.9867313,0.085411489,-19.39777664717241,0.710852861377715,0.7003642827990546,-19.31,0.92,0.7281269060765897,0.08777664717241151,0.20914713862228507,0.027762623277535092,0.2285126443634349,-1.624034537085972,-4.360089275307534,-0.3196997337786139,4.663697523004461,0.0,0.0,0.0006067606401519152,0.0006067606401519152,0.0,0.0,0.0,0.0,0.06860450359920625,-1.9273535342124783,0.0,0.0,0.0,0.0,-0.06860450359920645,1.9273535342124788,1.9285741426648408,0.0,3.930748511824584,-110.42922313999813,0.0,0.0,0.0,0.0,-3.930748511824595,110.42922313999816,110.4991588527565
62,0.3063852787017822,1775872616.9917016,0.090381808,-19.40601635340272,0.6886339815503445,0.698777238453282,-19.31,0.92,0.7281299001273054,0.09601635340272097,0.23136601844965554,0.029352661674023395,0.25221211977490743,-1.6611741554329205,-4.548583493765528,-0.31438030484212115,4.852622626014423,0.0,0.0,0.0005909338557614453,0.0005909338557614453,0.0,0.0,0.0,0.0,0.06483105404332962,-1.9209537614174077,0.0,0.0,0.0,0.0,-0.06483105404332967,1.9209537614174081,1.9220474549479931,0.0,3.714545778067338,-110.06254316899793,0.0,0.0,0.0,0.0,-3.714545778067341,110.06254316899796,110.12520719238124
63,0.31141138076782227,1775872616.9967277,0.09540809,-19.41452266724208,0.6652267935381592,0.6972012848252358,-19.31,0.92,0.7281328161604324,0.10452266724207959,0.2547732064618409,0.03093153133519655,0.27711213313203475,-1.6931836199162829,-4.733359858355067,-0.30817325518933675,5.036520333985946,0.0,0.0,0.0005755541387706797,0.0005755541387706797,0.0,0.0,0.0,0.0,0.06122597674475948,-1.9143256852506838,0.0,0.0,0.0,0.0,-0.0612259767447596,1.9143256852506836,1.9153045317752602,0.0,3.507990064040845,-109.68278237835341,0.0,0.0,0.0,0.0,-3.507990064040852,109.6827823783534,109.73886615300268
64,0.31638669967651367,1775872617.001703,0.100383275,-19.42308723462727,0.6411573749013372,0.6956741226240932,-19.31,0.92,0.728135656362515,0.11308723462727244,0.27884262509866287,0.032461533738421755,0.3026477876677903,-1.719373083037556,-4.9104741575400945,-0.30120959507205497,5.211499541466606,0.0,0.0,0.0005605910270578606,0.0005605910270578606,0.0,0.0,0.0,0.0,0.05782933376202335,-1.907599429058311,0.0,0.0,0.0,0.0,-0.05782933376202326,1.907599429058311,1.908475782813854,0.0,3.3133767566173375,-109.29739628660671,0.0,0.0,0.0,0.0,-3.313376756617332,109.29739628660671,109.34760765815977
65,0.32147216796875,1775872617.0067885,0.105468806,-19.431962160199234,0.61565841736156,0.6941510233908943,-19.31,0.92,0.7281384226948024,0.12196216019923511,0.30434158263844,0.03398739930390815,0.32962662324936315,-1.7404936769649384,-5.085569788801428,-0.2932486306162941,5.383152707817517,0.0,0.0,0.000546006483269078,0.000546006483269078,0.0,0.0,0.0,0.0,0.054502236714711716,-1.9005428053002367,0.0,0.0,0.0,0.0,-0.05450223671471166,1.900542805300237,1.9013241303327006,0.0,3.1227481377759427,-108.8930815276573,0.0,0.0,0.0,0.0,-3.1227481377759396,108.89308152765732,108.93784815444542
66,0.32639646530151367,1775872617.0117128,0.110393159,-19.44064461799563,0.5901333011167703,0.6927167989337795,-19.31,0.92,0.7281411170370955,0.13064461799563176,0.3298666988832297,0.03542431810331603,0.35655986531917583,-1.755501854172436,-5.249386674984361,-0.28472795772388476,5.542464905925507,0.0,0.0,0.0005317870116600024,0.0005317870116600024,0.0,0.0,0.0,0.0,0.051394704102954755,-1.8935248983740571,0.0,0.0,0.0,0.0,-0.05139470410295477,1.8935248983740571,1.894222256329049,0.0,2.944699634423003,-108.49098507977159,0.0,0.0,0.0,0.0,-2.944699634423004,108.49098507977159,108.5309407474025
67,0.33158230781555176,1775872617.0168986,0.115579012,-19.449853281261483,0.5623961629574925,0.6912539743390433,-19.31,0.92,0.7281437411407856,0.13985328126148389,0.35760383704250753,0.036889766801742274,0.38574641857289477,-1.7655174924370516,-5.415808718035299,-0.27489109766293257,5.702946712185088,0.0,0.0,0.0005179143613347352,0.0005179143613347352,0.0,0.0,0.0,0.0,0.04822027447833424,-1.8859263920204974,0.0,0.0,0.0,0.0,-0.048220274478334435,1.8859263920204974,1.8865427509044732,0.0,2.7628182145709492,-108.05562273510928,0.0,0.0,0.0,0.0,-2.7628182145709603,108.05562273510928,108.09093749782649
68,0.33638978004455566,1775872617.021706,0.120386445,-19.458423280087022,0.5359259509763621,0.6899454113036136,-19.31,0.92,0.7281462968290072,0.1484232800870231,0.38407404902363795,0.03820088552539358,0.4135234610758221,-1.7694972874581434,-5.564502624942064,-0.2649806246377672,5.8450855292923025,0.0,0.0,0.0005044247280681133,0.0005044247280681133,0.0,0.0,0.0,0.0,0.04534945989444039,-1.8786816217456845,0.0,0.0,0.0,0.0,-0.045349459894440614,1.8786816217456845,1.8792288869101903,0.0,2.598332655149226,-107.64052797482067,0.0,0.0,0.0,0.0,-2.598332655149239,107.64052797482067,107.67188395902137
69,0.34140586853027344,1775872617.0267222,0.125402411,-19.467371960130823,0.5075596800688771,0.6886328827710166,-19.31,0.92,0.7281487860432047,0.1573719601308241,0.41244031993112296,0.03951590327218801,0.44320927105795255,-1.7682087106766888,-5.7139192313388385,-0.25382854674486927,5.986640456710203,0.0,0.0,0.0004913303290903489,0.0004913303290903489,0.0,0.0,0.0,0.0,0.04241187707343826,-1.8709059541878583,0.0,0.0,0.0,0.0,-0.0424118770734383,1.870905954187858,1.871386613378559,0.0,2.43002155753567,-107.19501504086043,0.0,0.0,0.0,0.0,-2.430021557535672,107.19501504086041,107.22255478387176
70,0.3480186462402344,1775872617.033335,0.132015223,-19.479133782259602,0.46904476611038837,0.6869918440340804,-19.31,0.92,0.7281512107821984,0.1691337822596033,0.4509552338896117,0.04115936674811793,0.48338489089438796,-1.7580184407613333,-5.901964845976316,-0.2378593752227515,6.162823619379229,0.0,0.0,0.00047862555219139037,0.00047862555219139037,0.0,0.0,0.0,0.0,0.03860543212712734,-1.8602978758486433,0.0,0.0,0.0,0.0,-0.038605432127127415,1.8602978758486435,1.8606984081996463,0.0,2.2119283271631525,-106.58721692327926,0.0,0.0,0.0,0.0,-2.211928327163157,106.58721692327927,106.61016573655019
71,0.3516519069671631,1775872617.0369682,0.135648477,-19.485557846946897,0.4473643641603512,0.6861365814007191,-19.31,0.92,0.72815357288124,0.1755578469468979,0.47263563583964885,0.04201699148052096,0.5059352028306132,-1.7483089383873998,-6.0009551453553795,-0.22847223501122896,6.254618002946583,0.0,0.0,0.0004662738038058596,0.0004662738038058596,0.0,0.0,0.0,0.0,0.036536695803571016,-1.8542879199005864,0.0,0.0,0.0,0.0,-0.036536695803571106,1.8542879199005862,1.8546478425915485,0.0,2.0933984668979653,-106.24287181239605,0.0,0.0,0.0,0.0,-2.09339846689797,106.24287181239605,106.26349386353917
72,0.358400821685791,1775872617.0437171,0.142397392,-19.497375088250546,0.4061608728182147,0.6846417093166424,-19.31,0.92,0.7281554186361517,0.1873750882505476,0.5138391271817853,0.043513709319509375,0.5486652123276836,-1.7225359319715141,-6.176689365927098,-0.20988096893616862,6.415814179136694,0.0,0.0,0.0004566380267814619,0.0004566380267814619,0.0,0.0,0.0,0.0,0.03271890596471568,-1.842763268569759,0.0,0.0,0.0,0.0,-0.03271890596471572,1.842763268569759,1.8430537134867853,0.0,1.8746552220636237,-105.58255793077981,0.0,0.0,0.0,0.0,-1.8746552220636257,105.58255793077981,105.59919919870644
73,0.3614785671234131,1775872617.046795,0.145475285,-19.50269949391217,0.3869834903327175,0.6840026926094742,-19.31,0.92,0.7281572262582408,0.19269949391217267,0.5330165096672825,0.044154533648766536,0.5684974207273414,-1.707442097042656,-6.253318711749944,-0.20090402591621548,6.485346240032581,0.0,0.0,0.00044720568980519023,0.00044720568980519023,0.0,0.0,0.0,0.0,0.030983106398011957,-1.837344780731953,0.0,0.0,0.0,0.0,-0.03098310639801216,1.8373447807319527,1.837605995899289,0.0,1.7752012328108633,-105.27210144633057,0.0,0.0,0.0,0.0,-1.775201232810875,105.27210144633055,105.28706797296373
74,0.3664708137512207,1775872617.0517871,0.150467531,-19.511227042331868,0.35538705121402053,0.6830264243327513,-19.31,0.92,0.7281594333595341,0.20122704233186894,0.5646129487859795,0.045133009026782855,0.6010965754404549,-1.6785116025138445,-6.372926316337749,-0.1856800162469919,6.592880106727052,0.0,0.0,0.00043568529813340235,0.00043568529813340235,0.0,0.0,0.0,0.0,0.02816744256688508,-1.8283292574830814,0.0,0.0,0.0,0.0,-0.028167442566885192,1.8283292574830812,1.8285462199762395,0.0,1.6138755787596573,-104.75555001406815,0.0,0.0,0.0,0.0,-1.6138755787596635,104.75555001406813,104.76798104923874
75,0.37146997451782227,1775872617.0567863,0.155466685,-19.519607882562354,0.3231630451053257,0.682127020756653,-19.31,0.92,0.7281615836059074,0.20960788256235574,0.5968369548946744,0.046034562849254446,0.6342467943450277,-1.6440255670990398,-6.486893777554543,-0.16961210923760192,6.694130205945444,0.0,0.0,0.00042446111890405154,0.00042446111890405154,0.0,0.0,0.0,0.0,0.02534014985623094,-1.8190081542837022,0.0,0.0,0.0,0.0,-0.025340149856230898,1.8190081542837024,1.819184649381513,0.0,1.4518836389910725,-104.22149014033783,0.0,0.0,0.0,0.0,-1.4518836389910703,104.22149014033785,104.23160256454713
76,0.37647533416748047,1775872617.0617917,0.160471877,-19.527812299637667,0.29034390492909207,0.6813090659466184,-19.31,0.92,0.7281636784150647,0.2178122996376679,0.629656095070908,0.046854612468446244,0.6679104360937639,-1.6039685540580892,-6.595178695624285,-0.15269990290011923,6.78913944546504,0.0,0.0,0.0004135037443033597,0.0004135037443033597,0.0,0.0,0.0,0.0,0.022493687412491387,-1.8093678412807335,0.0,0.0,0.0,0.0,-0.022493687412491248,1.809367841280734,1.8095076543176916,0.0,1.2887933544223018,-103.66914089208264,0.0,0.0,0.0,0.0,-1.2887933544222938,103.66914089208267,103.67715158902124
77,0.38147902488708496,1775872617.0667953,0.165475635,-19.535800121814702,0.25700697895003355,0.680578022284317,-19.31,0.92,0.7281657190651382,0.22580012181470366,0.6629930210499665,0.0475876967808212,0.7020042947570903,-1.5583927325082856,-6.697611386065383,-0.1349675063390316,6.877848676385275,0.0,0.0,0.00040280063690232947,0.00040280063690232947,0.0,0.0,0.0,0.0,0.019624765889854043,-1.7994075108448389,0.0,0.0,0.0,0.0,-0.019624765889854068,1.7994075108448389,1.7995145238427643,0.0,1.1244162594209361,-103.09845599555018,0.0,0.0,0.0,0.0,-1.1244162594209375,103.09845599555018,103.10458738868435
78,0.3885834217071533,1775872617.0738997,0.172580015,-19.546719134321616,0.20882645893418916,0.6796970385468026,-19.31,0.92,0.728167313499257,0.23671913432161773,0.7111735410658109,0.04847027495245437,0.7511012725458712,-1.4841850315744594,-6.8330478052301915,-0.10837382199638262,6.993217600061143,0.0,0.0,0.00039444847816152734,0.00039444847816152734,0.0,0.0,0.0,0.0,0.015497610176954422,-1.7846809068273697,0.0,0.0,0.0,0.0,-0.015497610176954613,1.7846809068273695,1.7847481937560152,0.0,0.8879476556784812,-102.25468373878878,0.0,0.0,0.0,0.0,-0.8879476556784922,102.25468373878877,102.25853899581658
79,0.39167308807373047,1775872617.0769894,-0.024358301000000027,-19.31,0.92,0.728167313499257,-19.31,0.92,0.7281688749025963,0.0,0.0,1.5614033392896687e-06,1.5614033392896687e-06,0.0,0.0,0.0,0.0,0.0,0.0,0.0003862860419069582,0.0003862860419069582,0.0,0.0,0.0,0.0,0.015497610176954422,-1.7846809068273697,0.0,0.0,0.0,0.0,-0.015497610176954613,1.7846809068273695,1.7847481937560152,0.0,0.8879476556784812,-102.25468373878878,0.0,0.0,0.0,0.0,-0.8879476556784922,102.25468373878877,102.25853899581658
80,0.3966634273529053,1775872617.0819798,-0.019367830999999947,-19.31,0.92,0.728167313499257,-19.31,0.92,0.7281707813795396,0.0,0.0,3.467880282603808e-06,3.467880282603808e-06,-0.15657468484831832,-0.2575762410718817,-0.2877249831754602,0.41670951254247746,0.0,0.0,0.0003763518291361641,0.0003763518291361641,0.0,0.0,0.0,0.0,0.7621371565096041,-2.116987651151216,0.0,0.0,0.0,0.0,-0.762137156509604,2.1169876511512165,2.2499977245453584,0.0,43.66724247810179,-121.29445769227812,0.0,0.0,0.0,0.0,-43.667242478101784,121.29445769227813,128.91537353048778
81,0.40166163444519043,1775872617.086978,-0.01436968999999999,-19.31,0.92,0.728167313499257,-19.31,0.92,0.728172638889077,0.0,0.0,5.3253898200100735e-06,5.3253898200100735e-06,-0.22260837959686522,-0.4022025898005119,-0.29210948027101313,0.5446552692971788,0.0,0.0,0.0003666984992018309,0.0003666984992018309,0.0,0.0,0.0,0.0,0.5660708517339759,-2.076302238554698,0.0,0.0,0.0,0.0,-0.5660708517339756,2.076302238554698,2.1520843838033112,0.0,32.433470709732596,-118.96335526274922,0.0,0.0,0.0,0.0,-32.43347070973258,118.96335526274922,123.30535234794216
82,0.40787792205810547,1775872617.0931942,-0.008153423999999965,-19.31,0.92,0.728167313499257,-19.31,0.92,0.7281740905626857,0.0,0.0,6.777063428664576e-06,6.777063428664576e-06,-0.30216954896425036,-0.579375675316382,-0.2971794943242808,0.717842783147123,0.0,0.0,0.0003591643092625949,0.0003591643092625949,0.0,0.0,0.0,0.0,0.42683260921122235,-2.05152972971381,0.0,0.0,0.0,0.0,-0.42683260921122246,2.0515297297138098,2.0954618364899127,0.0,24.455707066359828,-117.54399505821584,0.0,0.0,0.0,0.0,-24.45570706635983,117.54399505821581,120.0611193616046
83,0.41242265701293945,1775872617.097739,-0.0036087139999999573,-19.31,0.92,0.728167313499257,-19.31,0.92,0.7281758632784329,0.0,0.0,8.549779175859307e-06,8.549779175859307e-06,-0.35853656639369524,-0.7070120280177212,-0.30061745290826875,0.8478120842475453,0.0,0.0,0.00034996273219915124,0.00034996273219915124,0.0,0.0,0.0,0.0,0.36246515136275226,-2.04011990343102,0.0,0.0,0.0,0.0,-0.36246515136275237,2.0401199034310196,2.072069064082521,0.0,20.767723393656265,-116.89026016723453,0.0,0.0,0.0,0.0,-20.76772339365627,116.8902601672345,118.72081223155097
84,0.4169893264770508,1775872617.1023057,0.000958071,-19.310154188532163,0.9197441322444972,0.7278913706182947,-19.31,0.92,0.7281775905739577,0.00015418853216431216,0.00025586775550279217,0.00028621995566302516,0.0004137200439630232,-0.4136457745647634,-0.833656170699056,-0.30384346990447,0.9789822735695909,0.0,0.0,0.0003409911015286463,0.0003409911015286463,0.0,0.0,0.0,0.0,0.31557872789753577,-2.031385439963921,0.0,0.0,0.0,0.0,-0.31557872789753594,2.0313854399639215,2.0557521103476564,0.0,18.08132921263621,-116.38981227425855,0.0,0.0,0.0,0.0,-18.08132921263622,116.38981227425857,117.785919648033
85,0.4220085144042969,1775872617.1073248,0.005977056,-19.31135751642603,0.917536471283183,0.7264196015780212,-19.31,0.92,0.7281792735365018,0.001357516426029548,0.0024635287168169873,0.0017596719584805909,0.0033178713035596948,-0.47244098351286123,-0.9709764903805296,-0.30712456456884896,1.1226403368558853,0.0,0.0,0.0003322301868137895,0.0003322301868137895,0.0,0.0,0.0,0.0,0.27710623553973096,-2.0236364587341065,0.0,0.0,0.0,0.0,-0.2771062355397311,2.0236364587341065,2.042521085054672,0.0,15.877017773184681,-115.94582835426408,0.0,0.0,0.0,0.0,-15.877017773184692,115.94582835426408,117.02783774011415
86,0.4269528388977051,1775872617.1122692,0.010921411,-19.31317276453706,0.9139583112657373,0.7249296412922647,-19.31,0.92,0.7281809132186763,0.003172764537062278,0.006041688734262696,0.003251271926411614,0.007559048002812859,-0.5285486755036711,-1.1043462658396386,-0.310086183450995,1.2629718201202442,0.0,0.0,0.00032367449757648195,0.00032367449757648195,0.0,0.0,0.0,0.0,0.24805717135883162,-2.017184140499077,0.0,0.0,0.0,0.0,-0.24805717135883176,2.0171841404990776,2.032378955053301,0.0,14.212628996814496,-115.5761377513216,0.0,0.0,0.0,0.0,-14.212628996814503,115.57613775132162,116.44673649576258
87,0.43195462226867676,1775872617.117271,0.015923335,-19.31561779868957,0.9089501015701831,0.7233859509231858,-19.31,0.92,0.7281825106064242,0.0056177986895704635,0.011049898429816962,0.004796559683238444,0.013291610219257842,-0.5834784200737535,-1.2373413451832764,-0.3128089153718316,1.4033210925258073,0.0,0.0,0.0003153136922079008,0.0003153136922079008,0.0,0.0,0.0,0.0,0.2247946254893326,-2.01143269512289,0.0,0.0,0.0,0.0,-0.2247946254893325,2.01143269512289,2.0239550663634365,0.0,12.879783297762716,-115.24660420516605,0.0,0.0,0.0,0.0,-12.87978329776271,115.24660420516605,115.96408322674536
88,0.4369525909423828,1775872617.122269,0.020921308,-19.318644857501322,0.9025800166811235,0.7218110348568905,-19.31,0.92,0.7281840666627668,0.0086448575013236,0.01741998331887651,0.006373031805876339,0.02046472365918578,-0.6474905431123722,-1.3936838726544023,-0.3158829431137155,1.5688788270822924,0.0,0.0,0.00030713732619105325,0.00030713732619105325,0.0,0.0,0.0,0.0,0.20272891951975322,-2.005716220088924,0.0,0.0,0.0,0.0,-0.20272891951975325,2.0057162200889245,2.015935656298943,0.0,11.615511473729192,-114.91907431202789,0.0,0.0,0.0,0.0,-11.615511473729192,114.91907431202792,115.50460487586514
89,0.441953182220459,1775872617.1272695,0.025921809,-19.322230010143635,0.8948694400225108,0.7202069863546747,-19.31,0.92,0.728185582305729,0.012230010143635894,0.025130559977489253,0.007978595951054324,0.0290650337389414,-0.7560598355587977,-1.6582731843962333,-0.3211389199751835,1.8505746769465012,0.0,0.0,0.00029916116278355084,0.00029916116278355084,0.0,0.0,0.0,0.0,0.17441769734975945,-1.9985723558035502,0.0,0.0,0.0,0.0,-0.17441769734975932,1.9985723558035504,2.0061687353089086,0.0,9.99339793053134,-114.50976103906173,0.0,0.0,0.0,0.0,-9.993397930531332,114.50976103906174,114.94500152429843
90,0.44652724266052246,1775872617.1318436,0.030495877,-19.325973452727794,0.8866697645133139,0.7187184142800939,-19.31,0.92,0.7281867664841853,0.01597345272779549,0.03333023548668612,0.00946835220409148,0.03815370864156972,-0.8505345263785102,-1.8952083891209364,-0.3252247448913781,2.1026162163946975,0.0,0.0,0.00029295193106686175,0.00029295193106686175,0.0,0.0,0.0,0.0,0.15529972875021342,-1.992636512931951,0.0,0.0,0.0,0.0,-0.15529972875021336,1.9926365129319512,1.9986791334327518,0.0,8.89801901691372,-114.16966229466628,0.0,0.0,0.0,0.0,-8.898019016913716,114.1696622946663,114.51587894656139
91,0.4519500732421875,1775872617.1372664,0.035918659,-19.33095594885581,0.8755607913732568,0.7169317235484273,-19.31,0.92,0.7281884969025438,0.020955948855810647,0.04443920862674322,0.011256773354116567,0.050405456075354675,-0.9565526979025131,-2.169805555982493,-0.3291750560291851,2.3940353865699,0.0,0.0,0.0002839071763845057,0.0002839071763845057,0.0,0.0,0.0,0.0,0.13793496815074915,-1.9860127628685469,0.0,0.0,0.0,0.0,-0.13793496815074935,1.9860127628685467,1.9907970136896191,0.0,7.9030915223093565,-113.79014937148371,0.0,0.0,0.0,0.0,-7.903091522309367,113.7901493714837,114.06426675166315
92,0.4569544792175293,1775872617.1422708,0.040923231,-19.336049485606456,0.8640029033748474,0.7152660292867141,-19.31,0.92,0.7281898980785045,0.026049485606456813,0.05599709662515262,0.012923868791790416,0.06309736060529865,-1.0486321933788292,-2.4171599167392257,-0.33196048312484633,2.6556523308667037,0.0,0.0,0.00027659440048413865,0.00027659440048413865,0.0,0.0,0.0,0.0,0.12532932719506076,-1.9801207329337347,0.0,0.0,0.0,0.0,-0.12532932719506062,1.9801207329337345,1.9840830520039217,0.0,7.180841497491154,-113.45256092345423,0.0,0.0,0.0,0.0,-7.180841497491146,113.45256092345421,113.67958508326015
93,0.4615468978881836,1775872617.1468632,0.045515631,-19.341117466358767,0.8523198551674144,0.7137269732029863,-19.31,0.92,0.728190721399084,0.031117466358768553,0.06768014483258566,0.014463748196097748,0.07588213708791408,-1.1282613390422467,-2.6390195919988226,-0.33378998316822,2.8894313989078326,0.0,0.0,0.00027229795752402005,0.00027229795752402005,0.0,0.0,0.0,0.0,0.11577948780111343,-1.974808368039355,0.0,0.0,0.0,0.0,-0.11577948780111358,1.9748083680393549,1.9781994288427414,0.0,6.6336760051902,-113.14818483577282,0.0,0.0,0.0,0.0,-6.633676005190208,113.14818483577281,113.34247830787909
94,0.4695405960083008,1775872617.154857,0.053509343,-19.35077313953073,0.8295937554718289,0.711033680035011,-19.31,0.92,0.7281917993070686,0.040773139530731584,0.09040624452817114,0.01715811927205757,0.10064859171311905,-1.2557571504659746,-3.0135029719254742,-0.33531598542072544,3.2818535910105373,0.0,0.0,0.00026667519945999986,0.00026667519945999986,0.0,0.0,0.0,0.0,0.10235135203718534,-1.965624461470128,0.0,0.0,0.0,0.0,-0.10235135203718526,1.965624461470128,1.968287408584826,0.0,5.864300499188441,-112.62198574991363,0.0,0.0,0.0,0.0,-5.8643004991884355,112.62198574991363,112.77456138065237
95,0.47208595275878906,1775872617.1574023,0.056054557,-19.354054979524594,0.8217362075400778,0.7101745339771073,-19.31,0.92,0.7281925931007477,0.044054979524595694,0.09826379245992223,0.018018059123640406,0.10918454370515185,-1.293390058875499,-3.129621388969623,-0.3353596913958951,3.4029184541077777,0.0,0.0,0.0002625307099559607,0.0002625307099559607,0.0,0.0,0.0,0.0,0.09871083608370762,-1.9626928777680903,0.0,0.0,0.0,0.0,-0.09871083608370768,1.9626928777680899,1.96517357034994,0.0,5.6557142998041225,-112.45401837649754,0.0,0.0,0.0,0.0,-5.655714299804125,112.45401837649752,112.59615159170694
96,0.4771289825439453,1775872617.1624453,0.061097654,-19.36083164882521,0.8053036458278922,0.7084732180981983,-19.31,0.92,0.728193888746306,0.05083164882521274,0.11469635417210788,0.019720670648107674,0.1269961221198289,-1.3637302505927094,-3.3552507573002317,-0.3348154535788738,3.637247479716036,0.0,0.0,0.0002557549448097243,0.0002557549448097243,0.0,0.0,0.0,0.0,0.09218237510557752,-1.956847731296766,0.0,0.0,0.0,0.0,-0.09218237510557747,1.956847731296766,1.9590177727017706,0.0,5.281661039041418,-112.11911615305488,0.0,0.0,0.0,0.0,-5.281661039041416,112.11911615305488,112.24345036693028
97,0.48168396949768066,1775872617.1670003,0.065652713,-19.367246028625853,0.789495282024559,0.7069406035895365,-19.31,0.92,0.7281949011252747,0.057246028625854706,0.13050471797544105,0.021254297535738265,0.14408446956913598,-1.4224355878867276,-3.553963410201554,-0.3336031802112199,3.842560344950377,0.0,0.0,0.0002504534846918728,0.0002504534846918728,0.0,0.0,0.0,0.0,0.08692737628358445,-1.9515089218681398,0.0,0.0,0.0,0.0,-0.08692737628358449,1.9515089218681396,1.9534439948149258,0.0,4.980571785194996,-111.81322490516993,0.0,0.0,0.0,0.0,-4.980571785194998,111.81322490516993,111.92409641807072
98,0.486769437789917,1775872617.1720858,0.070737983,-19.374709666392654,0.7707914829777296,0.7052380989246123,-19.31,0.92,0.7281961371695813,0.06470966639265541,0.14920851702227045,0.022958038244969003,0.16424857380413196,-1.4825608251580744,-3.7701080814805574,-0.3314416688423332,4.064671588970429,0.0,0.0,0.00024399429429469314,0.00024399429429469314,0.0,0.0,0.0,0.0,0.08163268875115942,-1.945462377439955,0.0,0.0,0.0,0.0,-0.08163268875115959,1.9454623774399549,1.9471743008542057,0.0,4.677208535746506,-111.4667834287966,0.0,0.0,0.0,0.0,-4.677208535746515,111.46678342879659,111.5648694152828
99,0.49168848991394043,1775872617.1770048,0.075657005,-19.3822067093771,0.751667535863604,0.7036037290701788,-19.31,0.92,0.7281973413695308,0.07220670937710238,0.16833246413639602,0.024593612299352086,0.18480928853072082,-1.5352862932926923,-3.973466496597943,-0.3285395995220291,4.272408954022641,0.0,0.0,0.0002377165958066156,0.0002377165958066156,0.0,0.0,0.0,0.0,0.0769739647679687,-1.9395104766985063,0.0,0.0,0.0,0.0,-0.0769739647679688,1.9395104766985067,1.941037320732234,0.0,4.410283313593301,-111.12576463623081,0.0,0.0,0.0,0.0,-4.4102833135933075,111.12576463623083,111.21324635533813
