sample_idx,t_rel_s,stamp_s,t_in_traj_s,x_des_m,y_des_m,z_des_m,x_act_m,y_act_m,z_act_m,ex_m,ey_m,ez_m,e_pos_norm_m,vx_des_mps,vy_des_mps,vz_des_mps,speed_des_mps,vx_act_mps,vy_act_mps,vz_act_mps,speed_act_mps,wx_act_radps,wy_act_radps,wz_act_radps,roll_des_rad,pitch_des_rad,yaw_des_rad,roll_act_rad,pitch_act_rad,yaw_act_rad,e_roll_rad,e_pitch_rad,e_yaw_rad,e_ang_norm_rad,roll_des_deg,pitch_des_deg,yaw_des_deg,roll_act_deg,pitch_act_deg,yaw_act_deg,e_roll_deg,e_pitch_deg,e_yaw_deg,e_ang_norm_deg
0,0.0015997886657714844,1775788768.4835677,0.047286173,-19.340465172716613,0.8492919420204834,0.7782513926437952,-19.31,0.92,0.8002447609770964,0.030465172716613864,0.07070805797951663,0.021993368333301233,0.08007162083117873,-1.1661273861404806,-2.829661782712775,-0.7432874462325322,3.1494944218047043,0.0,0.0,0.0015450470263979935,0.0015450470263979935,0.0,0.0,0.0,0.0,0.23824971738951786,-1.961697202457965,0.0,0.0,0.0,0.0,-0.23824971738951772,1.961697202457965,1.976112051976707,0.0,13.650703276603991,-112.39697038346198,0.0,0.0,0.0,0.0,-13.650703276603982,112.39697038346198,113.22288042320208
1,0.005835294723510742,1775788768.4878032,0.051521651,-19.345642315585845,0.8367493132877373,0.7749706066348777,-19.31,0.92,0.8002508792229593,0.03564231558584652,0.08325068671226277,0.02528027258808163,0.09402203827035507,-1.2429806908190952,-3.0473380772750267,-0.7819905699767481,3.382717784044648,0.0,0.0,0.0015141759123701369,0.0015141759123701369,0.0,0.0,0.0,0.0,0.23328242465621415,-1.9580864209759101,0.0,0.0,0.0,0.0,-0.23328242465621418,1.95808642097591,1.9719338532678348,0.0,13.366098367379685,-112.19008784379623,0.0,0.0,0.0,0.0,-13.366098367379687,112.19008784379622,112.98348727121669
2,0.011600494384765625,1775788768.4935684,0.057286768,-19.35319250215023,0.8182207537888092,0.7702548365858746,-19.310000000072606,0.919999999607009,0.8002595540565685,0.043192502077623374,0.10177924581819975,0.030004717470693887,0.11456391310331186,-1.340072477914411,-3.333974471632011,-0.8296142023883484,3.687741822357155,-9.020514092607085e-08,-4.886852651349506e-07,0.001266381647656023,0.0012663817451583229,0.037105521119652096,-0.006824185336709429,-0.0006969321480240894,0.0,0.22690749468286117,-1.9529778143459107,4.99663977960784e-05,-9.210463171966458e-06,-9.376190653043018e-07,4.996639779619727e-05,-0.22691670514603324,1.9529768767268454,1.9661154275882982,0.0,13.000841785215114,-111.89738624470472,0.0028628637111870704,-0.000527720667114355,-5.3721615232937616e-05,0.0028628637111938813,-13.001369505882233,111.89733252308949,112.6501160363687
3,0.016598939895629883,1775788768.4985669,0.062285297,-19.36017336175044,0.8008421004752173,0.7659562988026035,-19.310000004031842,0.9199999780557575,0.8002641186230544,0.050173357718598766,0.1191578775805402,0.034307819820450836,0.13376468934322688,-1.4172391963610307,-3.573488310680189,-0.8661861185424944,3.940642592043298,-2.209827999613978e-06,-1.2051310385319711e-05,0.0004754063263147662,0.0004755641833884183,0.1785405493217652,-0.032480887747308534,-0.0033742794863035218,0.0,0.22161800430217635,-1.9483667218790022,0.0005481728218307106,-0.00010021506312041016,-1.0357852147031252e-05,0.000548172821830839,-0.22171821936529668,1.9483563640268553,1.9609313579357917,0.0,12.697776310626825,-111.63319010740629,0.03140798913467655,-0.005741900160436649,-0.0005934612128454089,0.031407989134683914,-12.703518210787257,111.63259664619346,112.35309072457824
4,0.02159595489501953,1775788768.503564,0.067282334,-19.367521412430975,0.7822928511826452,0.7614872675719366,-19.31000003534455,0.9199998066711256,0.8002633384360771,0.0575213770864238,0.13770695548848033,0.03877607086414048,0.15419305458899799,-1.4878706235858628,-3.8045674950086252,-0.8983659838897232,4.182768731069904,-1.2342800177371806e-05,-6.765847514339774e-05,-0.0009259090265032888,0.000928459767214076,0.4061797169817428,-0.07411436826479856,-0.010505265431331583,0.0,0.21646434361351358,-1.9435850007176243,0.001980024745526324,-0.0003605343815585388,-4.1599061482451054e-05,0.0019800247455261655,-0.2168248779950721,1.9435434016561421,1.9556016727178107,0.0,12.402493304123963,-111.35921766605095,0.1134470612501232,-0.020657098432663532,-0.002383450654649671,0.11344706125011411,-12.423150402556626,111.35683421539632,112.04772225545466
5,0.0265958309173584,1775788768.5085638,0.072282102,-19.375210428406554,0.7625987234068716,0.7568658157590872,-19.310000156427574,0.919999142803406,0.8002536362558819,0.06521027197898022,0.15740041939653437,0.04338782049679468,0.17581175889353806,-1.5520240279025541,-4.027404198979785,-0.9261793640111591,4.414359679440155,-3.9946996136521373e-05,-0.00021894277546208473,-0.0030544363549575623,0.0030625337790649446,0.6990546539991457,-0.12804027393198203,-0.02660434124232449,0.0,0.21138122349816485,-1.9386237489643496,0.0047184682803769785,-0.0008614912457350036,-0.00013259676538999714,0.004718468280377142,-0.21224271474389989,1.93849115219896,1.9500813267806103,0.0,12.11125197475643,-111.07495887948643,0.27034831823195205,-0.04935981246808339,-0.007597235033933181,0.2703483182319614,-12.160611787224514,111.06736164445252,111.73142973180089
6,0.03076457977294922,1775788768.5127325,0.076450808,-19.381855508270192,0.7453406446852753,0.7529136847284021,-19.310000393169588,0.9199978456586861,0.8002364674297809,0.07185511510060394,0.17465720097341086,0.047322782701378796,0.1946991042110605,-1.600530627287977,-4.206801418569494,-0.9460171305063684,4.5993287418249045,-8.17968194242959e-05,-0.0004483341530018206,-0.005777796586426019,0.005795742198073681,0.9712791080218001,-0.17078213056129346,-0.04875388121994701,0.0,0.20716455508375442,-1.9343475084731754,0.008049600844777521,-0.0014602269847102767,-0.0002832289277249613,0.008049600844777682,-0.20862478206846458,1.9340642795454501,1.9453004223462596,0.0,11.869654671004591,-110.8299483471592,0.461208155170694,-0.08366484335501305,-0.016227822194656114,0.4612081551707033,-11.953319514359597,110.81372052496452,111.4575040854572
7,0.036591529846191406,1775788768.5185595,0.082277755,-19.391462724269036,0.7199900635750089,0.7472643507767468,-19.310001175633214,0.9199935338301167,0.8001842489083663,0.08146154863582211,0.20000347025510778,0.05291989813161946,0.22234632364510365,-1.660738452010868,-4.447807623876886,-0.96863722656553,4.845544648612101,-0.0001891597248529829,-0.001048500068331971,-0.011929246872523018,0.011976730135575353,1.4275037037420133,-0.2396153180811085,-0.10100882467255644,0.0,0.20125856660572852,-1.9281491325049358,0.01522179091617385,-0.0026763345675550453,-0.0007366844620103529,0.015221790916173816,-0.2039349011732834,1.9274124480429258,1.9382311244291988,0.0,11.531266457360815,-110.47480756434375,0.8721443761273362,-0.1533426752858744,-0.04220891050605885,0.8721443761273343,-11.68460913264668,110.43259865383772,111.05246315068901
8,0.04159832000732422,1775788768.5235662,0.087284665,-19.399979470086382,0.6971093092861552,0.7423173322320615,-19.310002458080888,0.9199863718855711,0.8001099960804471,0.08997701200549457,0.22287706259941586,0.05779266384838555,0.24720444922588536,-1.70540075590182,-4.645814121705371,-0.9833160086868462,5.045680426325807,-0.0003337368121683781,-0.0018754053368558415,-0.017755112521837615,0.017857002718833264,1.839534821906012,-0.30121117080222587,-0.15904714737581707,0.0,0.19613789288546696,-1.922608324545829,0.023382206666574815,-0.004021485389758789,-0.001407025949236513,0.023382206666574756,-0.20015937827522556,1.9212012985965927,1.9317414252506357,0.0,11.237873464926272,-110.15734265319443,1.3397017576973942,-0.23041414020670148,-0.08061664855664061,1.3397017576973909,-11.468287605132964,110.0767260046378,110.68063077744782
9,0.04659581184387207,1775788768.5285637,0.092282036,-19.408686673847896,0.673304507159099,0.7373174174672263,-19.310004624578163,0.9199741029711085,0.8000071895004243,0.09868204926973334,0.24666959581200953,0.06268977203319792,0.27297260643461746,-1.7434595991391961,-4.83507237011205,-0.9935815777993127,5.234957549951455,-0.0005451548718929031,-0.0031084715121924974,-0.023302715308529218,0.02351544874602275,2.268652407740058,-0.3491021964645997,-0.2301055794550283,0.0,0.19095583943772843,-1.9168706135838647,0.033652812916262764,-0.005623836863039805,-0.002421049831508313,0.033652812916262764,-0.1965796763007681,1.9144495637523562,1.9248099160964645,0.0,10.940963673159638,-109.82859603100793,1.9281641488452004,-0.3222221169222732,-0.1387159373362854,1.9281641488452004,-11.263185790081904,109.68988009367165,110.28348455725751
10,0.051636457443237305,1775788768.5336044,0.097322783,-19.41764667122245,0.6483498843417396,0.7321196824152831,-19.310008046472213,0.9199544138576645,0.7998782177650693,0.107638624750237,0.27160452951592495,0.06775853534978615,0.29991050849284606,-1.7752436537502798,-5.0174561398378525,-0.9988187931513485,5.415163444156559,-0.0008392357841861446,-0.004869378091595044,-0.028029257169835044,0.028461454938093267,2.704081076044992,-0.3869576621404228,-0.312647348773809,0.0,0.1855107085236217,-1.9108644143393472,0.046093260872868864,-0.0074118896404826344,-0.003845182149492046,0.046093260872869024,-0.1929225981641043,1.907019232189855,1.9173069836419694,0.0,10.62898065288511,-109.48446616338242,2.640949312010879,-0.42466999461639204,-0.2203127086249362,2.6409493120108882,-11.053650647501499,109.26415345475748,109.85359819364321
11,0.056598663330078125,1775788768.5385666,0.102284984,-19.42660629429946,0.6229131410391471,0.7271003662350208,-19.31001318653916,0.91992426838834,0.7997295437885324,0.11659310776030196,0.2970111273491929,0.07262917755351161,0.3272377728480369,-1.8000676262694522,-5.188725545994604,-1.0001672186353059,5.582423373055202,-0.0012348982425424257,-0.007313981100664864,-0.031191862352691835,0.03206168383350431,3.135799204195787,-0.4180346346221579,-0.40635301801220663,0.0,0.18013625658041782,-1.9047237731611422,0.060712755588186736,-0.009327763844535188,-0.005743339471529225,0.060712755588186784,-0.18946402042495292,1.898980433689613,1.9093740705431947,0.0,10.321047239343644,-109.13263334036704,3.478584657812404,-0.5344415005865892,-0.3290691120295212,3.4785846578124064,-10.855488739930228,108.8035642283375,109.39907575383938
12,0.06159329414367676,1775788768.5435612,0.107279506,-19.435732506778507,0.5964732691699642,0.7220524353837023,-19.310020579876873,0.9198799604094257,0.7995679189959692,0.12571192690163357,0.3234066912394614,0.0775154836122669,0.35553343964164835,-1.818569724223096,-5.352784729016225,-0.9971762864331908,5.7405453350073685,-0.0017399875500948066,-0.010539067791781456,-0.03347753238917954,0.03514035687728307,3.598362307229764,-0.4449199569840252,-0.5077986714576959,0.0,0.1745932527930124,-1.898304208735996,0.07752890853819391,-0.0113232719596443,-0.00817033560079209,0.07752890853819405,-0.18591652475265663,1.8901338731352038,1.900837116695777,0.0,10.003456516500284,-108.76481939249383,4.4420792494942845,-0.6487756935664475,-0.46812574713087063,4.442079249494292,-10.652232210066726,108.29669364536295,108.90994432848437
13,0.06659054756164551,1775788768.5485585,0.112276882,-19.44494015874138,0.5692190741636748,0.7170274782791743,-19.31003076551541,0.9198175083223736,0.7993942735182122,0.13490939322597129,0.35059843415869885,0.0823667952390379,0.38458301493056196,-1.830572207699799,-5.508577695958928,-0.9898176500784757,5.888561948423908,-0.0023527895516946484,-0.01458801057413999,-0.03603573453466064,0.038947655059558044,4.1672991597293905,-0.4698433841442834,-0.6128002381660138,0.0,0.1688933766753501,-1.8916283375169807,0.09693971677955954,-0.013357713758861436,-0.011159074175364906,0.09693971677955959,-0.18225109043421162,1.8804692633416158,1.8917656881935245,0.0,9.67687767121082,-108.3823201470714,5.55423663866229,-0.765340622326591,-0.6393678535218387,5.554236638662293,-10.442218293537415,107.74295229354956,108.39018976115062
14,0.07159280776977539,1775788768.5535607,0.11727913,-19.454200550050377,0.5411795528606272,0.7120453853939555,-19.310044302723302,0.9197324935652998,0.7992071585654098,0.144156247327075,0.3785529407046726,0.08716177317145435,0.4143434894649272,-1.8360648198655123,-5.656147962833809,-0.9780782089940208,6.0265894818815875,-0.0030830926015604993,-0.019592947584552812,-0.03880847649034246,0.043583103406507145,4.818989045874114,-0.4947847393386764,-0.7206212004049749,0.0,0.1630148464680507,-1.884679063285788,0.11942867549136868,-0.015394905902442167,-0.014732082816494027,0.11942867549136871,-0.17840975237049284,1.8699469804692939,1.882231377391407,0.0,9.3400627005924,-107.98415606294503,6.842759058492918,-0.882063134210976,-0.8440861688223106,6.84275905849292,-10.222125834803373,107.14006989412272,107.8439139916233
15,0.0766000747680664,1775788768.558568,0.122286357,-19.46348132072904,0.5123938380880289,0.7071281128121454,-19.31006181576769,0.9196197010697339,0.7990061426224718,0.15341950496135226,0.40722586298170504,0.09187802981032644,0.44476063263918497,-1.835028404143912,-5.795473935708888,-0.9619447860996886,6.154688063175939,-0.003944910548485523,-0.02572385097702853,-0.04161721611804124,0.04908433055201706,5.526698904546809,-0.5214904559702,-0.8311018101741741,0.0,0.1569380713809661,-1.8774404958476265,0.14534291852073944,-0.017400318354674583,-0.018911740524099493,0.14534291852073933,-0.17433838973564075,1.858528755323527,1.8723374622284736,0.0,8.991889135052208,-107.56941669901755,8.327535813352176,-0.9969648039068743,-1.0835629152774284,8.327535813352169,-9.988853938959087,106.48585378374013,107.27703440992673
16,0.08159756660461426,1775788768.5635655,0.12728384,-19.472722557647568,0.4829894684599649,0.7023118880528669,-19.310083998931074,0.9194730631369011,0.798791095341347,0.16263855871649469,0.43648359467693626,0.09647920728848003,0.47568631117837745,-1.827475331031714,-5.9261579195466245,-0.9414710717351117,6.272589700582105,-0.004956589138480457,-0.03318141146159679,-0.04429790976674497,0.0555686840961181,6.266437761610159,-0.5515069086670605,-0.944261738239697,0.0,0.15066221930202547,-1.8699182298915837,0.17490660435832953,-0.019339411050998588,-0.023719410869791086,0.1749066043583296,-0.17000163035302407,1.8461988190217928,1.8622413790720873,0.0,8.632309298080507,-107.13842260736136,10.021410238696772,-1.1080666314908827,-1.3590221353757583,10.021410238696777,-9.74037592957139,105.77940047198561,106.69857145545267
17,0.08595633506774902,1775788768.5679243,0.131642677,-19.480739851036738,0.4568251621285922,0.6982028361399,-19.31010566084049,0.9193264746496885,0.7986103303478423,0.17063419019624604,0.46250131252109633,0.10040749420794237,0.5030955732669325,-1.815570338963113,-6.033313389696872,-0.9200478676259978,6.367389904249726,-0.005894253439695379,-0.040291014163123286,-0.04603987967057622,0.0614636361272704,6.865145179104096,-0.5788414567268798,-1.037371825875939,0.0,0.14500130614334483,-1.863100846092664,0.20125632710688962,-0.02081821752536757,-0.02803513995176214,0.20125632710688945,-0.16581952366871233,1.8350657061409015,1.8535011112714983,0.0,8.307962865898034,-106.74781528836239,11.531138143529121,-1.1927960011888465,-1.606295197294569,11.53113814352911,-9.500758867086878,105.1415200910678,106.19779099866483
18,0.09158825874328613,1775788768.5735562,0.137274467,-19.49100257476033,0.4223527729606903,0.693044856200332,-19.310145811631557,0.9190476795914314,0.7983272888202151,0.18085676312877297,0.4966949066307411,0.10528243261988313,0.5389799529302532,-1.7928528995065032,-6.1623424422094075,-0.8874486098887941,6.4789158760951535,-0.007541315112783341,-0.05310007244427328,-0.04819896001743396,0.07210845216740935,7.7516426982012945,-0.6281142153796853,-1.180618626476743,0.0,0.13740684247680646,-1.8539177650487773,0.2452801774600698,-0.022870827015145027,-0.03532283834149659,0.24528017746006991,-0.16027766949195144,1.8185949267072807,1.8420474489648944,0.0,7.872832150139938,-106.2216635016211,14.053518966681864,-1.3104018619415962,-2.023849557390639,14.053518966681871,-9.183234012081531,104.19781394423046,105.54154448852834
19,0.09659481048583984,1775788768.5785627,0.142281191,-19.50000071443666,0.3911195255763914,0.6886256564695785,-19.31018748665698,0.9187508039286874,0.798082737842056,0.18981322777968046,0.527631278352296,0.10945708137247745,0.5713183700865919,-1.7657123895310713,-6.2681330854532185,-0.8538102752199185,6.567817339540429,-0.009170693401007086,-0.06600849637006298,-0.04957204554817254,0.08305787687102281,8.458773217820408,-0.6840413170535132,-1.3029945305425155,0.0,0.13036806157600248,-1.8453776828412336,0.2859840739358487,-0.02439692661502984,-0.04217336968081847,0.28598407393584857,-0.15476498819103224,1.803204313160415,1.8322895205493697,0.0,7.469539711606577,-105.73235283443408,16.38568044448142,-1.3978409281315995,-2.4163560905558863,16.385680444481412,-8.867380639738172,103.31599674387819,104.98245637352801
20,0.10159444808959961,1775788768.5835624,0.147280687,-19.50896564141376,0.35850806398931806,0.6833761199454987,-19.310237993045135,0.9183836654307479,0.7978324690097048,0.19872764836862444,0.5598756014414299,0.1144563490642061,0.6050236550389033,-1.7289741905453413,-6.343779688355581,-0.7912517213330005,6.622610646299327,-0.01109271777603002,-0.08133508254980391,-0.050225713778899915,0.09623443440703565,9.098760052596964,-0.7583973329982571,-1.428293546681909,0.0,0.11976340706996354,-1.8368799989729212,0.3301232714902681,-0.025759489334488413,-0.04977164548415037,0.330123271490268,-0.14552289640445215,1.7871083534887706,1.8231605949193623,0.0,6.8619377652161555,-105.24547141314338,18.914670175443817,-1.4759100212784437,-2.851705225663179,18.91467017544381,-8.337847786494612,102.39376618748018,104.45940746343977
21,0.10659289360046387,1775788768.5885608,0.152279292,-19.517597209008017,0.3264622097849127,0.6794675343422385,-19.310299117273743,0.9179319773000831,0.7975843024177226,0.20729809173427327,0.5914697675151704,0.1181167680754841,0.637777826222987,-1.6889142597690041,-6.433157416202529,-0.7496411277652302,6.693273305261769,-0.013431489297470959,-0.09990136888564703,-0.048725187566071575,0.11195906534677331,9.56850359018996,-0.8378243820245734,-1.5623198796867976,0.0,0.11223466209630359,-1.8275352597288355,0.37708995906942316,-0.026912274038719743,-0.05816601469427575,0.3770899590694232,-0.1391469361350235,1.76936924503456,1.8144492917524349,0.0,6.430572453195109,-104.710057293807,21.605663151438907,-1.5419597195181358,-3.3326671530779297,21.60566315143891,-7.972532172713254,101.37739014072908,103.9602865579159
22,0.11159253120422363,1775788768.5935605,0.157278821,-19.52601385142929,0.2939839817462109,0.6757767188593795,-19.310373086320645,0.9173790210040652,0.7973475705772936,0.21564076510864538,0.6233950392578543,0.12157085171791404,0.6707471852608572,-1.642357338746426,-6.514375297885746,-0.7038461790082721,6.754985018010238,-0.01623700467062599,-0.12184072175995246,-0.045812106765422606,0.13117755496252614,9.848624508829742,-0.9217633473414851,-1.7037322512334696,0.0,0.10438602610086155,-1.8177625085420335,0.4259660024974845,-0.027767153368982098,-0.06740066211379715,0.42596600249748473,-0.13215317946984362,1.7503618464282358,1.8062884851427632,0.0,5.98087873572182,-104.15011989657177,24.406054159164945,-1.5909406971351392,-3.8617734755078827,24.40605415916496,-7.571819432856957,100.28834642106386,103.49270678175924
23,0.1165916919708252,1775788768.5985596,0.162277969,-19.534180895116783,0.26112266154957886,0.6723255515621931,-19.310462320009055,0.9167081012636015,0.7971269334363861,0.2237185751077284,0.6555854397140226,0.12480138187419298,0.7038591155415754,-1.5893145227201098,-6.587410801478097,-0.6538781482235193,6.807896764220472,-0.019541703758426333,-0.1470557287544116,-0.042445973555379116,0.15430141352669818,9.93527204272044,-1.0103265666370735,-1.850344172438437,0.0,0.09619530204095235,-1.8075374777348179,0.4757894992645986,-0.02823876398478389,-0.07750359851724187,0.4757894992645988,-0.12443406602573637,1.7300338792175758,1.7985763001993462,0.0,5.511584815932764,-103.56426878592707,27.260730244504288,-1.6179619949941477,-4.440629092114344,27.260730244504295,-7.129546810926919,99.12363969381272,103.05083113367711
24,0.1215980052947998,1775788768.603566,0.167284228,-19.542077550752108,0.22786920257955953,0.6691302774540864,-19.31056936850303,0.9159034400098643,0.7969223383046049,0.2315081822490761,0.6880342374303048,0.12779206085051853,0.7371010521909429,-1.52969320832348,-6.6523568638725,-0.5996537127257565,6.852254937689368,-0.023364969188615234,-0.1752798927488323,-0.039540015517791974,0.18119706237788272,9.829072776653119,-1.1029607524431795,-1.9999874394464705,0.0,0.08762396596729947,-1.796814905952768,0.5255908911093883,-0.028247745563295137,-0.08848599261071785,0.5255908911093883,-0.11587171153059472,1.7083289133420507,1.7911057239902455,0.0,5.02048343412422,-102.94991067728955,30.11413981108797,-1.6184766015362075,-5.069873922619921,30.11413981108797,-6.638960035660434,97.88003675466966,102.62279864636479
25,0.1266024112701416,1775788768.6085703,0.172288639,-19.54965670042529,0.19432356905249157,0.6662179696004566,-19.31069684010766,0.914950984107867,0.7967293878392256,0.23895986031763172,0.7206274150553754,0.130511418238769,0.7703498662705857,-1.4635898354741002,-6.709084338459548,-0.5412633096829436,6.888169120853177,-0.02770980778590331,-0.20609040544387627,-0.037917431262096984,0.21137365081075946,9.535355682935085,-1.1985072638923389,-2.1505612762291966,0.0,0.07865978152186998,-1.7855817938637804,0.5744103683873795,-0.027723483746957163,-0.10034251193995464,0.5744103683873796,-0.10638326526882702,1.6852392819238258,1.7836188235660988,0.0,4.506873498624289,-102.30630076379317,32.91128981715168,-1.588438612100179,-5.749202439900471,32.91128981715169,-6.095312110724461,96.5570983238927,102.19383085042648
26,0.1315934658050537,1775788768.6135614,0.177279725,-19.55687000328112,0.1606048838460764,0.6636148716934704,-19.310847308329752,0.9138391551177837,0.7965398300698555,0.24602269495136753,0.7532342712717073,0.13292495837638507,0.8034662895285136,-1.3911855558101045,-6.757500360585858,-0.4788598696098547,6.915816303859975,-0.03255923104034378,-0.23892786438030092,-0.038287855799720535,0.24415689178274316,9.062584155289358,-1.2948798022005965,-2.3000220872705017,0.0,0.06929671258349514,-1.7738323846002466,0.6213238577290711,-0.02660700313025713,-0.11305200529250926,0.6213238577290712,-0.09590371571375211,1.6607803793077371,1.7757906203053868,0.0,3.970409165165375,-101.63310920122078,35.59923475866258,-1.5244689848551036,-6.477402768751427,35.59923475866259,-5.49487815002047,95.15570643246933,101.74530784241713
27,0.13664674758911133,1775788768.6186147,0.182333043,-19.56378850153152,0.12624047768701788,0.6613072990237945,-19.311023224303806,0.9125593280501153,0.7963423581183151,0.2527652772277129,0.7863188503630975,0.13503505909452063,0.8369122337455741,-1.3112887326660612,-6.798217482121509,-0.4114372078558528,6.935742184557302,-0.03788379272618782,-0.2731946871788555,-0.04113858856408193,0.2788600048825903,8.423013713443792,-1.3826431049051957,-2.446161826714181,0.0,0.059356142263107016,-1.7613433380412362,0.6654521553206346,-0.024840856023765002,-0.1265681951649916,0.6654521553206347,-0.08419699828687222,1.6347751428762445,1.7670329576177812,0.0,3.400856439854127,-100.91753954324709,38.127599967756495,-1.4232762096538625,-7.25182340354213,38.1275999677565,-4.824132649508001,93.66571613970495,101.24353073201813
28,0.14159607887268066,1775788768.623564,0.187282452,-19.570157344124436,0.0924034175865692,0.6593877560622792,-19.311226879256456,0.9111057524186462,0.7961239163629581,0.25893046486798,0.818702334832077,0.13673616030067892,0.8694913893938315,-1.2266073115863037,-6.829999238050769,-0.3412642345151958,6.947655458236995,-0.04364760392798313,-0.30833500289796095,-0.0467019703791068,0.31489150731328186,7.630924992379593,-1.4570041766895652,-2.586444391316152,0.0,0.04913911093328183,-1.7484932027849172,0.7059847140896329,-0.02236411805534235,-0.14080911973627244,0.7059847140896327,-0.07150322898862438,1.6076840830486443,1.7573204713915958,0.0,2.8154636655022083,-100.18128102688775,40.44994451808607,-1.2813695771034388,-8.067768277840674,40.449944518086056,-4.096833242605658,92.11351274904705,100.68704626267876
29,0.1465930938720703,1775788768.628561,0.19227927,-19.576145958133722,0.058102920146124525,0.6578124896588178,-19.31146035253131,0.9094754096537556,0.7958706806432899,0.2646856056024127,0.8513724895076311,0.13805819098447214,0.9021937983612183,-1.1346623583222033,-6.8539559143441515,-0.266266367443141,6.95234263551487,-0.049802437732689844,-0.3438183082002417,-0.055055482276057804,0.3517419764350626,6.703420249024204,-1.5139961145368543,-2.7183771683137605,0.0,0.03830816712707211,-1.734856895132765,0.7421816707470015,-0.01913849833196497,-0.15567307352037146,0.7421816707470015,-0.05744666545903687,1.5791838216123937,1.7458394239469728,0.0,2.194896297263032,-99.39997815027748,42.523877365771256,-1.0965551806397587,-8.919410096547058,42.523877365771256,-3.2914514779027786,90.48056805373044,100.0292306997124
30,0.1515970230102539,1775788768.633565,0.197283308,-19.581695798076538,0.023428196747347613,0.6566180694335942,-19.311725456435695,0.9076678117531083,0.7955687817991844,0.26997034164084255,0.8842396150057606,0.1389507123655902,0.9349176341144251,-1.0752968769665403,-6.839950923835257,-0.22037051221064252,6.927463834387067,-0.056288851164842585,-0.3791593976509662,-0.06615231726398106,0.3889812497690547,5.6582615016423,-1.549449008539554,-2.8394957195678154,0.0,0.03181650625464656,-1.72672836765566,0.77339611044117,-0.015146887778215596,-0.17103893033097092,0.77339611044117,-0.046963394032862205,1.5556894373246895,1.7379633855257783,0.0,1.822951527242834,-98.93424783218325,44.31233302011274,-0.8678527424500422,-9.799808840396759,44.31233302011274,-2.690804269692879,89.13443899178651,99.57796693889509
31,0.15659642219543457,1775788768.6385643,0.202282753,-19.58668742144369,-0.010932260750051007,0.6558359016086535,-19.312023683680156,0.9056847430438791,0.7952048401980771,0.27466373776353237,0.9166170037939302,0.13936893858942367,0.9669801453649081,-1.028967126293684,-6.854321625165884,-0.18244370902156656,6.933526086716002,-0.06304060712372987,-0.41394617986765814,-0.07983762703233105,0.4262623659950637,4.51466659882735,-1.560195644784047,-2.94747050392899,0.0,0.026316302403493835,-1.719803112963112,0.7990663011014,-0.01039596758828506,-0.1867718140013526,0.7990663011014001,-0.03671226999177879,1.5330312989617596,1.7291731283825234,0.0,1.5078130601101811,-98.53745996624707,45.78312660424007,-0.595645066763531,-10.70123667427992,45.78312660424007,-2.103458126873706,87.83622329196717,99.07432230375186
32,0.1615912914276123,1775788768.6435592,0.207277483,-19.591139289179193,-0.04531814701493544,0.6554805597030426,-19.31235618358699,0.903529850228783,0.7947664578616355,0.2787831055922041,0.9488479972437184,0.13928589815859282,0.9987157269528177,-0.9805464731379785,-6.866155405562562,-0.1431563037836314,6.9372945134708175,-0.06998591404540448,-0.44784026850412534,-0.09588513811569634,0.46330647952525333,3.2906736567170887,-1.544212987905119,-3.0401971802916785,0.0,0.02063721896169695,-1.7126458707765784,0.8187332776194436,-0.004917267919569639,-0.20273000982443218,0.8187332776194438,-0.02555448688126649,1.5099158609521464,1.7177960061765494,0.0,1.1824255473925902,-98.12738019600572,46.909961354506855,-0.28173869852641503,-11.615573943585678,46.90996135450687,-1.4641642459189996,86.51180625242004,98.42246121834498
33,0.16659021377563477,1775788768.6485581,0.212276527,-19.595027482563662,-0.07975375006646926,0.6555723033822086,-19.312723738710016,0.901208280920338,0.7942424953449582,0.282303743853646,0.9809620309868072,0.13867019196274954,1.03015112103542,-0.9299476443235176,-6.875473960934198,-0.10243744462795933,6.938835510280451,-0.07704732983418826,-0.48056611551596523,-0.11403371951234255,0.49988375809032026,2.001926175500328,-1.500290407760306,-3.1158727924528313,0.0,0.01476345213451212,-1.7052362553353615,0.8320196503735886,0.001235363569941677,-0.2187714148589627,0.8320196503735886,-0.013528088564570329,1.4864648404763985,1.703530871384644,0.0,0.845883498350951,-97.70284050340902,47.67121443835698,0.07078111872187258,-12.53467874952419,47.67121443835698,-0.7751023796290719,85.16816175388482,97.60512920058356
34,0.17158794403076172,1775788768.6535559,0.217274192,-19.595773728920364,-0.08703248387375663,0.6556509881041519,-19.313126674480188,0.8987266816625391,0.793622910885107,0.2826470544401758,0.9857591655362957,0.13797192278095505,1.034720610260758,-0.8772263811769196,-6.882264454948752,-0.06033227209737605,6.938207991602747,-0.08412605922575694,-0.5118286530493991,-0.13407981601870236,0.5357454255398051,0.6584285228203342,-1.42916529064672,-3.1726414463909207,0.0,0.008695765899218316,-1.6975745894267267,0.8386121226261396,0.007986714969675922,-0.23475965305151453,0.8386121226261398,-0.0007090509295424319,1.4628149363752119,1.686148965261123,0.0,0.49823068565899264,-97.26385938280498,48.04893527498525,0.45760505993638556,-13.45073731980728,48.04893527498526,-0.04062562572260925,83.81312206299769,96.60921933981321
35,0.1766338348388672,1775788768.6586018,0.222320024,-19.595773728920364,-0.08703248387375663,0.6556509881041519,-19.31356501509647,0.8960921674038446,0.7928994967907222,0.2822087138238949,0.9831246512776012,0.13724850868657035,1.031994666286861,-0.8218299178146562,-6.886558629755602,-0.016403674863618822,6.93544254214723,-0.09121339614216527,-0.5417832233987702,-0.1554520794647883,0.5709766140588213,-0.6765100029215023,-1.3329411764562455,-3.210409518063458,0.0,0.0023651973263520225,-1.6895728546973934,0.8383635369366715,0.01524476656167931,-0.25057324829068806,0.8383635369366713,0.012879569235327182,1.4389996064067052,1.6654546438157076,0.0,0.1355158245155973,-96.80539375403093,48.03469236413138,0.8734607836463879,-14.356789585940096,48.03469236413137,0.7379449591307845,82.44860416809082,95.42352206110384
36,0.1815941333770752,1775788768.663562,0.227280416,-19.595773728920364,-0.08703248387375663,0.6556509881041519,-19.314038847946794,0.8933105935756083,0.7920672001037617,0.2817348809735698,0.9803430774493649,0.13641621199960985,1.0291046961103645,-0.7652489939352959,-6.888271050857784,0.02816953183026387,6.930705419748262,-0.09832361482145237,-0.5706878672039069,-0.17754316372784051,0.6057010401112022,-1.9310980299673968,-1.2157035160462097,-3.2296283305575457,0.0,-0.004064464969131948,-1.6814371344800474,0.8315031334150327,0.022911215235249895,-0.2661128158741737,0.8315031334150325,0.026975680204381902,1.4153243186058742,1.6417271621797236,0.0,-0.23287668871003103,-96.33925132227775,47.64162019658479,1.3127159364956504,-15.247141223932129,47.641620196584775,1.5455926252056849,81.09211009834564,94.06403750488779
37,0.1865997314453125,1775788768.6685677,0.232286023,-19.595773728920364,-0.08703248387375663,0.6556509881041519,-19.314548271955577,0.89038678135551,0.7911236372823316,0.28122545696478696,0.9774192652292666,0.1354726491781797,1.026055074721492,-0.706019109483546,-6.887477347525562,0.07454449911492109,6.923970253978709,-0.10544522698578465,-0.5986931024758017,-0.1998961329905368,0.639930145274275,-3.049610005183684,-1.08292516446661,-3.2306003146241338,0.0,-0.010766357527660463,-1.6729471785565673,0.8185760444432623,0.030885477593893394,-0.28130385054948454,0.8185760444432622,0.041651835121554015,1.391643328007083,1.6150767066278926,0.0,-0.616866847063848,-95.85281267961024,46.900952557112234,1.7696075143759602,-16.11752339726433,46.90095255711223,2.3864743614398174,79.73528928234593,92.53707887966688
38,0.19159340858459473,1775788768.6735613,0.237279721,-19.595773728920364,-0.08703248387375663,0.6556509881041519,-19.315093252904223,0.8873250879407015,0.7900683207748991,0.28068047601614055,0.9743575718144581,0.13441733267074718,1.022850050931774,0.0,0.0,0.0,0.0,-0.1125358692354065,-0.6258335451929979,-0.22221111955615477,0.6735797872619134,-3.984344395822316,-0.9410217100711845,-3.2134440935625004,0.0,-0.010766357527660463,-1.6729471785565673,0.8003874252780102,0.03906795355463689,-0.2960939189899594,0.8003874252780103,0.04983431108229741,1.3768532595666079,1.5933701351171994,0.0,-0.616866847063848,-95.85281267961024,45.85882144377253,2.238428852893816,-16.964931897613173,45.858821443772534,2.8552956999576673,78.88788078199707,91.29338394440525
39,0.19659185409545898,1775788768.6785598,0.242278229,-19.595773728920364,-0.08703248387375663,0.6556509881041519,-19.315673479365095,0.8841299290812598,0.7889019070263101,0.280100249555268,0.9711624129550164,0.13325091892215823,1.019494183176703,0.0,0.0,0.0,0.0,-0.1195451853785401,-0.6521194356717042,-0.24426304336105228,0.7065516570499107,-4.702672604059211,-0.7969073496879836,-3.178421414433814,0.0,-0.010766357527660463,-1.6729471785565673,0.7779658091848078,0.047360009990833084,-0.3104503019830871,0.7779658091848081,0.05812636751849354,1.3624968765734806,1.570034144066287,0.0,-0.616866847063848,-95.85281267961024,44.574157471769425,2.7135286901721485,-17.787492052192782,44.57415747176944,3.330395537235996,78.06532062741749,89.9563301464329
40,0.20159411430358887,1775788768.683562,0.247280295,-19.595773728920364,-0.08703248387375663,0.6556509881041519,-19.316288672597953,0.8808046053704586,0.7876271604876727,0.27948505632241094,0.9678370892442152,0.13197617238352077,1.015991258870499,0.0,0.0,0.0,0.0,-0.12653339126615334,-0.6779710082329942,-0.26543938517792426,0.7389948946463775,-5.24504162691974,-0.6570196460731044,-3.1275762754268985,0.0,-0.010766357527660463,-1.6729471785565673,0.7523174690367161,0.05566860536451491,-0.3243581421411213,0.7523174690367163,0.06643496289217543,1.3485890364154463,1.5456673534924121,0.0,-0.616866847063848,-95.85281267961024,43.10461582976782,3.189576138766038,-18.5843525953907,43.10461582976783,3.8064429858298894,77.26846008421956,88.56021588627073
41,0.20659136772155762,1775788768.6885593,0.252277764,-19.595773728920364,-0.08703248387375663,0.6556509881041519,-19.31693884785201,0.8773503767878273,0.7862498877066701,0.2788348810683523,0.964382860661584,0.13059889960251825,1.0123434523004586,0.0,0.0,0.0,0.0,-0.13354080858067158,-0.7037223168601406,-0.2851961551789196,0.7709702288235403,-5.655332908430526,-0.5265272009242595,-3.0629402549893383,0.0,-0.010766357527660463,-1.6729471785565673,0.7242148697349117,0.06390658893239383,-0.3378198987624143,0.7242148697349116,0.0746729464600544,1.3351272797941531,1.5207327443468548,0.0,-0.616866847063848,-95.85281267961024,41.494455496427136,3.661577828903624,-19.355654434623084,41.49445549642713,4.278444675967478,76.49715824498718,87.13156801842199
42,0.2115921974182129,1775788768.6935601,0.257278454,-19.595773728920364,-0.08703248387375663,0.6556509881041519,-19.317624114058656,0.8737672349663331,0.784778255779492,0.2781496148617073,0.9607997188400897,0.1291272676753401,1.0085520111666084,0.0,0.0,0.0,0.0,-0.14056824758022513,-0.7295622450003555,-0.303117459753122,0.8024342315510472,-5.9663487850600045,-0.4104636389571699,-2.9860943665609594,0.0,-0.010766357527660463,-1.6729471785565673,0.69424039785203,0.07198954988322102,-0.35084916799493815,0.6942403978520302,0.08275590741088168,1.3220980105616293,1.4955806296392589,0.0,-0.616866847063848,-95.85281267961024,39.77704476440446,4.124697377355073,-20.102176571786355,39.77704476440447,4.741564224418932,75.7506361078239,85.69045799984781
43,0.21659493446350098,1775788768.6985629,0.26228126,-19.595773728920364,-0.08703248387375663,0.6556509881041519,-19.318344515255564,0.8700544627204954,0.7832223099710055,0.27742921366479933,0.957086946594252,0.1275713218668536,1.0046177552176916,0.0,0.0,0.0,0.0,-0.14758544515898905,-0.7555729604173724,-0.3188854897135501,0.8332826157352017,-6.2026796461854286,-0.3137854735177738,-2.8982797195593544,0.0,-0.010766357527660463,-1.6729471785565673,0.6628337101685005,0.0798253354475499,-0.36347131721283743,0.6628337101685005,0.09059169297521041,1.3094758613437296,1.4704701335334074,0.0,-0.616866847063848,-95.85281267961024,37.977574111652714,4.573654819360653,-20.825372450356337,37.977574111652714,5.190521666424504,75.0274402292539,84.25173255150283
44,0.22160100936889648,1775788768.703569,0.26728734,-19.595773728920364,-0.08703248387375663,0.6556509881041519,-19.319099834596404,0.8662113177822608,0.7815932516853783,0.2766738943239595,0.9532438016560174,0.1259422635812264,1.0005416747702043,0.0,0.0,0.0,0.0,-0.1545217102236473,-0.7816940752094803,-0.3323460929508635,0.863351904872949,-6.382785027441956,-0.23832374533914716,-2.80076306526775,0.0,-0.010766357527660463,-1.6729471785565673,0.6303277114235324,0.08731921442236189,-0.3757137390448295,0.6303277114235324,0.09808557195002221,1.2972334395117375,1.4455962091125736,0.0,-0.616866847063848,-95.85281267961024,36.11511757470849,5.003022456799204,-21.526811552348303,36.11511757470849,5.619889303863045,74.32600112726193,82.82656166226167
45,0.22576689720153809,1775788768.7077348,0.271453242,-19.595773728920364,-0.08703248387375663,0.6556509881041519,-19.31972882912439,0.8630427379045086,0.7802452363147789,0.27604489979597346,0.9500752217782652,0.12459424821062703,0.9971797432898245,0.0,0.0,0.0,0.0,-0.159953591569409,-0.8025883285496896,-0.34140702041085536,0.8867310359776273,-6.495835537101248,-0.19383588168645088,-2.716535509808805,0.0,-0.010766357527660463,-1.6729471785565673,0.6037036167235172,0.09300482306605934,-0.3852505877417743,0.603703616723517,0.10377118059371959,1.287696590814793,1.4259695034477105,0.0,-0.616866847063848,-95.85281267961024,34.589669315041,5.328783836046169,-22.073232732538074,34.589669315040986,5.945650683110005,73.77957994707216,81.70203426191951
46,0.23154640197753906,1775788768.7135143,0.277232656,-19.595773728920364,-0.08703248387375663,0.6556509881041519,-19.32071228068885,0.8581336039172338,0.7781628520352348,0.275061448231515,0.9451660877909904,0.12251186393108293,0.9919712146111966,0.0,0.0,0.0,0.0,-0.16779010981251005,-0.8337286748332846,-0.35215886807388536,0.9204742758780602,-6.626398746976192,-0.1539175295309215,-2.581098602529421,0.0,-0.010766357527660463,-1.6729471785565673,0.5629705060302665,0.10090751192237962,-0.39914833110163606,0.5629705060302665,0.1116738694500401,1.2737988474549313,1.397129323847807,0.0,-0.616866847063848,-95.85281267961024,32.25583398587853,5.7815745543183885,-22.869514771814117,32.25583398587853,6.398441401382238,72.98329790779613,80.04961369044574
47,0.23665308952331543,1775788768.718621,0.282339376,-19.595773728920364,-0.08703248387375663,0.6556509881041519,-19.321566745156826,0.8539008651022607,0.7763850537481923,0.2742069837635377,0.9409333489760173,0.12073406564404043,0.9874825323856924,0.0,0.0,0.0,0.0,-0.17392701872757238,-0.8592900077914982,-0.35858467067032196,0.947213223816854,-6.708230396130085,-0.14451789213950753,-2.460957876585269,0.0,-0.010766357527660463,-1.6729471785565673,0.5284617569660524,0.10682268679168312,-0.4103665014377724,0.5284617569660526,0.11758904431934347,1.2625806771187946,1.373757248626313,0.0,-0.616866847063848,-95.85281267961024,30.27862830822303,6.120489109411327,-23.51226858593359,30.278628308223045,6.737355956475169,72.34054409367664,78.71049242179184
48,0.24159550666809082,1775788768.7235634,0.287281909,-19.595773728920364,-0.08703248387375663,0.6556509881041519,-19.322450786830185,0.8495416384432111,0.7745806575420707,0.2733229420901786,0.9365741223169677,0.11892966943791883,0.9828635630336706,0.0,0.0,0.0,0.0,-0.179605446268446,-0.8842891312441576,-0.3628230040090473,0.9725563820180216,-6.771973676700549,-0.15547335887861632,-2.3351544759958993,0.0,-0.010766357527660463,-1.6729471785565673,0.49356525643961807,0.11204240757479789,-0.42125306284500813,0.49356525643961824,0.1228087651024583,1.251694115711559,1.3510835704934165,0.0,-0.616866847063848,-95.85281267961024,28.279206108282292,6.419557080520525,-24.136022607978198,28.279206108282303,7.03642392758437,71.71679007163205,77.41138635873881
49,0.2480182647705078,1775788768.7299862,0.293704662,-19.595773728920364,-0.08703248387375663,0.6556509881041519,-19.3231776372216,0.845965393333496,0.7731250887244626,0.2725960916987624,0.9329978772072526,0.11747410062031072,0.9790780522508052,0.0,0.0,0.0,0.0,-0.1837579280226204,-0.9037429026411922,-0.3647536066170914,0.9917476512327467,-6.812993449039217,-0.1782517002127476,-2.23104221017646,0.0,-0.010766357527660463,-1.6729471785565673,0.46543094572338256,0.11566802556158155,-0.42971636189999884,0.4654309457233827,0.12643438308924182,1.2432308166565686,1.3335045863995663,0.0,-0.616866847063848,-95.85281267961024,26.667228844732314,6.627289689289947,-24.62093392458622,26.66722884473232,7.244156536353784,71.23187875502403,76.40418476203358
50,0.25153374671936035,1775788768.7335017,0.297220101,-19.595773728920364,-0.08703248387375663,0.6556509881041519,-19.323920330652935,0.8423124839914643,0.7716642277445331,0.27185339826742805,0.9293449678652209,0.11601323964038124,0.9752155716649595,0.0,0.0,0.0,0.0,-0.18752080007440405,-0.9226048257442951,-0.36548610012657984,1.0099226724521744,-6.84709420287392,-0.21233129900933134,-2.1242903214037723,0.0,-0.010766357527660463,-1.6729471785565673,0.4371454502122796,0.11876835160142363,-0.4379503199416134,0.4371454502122796,0.12953470912908394,1.234996858614954,1.3164697589763532,0.0,-0.616866847063848,-95.85281267961024,25.046589330509878,6.804925286487406,-25.09270496905854,25.046589330509878,7.421792133551245,70.76010771055171,75.42816104594976
51,0.2576756477355957,1775788768.7396436,0.303361907,-19.595773728920364,-0.08703248387375663,0.6556509881041519,-19.32467723767957,0.8385854749755401,0.7702026493601151,0.2710964912407938,0.9256179588492968,0.11455166125596317,0.9712795665532706,0.0,0.0,0.0,0.0,-0.1908594448458077,-0.9407769302672632,-0.3651314677102766,1.0270392148901646,-6.8756835921797075,-0.25668807409782274,-2.0153123922321536,0.0,-0.010766357527660463,-1.6729471785565673,0.4087410555881502,0.1213151231284183,-0.44594074874220224,0.4087410555881501,0.13208148065607883,1.2270064298143648,1.3000229024372651,0.0,-0.616866847063848,-95.85281267961024,23.41913739892318,6.950844546368288,-25.550522815832064,23.419137398923173,7.56771139343214,70.30228986377817,74.48582558000288
52,0.260784387588501,1775788768.7427523,0.306470778,-19.595773728920364,-0.08703248387375663,0.6556509881041519,-19.32544660137469,0.8347873148701627,0.7687444578393245,0.27032712754567356,0.9218197987439193,0.11309346973517265,0.9672738134262268,0.0,0.0,0.0,0.0,-0.19374476693862125,-0.9581650609417963,-0.36381454599546753,1.0430620032402604,-6.899879120638478,-0.3104880624129226,-1.9045202439614675,0.0,-0.010766357527660463,-1.6729471785565673,0.38024533603109206,0.12328472206503589,-0.45367021437309746,0.38024533603109223,0.13405107959269635,1.2192769641834698,1.2842089093686524,0.0,-0.616866847063848,-95.85281267961024,21.78645293411535,7.063694252769932,-25.993388574373782,21.786452934115356,7.680561099833779,69.85942410523646,73.57975051992223
53,0.26715970039367676,1775788768.7491276,0.312845918,-19.595773728920364,-0.08703248387375663,0.6556509881041519,-19.326422979137195,0.8299446438977968,0.766931876181212,0.2693507497831682,0.9169771277715534,0.11128088807706005,0.9621747841822409,0.0,0.0,0.0,0.0,-0.19667935376139828,-0.978662985904896,-0.36102527412763863,1.0615098947891275,-6.925103174783942,-0.3877394575793078,-1.764114307383127,0.0,-0.010766357527660463,-1.6729471785565673,0.3445333282442672,0.12490904826148837,-0.46293338288200464,0.3445333282442671,0.13567540578914894,1.2100137956745627,1.2654028669676247,0.0,-0.616866847063848,-95.85281267961024,19.74030560999195,7.1567612883791965,-26.524129034852656,19.740305609991946,7.773628135443051,69.32868364475759,72.50224366099927
54,0.2707505226135254,1775788768.7527184,0.316436803,-19.595773728920364,-0.08703248387375663,0.6556509881041519,-19.32741210759646,0.8250031723639396,0.765136004925046,0.26836162132390484,0.9120356562376962,0.10948501682089407,0.9569816962496156,0.0,0.0,0.0,0.0,-0.1988418907931012,-0.9976689860111562,-0.35715610265020276,1.078166028421869,-6.941157633285751,-0.4721789212111081,-1.6223573398059006,0.0,-0.010766357527660463,-1.6729471785565673,0.30876549110185225,0.12559349167535275,-0.47170776707745377,0.30876549110185225,0.13635984920301336,1.2012394114791132,1.247760498116815,0.0,-0.616866847063848,-95.85281267961024,17.69095949942031,7.195977007309152,-27.026864217078185,17.69095949942031,7.812843854373008,68.82594846253204,71.49141038523481
55,0.27575111389160156,1775788768.757719,0.321437417,-19.595773728920364,-0.08703248387375663,0.6556509881041519,-19.328410085956925,0.8199706124034725,0.763361795803797,0.2673636429634385,0.9070030962772291,0.10771080769964514,0.9517035002197225,0.0,0.0,0.0,0.0,-0.20021761197812632,-1.0150807362829215,-0.35239844667795583,1.0930053332623486,-6.9413823792043265,-0.5617150527849496,-1.4801304187801205,0.0,-0.010766357527660463,-1.6729471785565673,0.2730203187143479,0.1253452310079111,-0.4799414295443122,0.27302031871434806,0.13611158853557148,1.1930057490122552,1.2313931850310254,0.0,-0.616866847063848,-95.85281267961024,15.642911983648741,7.181752718845643,-27.498618326364443,15.64291198364875,7.798619565909488,68.3541943532458,70.55363242344981
56,0.28075194358825684,1775788768.7627199,0.326438322,-19.595773728920364,-0.08703248387375663,0.6556509881041519,-19.329412966325933,0.8148551678777688,0.7616131623038476,0.26636076259443087,0.9018876517515254,0.10596217419969567,0.9463494991771771,0.0,0.0,0.0,0.0,-0.20080323695156468,-1.030810227017324,-0.34695976966081393,1.106016611926249,-6.919305733776339,-0.654478026284857,-1.338291875407435,0.0,-0.010766357527660463,-1.6729471785565673,0.2374062798561256,0.12418458788364918,-0.4875834309535768,0.23740627985612583,0.1349509454113096,1.18536374760299,1.2164130521800298,0.0,-0.616866847063848,-95.85281267961024,13.60237786565769,7.115252766304558,-27.936472754148337,13.602377865657703,7.732119613368403,67.91633992546187,69.6953340345425
57,0.2859182357788086,1775788768.7678862,0.331604451,-19.595773728920364,-0.08703248387375663,0.6556509881041519,-19.330416816273136,0.8096654248798387,0.7598929882363282,0.2653569126472277,0.8966979087535953,0.10424200013217633,0.9409292349822574,0.0,0.0,0.0,0.0,-0.2006080272287086,-1.044792418928099,-0.341043854072055,1.1172044081718189,-6.867604653495086,-0.7487934029970985,-1.1976907201059042,0.0,-0.010766357527660463,-1.6729471785565673,0.2020640323258404,0.12214427921525962,-0.49458583118535215,0.20206403232584025,0.13291063674292003,1.1783613473712151,1.2029258395668838,0.0,-0.616866847063848,-95.85281267961024,11.57741624366569,6.998351690701879,-28.337680733890494,11.577416243665683,7.615218537765724,67.51513194571974,68.92257367441361
58,0.2918510437011719,1775788768.773819,0.337537371,-19.595773728920364,-0.08703248387375663,0.6556509881041519,-19.33121799932591,0.8054660675073472,0.7585386765655139,0.26455572959445206,0.8924985513811038,0.10288768846136198,0.9365518003375701,0.0,0.0,0.0,0.0,-0.19990370696879303,-1.0546944423750546,-0.3360899896522086,1.1248548084002281,-6.799418135727052,-0.8240937218907962,-1.086641845323864,0.0,-0.010766357527660463,-1.6729471785565673,0.1741037645026543,0.11990878399124605,-0.49969796081750295,0.1741037645026542,0.13067514151890647,1.1732492177390643,1.193273581518634,0.0,-0.616866847063848,-95.85281267961024,9.97541090334169,6.870267249244249,-28.6305841861365,9.975410903341682,7.487134096308094,67.22222849347374,68.36954002547772
59,0.29666686058044434,1775788768.7786348,0.342353142,-19.595773728920364,-0.08703248387375663,0.6556509881041519,-19.331617296606566,0.803352111470439,0.7578690106353498,0.26415643231379704,0.8903845953441956,0.10221802253119794,0.9343510434998128,0.0,0.0,0.0,0.0,-0.19937418185920602,-1.0592136141565724,-0.33357269151037766,1.1282527577312336,-6.754930612951456,-0.8613823199472853,-1.0317370778397887,0.0,-0.010766357527660463,-1.6729471785565673,0.16026426905414315,0.1185993434552089,-0.5020840291996509,0.16026426905414315,0.12936570098286948,1.1708631493569168,1.1888400376199675,0.0,-0.616866847063848,-95.85281267961024,9.182466223551488,6.795241833005972,-28.767295834063184,9.182466223551488,7.412108680069827,67.08551684554708,68.11551667179815
60,0.3007521629333496,1775788768.78272,0.346438497,-19.595773728920364,-0.08703248387375663,0.6556509881041519,-19.33260990536574,0.7980301957632324,0.7562169737436478,0.2631638235546241,0.885062679636989,0.10056598563949593,0.9288189610369397,0.0,0.0,0.0,0.0,-0.19755319116066858,-1.0692535145329045,-0.32724242796373987,1.1355254062936397,-6.608986519547317,-0.9524350477739018,-0.8966578514527328,0.0,-0.010766357527660463,-1.6729471785565673,0.12619737311815465,0.11479924051671768,-0.5075368251471165,0.1261973731181545,0.12556559804437795,1.1654103534094507,1.1789290853262149,0.0,-0.616866847063848,-95.85281267961024,7.230576865307971,6.577511972915163,-29.079718028399004,7.230576865307961,7.194378819979,66.77309465121124,67.54766093441063
61,0.30574727058410645,1775788768.7877152,0.351433584,-19.595773728920364,-0.08703248387375663,0.6556509881041519,-19.333591706591616,0.7926625397074464,0.7545965025714324,0.2621820223287479,0.879695023581203,0.0989455144672805,0.9232512995816037,0.0,0.0,0.0,0.0,-0.19505919321087362,-1.077516472209413,-0.32095911793422827,1.141097976566348,-6.4092381891559995,-1.0386327005537057,-0.7653213255897854,0.0,-0.010766357527660463,-1.6729471785565673,0.0931004822729803,0.11030485592608935,-0.5122378873296398,0.0931004822729804,0.12107121345374994,1.1607092912269277,1.1707143106954583,0.0,-0.616866847063848,-95.85281267961024,5.334264704874309,6.320002704363527,-29.349069050686147,5.334264704874315,6.936869551427383,66.50374362892411,67.07698901841714
62,0.3107414245605469,1775788768.7927094,0.356427748,-19.595773728920364,-0.08703248387375663,0.6556509881041519,-19.334559461980295,0.7872579124186151,0.7530071812617709,0.261214266940069,0.8742903962923717,0.09735619315761901,0.9176572446443463,0.0,0.0,0.0,0.0,-0.19194394479990992,-1.0840517728201198,-0.31479108076090656,1.145034562197323,-6.154359043311167,-1.1180185680830832,-0.6385322421745246,0.0,-0.010766357527660463,-1.6729471785565673,0.06124466056476463,0.10519773361511855,-0.5161719071132123,0.06124466056476452,0.11596409114277906,1.1567752714433546,1.164185383650349,0.0,-0.616866847063848,-95.85281267961024,3.5090605680723224,6.027386150487802,-29.57447178080582,3.5090605680723157,6.644252997551652,66.2783408988044,66.70290905398356
63,0.3157474994659424,1775788768.7977154,0.361433747,-19.595773728920364,-0.08703248387375663,0.6556509881041519,-19.33551020351517,0.7818247873745866,0.7514483666578937,0.26026352540519326,0.8688572712483432,0.09579737855374182,0.9120456119050329,0.0,0.0,0.0,0.0,-0.18826355958731417,-1.0889278904393103,-0.30876130461613677,1.1474060578859393,-5.843104893869663,-1.187834926197312,-0.5169782761042084,0.0,-0.010766357527660463,-1.6729471785565673,0.030903605716979157,0.09956896813780172,-0.5193357846017306,0.030903605716979143,0.11033532566546222,1.1536113939548365,1.1592877835975133,0.0,-0.616866847063848,-95.85281267961024,1.770646179319268,5.704881644768607,-29.75574860779437,1.7706461793192674,6.321748491832457,66.09706407181586,66.42229724121302
64,0.3207545280456543,1775788768.8027225,0.366440859,-19.595773728920364,-0.08703248387375663,0.6556509881041519,-19.33644126283259,0.7763712696609456,0.7499192371809542,0.2593324660877734,0.8634037535347022,0.09426824907680231,0.9064247747987612,0.0,0.0,0.0,0.0,-0.18408253383064146,-1.0922228711788098,-0.3029300202194313,1.148304740361955,-5.476567386464167,-1.2467476420792651,-0.40135442030372137,0.0,-0.010766357527660463,-1.6729471785565673,0.002349885772664143,0.09351803052607142,-0.5217394177527657,0.002349885772664262,0.10428438805373208,1.1512077608038016,1.155923900648217,0.0,-0.616866847063848,-95.85281267961024,0.13463853711149384,5.35818845751949,-29.89346664284641,0.13463853711150064,5.97505530458335,65.95934603676383,66.22956094544232
65,0.3257477283477783,1775788768.8077157,0.37143406,-19.595773728920364,-0.08703248387375663,0.6556509881041519,-19.337350310682062,0.7709050392754654,0.7484186467220435,0.2584234182383014,0.857937523149222,0.0927676586178916,0.9008025839254878,0.0,0.0,0.0,0.0,-0.17947068209767308,-1.0940299226475494,-0.29734972787031855,1.1478362505363557,-5.057940528125865,-1.293606837234287,-0.2923039645218824,0.0,-0.010766357527660463,-1.6729471785565673,-0.02415810956627589,0.08714437097195911,-0.5234064299125165,-0.024158109566275954,0.09791072849961946,1.1495407486440508,1.1539558300932784,0.0,-0.616866847063848,-95.85281267961024,-1.3841577191622283,4.99300466501562,-29.98897940399712,-1.3841577191622318,5.609871512079462,65.86383327561312,66.11679880886037
66,0.33074426651000977,1775788768.8127122,0.376430502,-19.595773728920364,-0.08703248387375663,0.6556509881041519,-19.338235372731535,0.7654332715269516,0.7469452719882013,0.25753835618882803,0.8524657554007082,0.09129428388404937,0.8951863020116233,0.0,0.0,0.0,0.0,-0.17450078309063963,-1.0944567218450738,-0.29205000147912247,1.1461148470616143,-4.591963553578431,-1.3276370688128216,-0.1903852189736874,0.0,-0.010766357527660463,-1.6729471785565673,-0.048382662766973776,0.08054760355281246,-0.524373236291697,-0.048382662766973894,0.09131396108047296,1.1485739422648704,1.1532134331486497,0.0,-0.616866847063848,-95.85281267961024,-2.772122378152347,4.615037733469109,-30.044373329130487,-2.772122378152354,5.23190458053296,65.80843935047976,66.07426259720974
67,0.3357431888580322,1775788768.817711,0.381429478,-19.595773728920364,-0.08703248387375663,0.6556509881041519,-19.339094847301798,0.7599625745275626,0.745497645269992,0.25667888161856567,0.8469950584013192,0.08984665716584006,0.889582541998823,0.0,0.0,0.0,0.0,-0.16924812574111267,-1.0936223199437785,-0.28705012987908146,1.1432639606887331,-4.084882682943435,-1.348163970712857,-0.09607461980391242,0.0,-0.010766357527660463,-1.6729471785565673,-0.07011515256119039,0.0738226960711201,-0.524687797176366,-0.07011515256119027,0.08458905359878077,1.1482593813802016,1.1535038142698357,0.0,-0.616866847063848,-95.85281267961024,-4.017302321672093,4.229728917152186,-30.062396340221927,-4.017302321672087,4.846595764216046,65.79041633938833,66.09090020990396
68,0.340740442276001,1775788768.8227084,0.38642682,-19.595773728920364,-0.08703248387375663,0.6556509881041519,-19.33992750882296,0.7544989367002618,0.7440742697017937,0.25584622009740343,0.8415314205740184,0.08842328159764179,0.8839972267377033,0.0,0.0,0.0,0.0,-0.16378841629828958,-1.0916551605907965,-0.2823510125021379,1.1394120103013667,-3.543907468972819,-1.3549011729343798,-0.009749419993726579,0.0,-0.010766357527660463,-1.6729471785565673,-0.08918015147636042,0.067060907467182,-0.5244078040414144,-0.0891801514763606,0.0778272649948426,1.1485393745151526,1.1546223960263295,0.0,-0.616866847063848,-95.85281267961024,-5.10964629593283,3.8423069681868762,-30.04635391529656,-5.10964629593284,4.459173815250732,65.80645876431367,66.1549902235914
69,0.34574031829833984,1775788768.8277082,0.391426636,-19.595773728920364,-0.08703248387375663,0.6556509881041519,-19.340732512544424,0.7490476853242354,0.7426736463011245,0.2550412163759397,0.836080169197992,0.08702265819697264,0.8784355493810169,0.0,0.0,0.0,0.0,-0.15819726190472053,-1.088690681243963,-0.2779444836261349,1.1346924292863656,-2.977143524153079,-1.3477631963037737,0.06830983693759914,0.0,-0.010766357527660463,-1.6729471785565673,-0.1054405967240229,0.06034571191008263,-0.5235984844916408,-0.10544059672402284,0.07111206943774295,1.1493486940649262,1.1563637258259132,0.0,-0.616866847063848,-95.85281267961024,-6.041301181627446,3.45755460416008,-29.999983320817105,-6.041301181627443,4.0744214512239205,65.85282935879312,66.2547610718479
70,0.35074329376220703,1775788768.8327112,0.396429492,-19.595773728920364,-0.08703248387375663,0.6556509881041519,-19.341509384925335,0.7436134588973664,0.7412943783933227,0.25426434399502895,0.830645942771123,0.08564339028917078,0.8729019585094155,0.0,0.0,0.0,0.0,-0.1525481787343361,-1.0848689370139684,-0.2738061455260889,1.1292392849439992,-2.3930887117602055,-1.3270875649855902,0.1379266720804761,0.0,-0.010766357527660463,-1.6729471785565673,-0.11879943168756397,0.05375400111734094,-0.5223303102002509,-0.11879943168756402,0.06452035864500161,1.150616868356316,1.1585315530424987,0.0,-0.616866847063848,-95.85281267961024,-6.806706044250151,3.079877395965147,-29.92732228623347,-6.806706044250153,3.696744243029007,65.92549039337675,66.37896842207184
71,0.35574769973754883,1775788768.8377156,0.401434013,-19.595773728920364,-0.08703248387375663,0.6556509881041519,-19.34225801708348,0.7382001864377993,0.7399351855514956,0.25351571183688293,0.8252326703115559,0.08428419744734372,0.8674001396339784,0.0,0.0,0.0,0.0,-0.14691259048856548,-1.0803328840983528,-0.2699067458991018,1.123188364073528,-1.8006355356939208,-1.2933977562794794,0.19902225590370926,0.0,-0.010766357527660463,-1.6729471785565673,-0.12920207631170694,0.04735305549819098,-0.5206764396473267,-0.129202076311707,0.05811941302585133,1.152270738909241,1.1609474141580116,0.0,-0.616866847063848,-95.85281267961024,-7.402733676987997,2.713130227095101,-29.832562483689944,-7.402733676988,3.3299970741589426,66.02025019592033,66.5173870678805
72,0.36074113845825195,1775788768.842709,0.406427396,-19.595773728920364,-0.08703248387375663,0.6556509881041519,-19.34297864483485,0.7328110826419858,0.7385949933648238,0.25279508408551266,0.8198435665157424,0.08294400526067192,0.8619330229801712,0.0,0.0,0.0,0.0,-0.1413569371016594,-1.0752249340191387,-0.26619452344676503,1.116669139322957,-1.2085779845261837,-1.2474818807162131,0.2516260879577572,0.0,-0.010766357527660463,-1.6729471785565673,-0.13663625708953858,0.04120244021887649,-0.5187105023528666,-0.13663625708953875,0.05196879774653684,1.1542366762037002,1.1634571446273492,0.0,-0.616866847063848,-95.85281267961024,-7.828680859695034,2.3607259301817027,-29.719922573930017,-7.8286808596950435,2.9775927772455444,66.1328901056802,66.66118403148893
73,0.3657412528991699,1775788768.8477092,0.4114276,-19.595773728920364,-0.08703248387375663,0.6556509881041519,-19.3436718196828,0.7274486590994768,0.7372730649048919,0.25210190923756315,0.8144811429732334,0.08162207680073996,0.8565028127925063,0.0,0.0,0.0,0.0,-0.13594130805459612,-1.0696839127149824,-0.2625897031624828,1.1098004615982953,-0.6256281522900174,-1.1899257303924735,0.29588269507261844,0.0,-0.010766357527660463,-1.6729471785565673,-0.14113195865988773,0.03535351614215851,-0.5165043675386951,-0.1411319586598876,0.04611987366981918,1.1564428110178717,1.1659353531210095,0.0,-0.616866847063848,-95.85281267961024,-8.086265585626377,2.025607265893311,-29.593520360041108,-8.086265585626368,2.6424741129571707,66.25929231956911,66.80317491892914
74,0.3707444667816162,1775788768.8527124,0.416430833,-19.595773728920364,-0.08703248387375663,0.6556509881041519,-19.344338389585015,0.7221147331472595,0.7359690043565786,0.2514353393353481,0.8091472170210161,0.08031801625242674,0.8511109988798535,0.0,0.0,0.0,0.0,-0.13072443230969516,-1.0638489059571883,-0.259039206993726,1.1027078863728765,-0.0601333732098865,-1.122095142759948,0.33198643760985735,0.0,-0.010766357527660463,-1.6729471785565673,-0.14275999783586465,0.029850818660906327,-0.514126402339775,-0.14275999783586446,0.04061717618856697,1.1588207762167926,1.168287534545892,0.0,-0.616866847063848,-95.85281267961024,-8.179545359291811,1.7103259242802922,-29.457272990314003,-8.179545359291799,2.3271927713441505,66.39553968929626,66.93794498722399
