sample_idx,t_rel_s,stamp_s,t_in_traj_s,x_des_m,y_des_m,z_des_m,x_act_m,y_act_m,z_act_m,ex_m,ey_m,ez_m,e_pos_norm_m,vx_des_mps,vy_des_mps,vz_des_mps,speed_des_mps,vx_act_mps,vy_act_mps,vz_act_mps,speed_act_mps,wx_act_radps,wy_act_radps,wz_act_radps,roll_des_rad,pitch_des_rad,yaw_des_rad,roll_act_rad,pitch_act_rad,yaw_act_rad,e_roll_rad,e_pitch_rad,e_yaw_rad,e_ang_norm_rad,roll_des_deg,pitch_des_deg,yaw_des_deg,roll_act_deg,pitch_act_deg,yaw_act_deg,e_roll_deg,e_pitch_deg,e_yaw_deg,e_ang_norm_deg
0,0.0011534690856933594,1775825040.7734153,0.042916547,-19.33604425137344,0.8620408180432764,0.676902834571447,-19.31,0.92,0.6716489293108907,0.026044251373441796,0.05795918195672367,-0.005253905260556246,0.06375871174343571,-1.0756234971334597,-2.5034265107153697,0.18272216428875107,2.7308419198958607,0.0,0.0,0.0017480902975938605,0.0017480902975938605,0.0,0.0,0.0,0.0,-0.06696058833229279,-1.9766078313964595,0.0,0.0,0.0,0.0,0.06696058833229301,1.9766078313964597,1.977741701923591,0.0,-3.8365591051533205,-113.25128649152335,0.0,0.0,0.0,0.0,3.8365591051533334,113.25128649152336,113.31625248724225
1,0.007013797760009766,1775825040.7792757,0.048776734,-19.34276287852408,0.8463943971292966,0.6780261944341068,-19.31,0.92,0.6716592601804133,0.032762878524081884,0.07360560287070339,-0.006366934253693501,0.08081911181728181,-1.1834673400785254,-2.791508725080049,0.1959996316642176,3.038343588675101,0.0,0.0,0.0016958006394727407,0.0016958006394727407,0.0,0.0,0.0,0.0,-0.06455353685050953,-1.97177946991541,0.0,0.0,0.0,0.0,0.06455353685050946,1.9717794699154103,1.972835887016405,0.0,-3.698645214176429,-112.97464175669568,0.0,0.0,0.0,0.0,3.698645214176425,112.97464175669569,113.03516999798813
2,0.011336088180541992,1775825040.783598,0.053099075,-19.34811039814714,0.8337893496314719,0.6789028339478391,-19.31,0.92,0.6716659751811251,0.03811039814713979,0.08621065036852815,-0.007236858766713983,0.09453597626674981,-1.2576484582305094,-2.996875033337063,0.20505450225130342,3.2565298952753574,0.0,0.0,0.001661808745280905,0.001661808745280905,0.0,0.0,0.0,0.0,-0.06300886325127321,-1.9681295580381313,0.0,0.0,0.0,0.0,0.06300886325127308,1.9681295580381315,1.9691379012328183,0.0,-3.610141936214905,-112.76551721053293,0.0,0.0,0.0,0.0,3.610141936214898,112.76551721053293,112.82329101988923
3,0.018865108489990234,1775825040.791127,0.060628203,-19.358155884607505,0.8097592885842524,0.68051849124921,-19.31,0.92,0.6716741798075258,0.04815588460750675,0.11024071141574765,-0.008844311441684294,0.1206243156277339,-1.3759941742350181,-3.34017632749879,0.219330454735206,3.619149584458532,0.0,0.0,0.001620211127903463,0.001620211127903463,0.0,0.0,0.0,0.0,-0.06063991764189716,-1.961563976927159,0.0,0.0,0.0,0.0,0.060639917641897245,1.9615639769271587,1.9625010662901323,0.0,-3.474411350901611,-112.38933712282339,0.0,0.0,0.0,0.0,3.4744113509016157,112.38933712282338,112.44302838834838
4,0.021967172622680664,1775825040.794229,0.063730181,-19.362544575018546,0.799119353815317,0.6812141352468857,-19.31,0.92,0.671680595377021,0.05254457501854759,0.12088064618468308,-0.009533539869864716,0.13215124429363734,-1.4207345869301944,-3.47628311913278,0.22465892155305028,3.7621141293029137,0.0,0.0,0.0015876815041463508,0.0015876815041463508,0.0,0.0,0.0,0.0,-0.05975168521465432,-1.958774629204674,0.0,0.0,0.0,0.0,0.05975168521465424,1.9587746292046742,1.95968576866341,0.0,-3.423519381593935,-112.22951927073058,0.0,0.0,0.0,0.0,3.42351938159393,112.22951927073059,112.28172371626398
5,0.026950836181640625,1775825040.7992127,0.068713934,-19.36987552162876,0.7811549624027788,0.6823649209052876,-19.31,0.92,0.67168843401606,0.05987552162876142,0.13884503759722122,-0.01067648688922751,0.1515816939078921,-1.4877067502720995,-3.6884414548576596,0.2325438646880506,3.9839613941053336,0.0,0.0,0.001547949859710895,0.001547949859710895,0.0,0.0,0.0,0.0,-0.0584032054888184,-1.9541812062403738,0.0,0.0,0.0,0.0,0.05840320548881861,1.9541812062403743,1.9550537387075715,0.0,-3.3462571845445783,-111.9663355213577,0.0,0.0,0.0,0.0,3.3462571845445903,111.96633552135773,112.01632794921628
6,0.031915903091430664,1775825040.8041778,0.073678875,-19.377495723802546,0.7622268672389452,0.6835483776155227,-19.31,0.92,0.6716960765663038,0.06749572380254776,0.15777313276105487,-0.01185230104921886,0.17201311343333267,-1.5484083304206029,-3.891812068834221,0.23957047055024044,4.1953740652293785,0.0,0.0,0.0015092281871019154,0.0015092281871019154,0.0,0.0,0.0,0.0,-0.057134562286529175,-1.94945917379541,0.0,0.0,0.0,0.0,0.057134562286529356,1.9494591737954101,1.9502962412163842,0.0,-3.273569283345444,-111.69578299153744,0.0,0.0,0.0,0.0,3.2735692833454544,111.69578299153746,111.74374342192716
7,0.036943912506103516,1775825040.8092058,0.078707004,-19.385504739123263,0.742049136786848,0.6847803413586484,-19.31,0.92,0.6717035279019284,0.07550473912326439,0.177950863213152,-0.01307681345671996,0.19374849263558155,-1.603760892819128,-4.0896463259144085,0.24584364062673886,4.399738079481304,0.0,0.0,0.0014714720084220445,0.0014714720084220445,0.0,0.0,0.0,0.0,-0.05590599852841064,-1.9445184885529017,0.0,0.0,0.0,0.0,0.055905998528410716,1.9445184885529017,1.9453219869716991,0.0,-3.203177765142521,-111.41270257923915,0.0,0.0,0.0,0.0,3.203177765142525,111.41270257923915,111.45873964748168
8,0.04195261001586914,1775825040.8142145,0.08371573,-19.393744201257377,0.7209806678651239,0.6860367964265134,-19.31,0.92,0.6717107928890804,0.08374420125737814,0.1990193321348761,-0.014326003537432963,0.21639551794111386,-1.6527752028995477,-4.278588431536956,0.2512493146980154,4.593594568084751,0.0,0.0,0.0014346727027197386,0.0014346727027197386,0.0,0.0,0.0,0.0,-0.054722887075379464,-1.9394280090555913,0.0,0.0,0.0,0.0,0.05472288707537931,1.9394280090555913,1.9401998857538363,0.0,-3.1353904721902444,-111.12103958834538,0.0,0.0,0.0,0.0,3.1353904721902355,111.12103958834538,111.16526486545932
9,0.04694724082946777,1775825040.819209,0.088710265,-19.402189560871804,0.6990497436341593,0.6873145573133544,-19.31,0.92,0.671717876151244,0.0921895608718053,0.22095025636584076,-0.015596681162110437,0.2399191267597054,-1.69556378432123,-4.458916646295535,0.25580158838198747,4.77727000052665,0.0,0.0,0.0013987897134645811,0.0013987897134645811,0.0,0.0,0.0,0.0,-0.05357117815496705,-1.9341736729211871,0.0,0.0,0.0,0.0,0.053571178154967036,1.9341736729211867,1.9349154162780204,0.0,-3.0694024118230443,-110.81998830370094,0.0,0.0,0.0,0.0,3.0694024118230434,110.81998830370092,110.86248706752936
10,0.051950931549072266,1775825040.8242128,0.09371403,-19.410849589713976,0.6761953633538118,0.688615380751384,-19.31,0.92,0.6717247823079815,0.1008495897139774,0.24380463664618823,-0.01689059844340246,0.2643797135020645,-1.732336356941477,-4.631488626077145,0.25952305763535516,4.951669250314244,0.0,0.0,0.0013638152680295207,0.0013638152680295207,0.0,0.0,0.0,0.0,-0.052435251061251874,-1.9287202294847716,0.0,0.0,0.0,0.0,0.0524352510612518,1.9287202294847718,1.9294328646464087,0.0,-3.0043185835186033,-110.50752901098102,0.0,0.0,0.0,0.0,3.004318583518599,110.50752901098103,110.54835999807544
11,0.05694460868835449,1775825040.8292065,0.098707754,-19.419660491415147,0.6525461021986149,0.6899300667491773,-19.31,0.92,0.6717315157494723,0.10966049141514844,0.2674538978013852,-0.01819855099970502,0.28963459407511133,-1.7629527798337814,-4.795641710400307,0.2623995939177614,5.1161543629315025,0.0,0.0,0.0013297109450068365,0.0013297109450068365,0.0,0.0,0.0,0.0,-0.05131095589282142,-1.9230773519666857,0.0,0.0,0.0,0.0,0.05131095589282131,1.9230773519666862,1.923761761716309,0.0,-2.9399012154405884,-110.18421594488544,0.0,0.0,0.0,0.0,2.9399012154405817,110.18421594488547,110.22342973499646
12,0.061957597732543945,1775825040.8342195,0.103720594,-19.42864359254861,0.6280021667948311,0.6912621262803965,-19.31,0.92,0.6717380808625473,0.11864359254861157,0.2919978332051689,-0.019524045417849245,0.3157850930598733,-1.7875752183709177,-4.9523123186511855,0.264445707534322,5.271693655271657,0.0,0.0,0.0012964694042843275,0.0012964694042843275,0.0,0.0,0.0,0.0,-0.05018439184084422,-1.9171994625303808,0.0,0.0,0.0,0.0,0.050184391840844,1.9171994625303803,1.9178561604852473,0.0,-2.875353849911138,-109.84743768774064,0.0,0.0,0.0,0.0,2.8753538499111255,109.84743768774061,109.88506370896935
13,0.06691908836364746,1775825040.839181,0.108682152,-19.437641327469514,0.6029558845735444,0.6925885921430222,-19.31,0.92,0.6717444818160491,0.12764132746951518,0.3170441154264556,-0.020844110326973087,0.3424087565177718,-1.8059165435914795,-5.099378092110677,0.26564074017387257,5.4162308380972695,0.0,0.0,0.0012640540706351693,0.0012640540706351693,0.0,0.0,0.0,0.0,-0.049064997565285,-1.9111585411143812,0.0,0.0,0.0,0.0,0.04906499756528504,1.9111585411143812,1.9117882579565477,0.0,-2.81121728231049,-109.50131838623366,0.0,0.0,0.0,0.0,2.811217282310493,109.50131838623366,109.5373985035781
14,0.07194375991821289,1775825040.8442056,0.113706769,-19.446830869375695,0.5768679291588099,0.6939358537386058,-19.31,0.92,0.6717507227761043,0.13683086937569655,0.34313207084119013,-0.02218513096250152,0.37007362090494345,-1.8183779177639354,-5.240199655289572,0.2660092687040038,5.553102881285822,0.0,0.0,0.0012324583251986478,0.0012324583251986478,0.0,0.0,0.0,0.0,-0.04792115578244068,-1.9048009220654,0.0,0.0,0.0,0.0,0.04792115578244083,1.9048009220653999,1.9054036291223764,0.0,-2.7456799757227914,-109.13705364697506,0.0,0.0,0.0,0.0,2.7456799757228,109.13705364697506,109.17158621762256
15,0.07694745063781738,1775825040.8492093,0.118710433,-19.45602899714074,0.550205934843581,0.6952772285354321,-19.31,0.92,0.6717568077033936,0.1460289971407427,0.369794065156419,-0.023520420832038424,0.398277954231661,-1.8246740908160144,-5.372320404283255,0.2655345438273838,5.679944599900519,0.0,0.0,0.0012016475704452747,0.0012016475704452747,0.0,0.0,0.0,0.0,-0.046766540771445715,-1.8982153042298835,0.0,0.0,0.0,0.0,0.04676654077144571,1.8982153042298835,1.8987913130589882,0.0,-2.6795254086303286,-108.7597255395139,0.0,0.0,0.0,0.0,2.679525408630328,108.7597255395139,108.79272841438386
16,0.08194780349731445,1775825040.8542097,0.123710923,-19.465237522807353,0.5229206227974955,0.6966132808002439,-19.31,0.92,0.6717627405558058,0.15523752280735437,0.3970793772025045,-0.024850540244438113,0.42706939674639904,-1.8248716099760645,-5.496268420672907,0.2642209611965263,5.797321421252965,0.0,0.0,0.0011716153237956634,0.0011716153237956634,0.0,0.0,0.0,0.0,-0.04559217976817166,-1.8913645090875937,0.0,0.0,0.0,0.0,0.04559217976817154,1.8913645090875937,1.8919139391346973,0.0,-2.612239479517976,-108.36720389155195,0.0,0.0,0.0,0.0,2.612239479517969,108.36720389155195,108.39868391438867
17,0.08869719505310059,1775825040.860959,0.130460189,-19.477638240956182,0.4851497619509258,0.6984020611004633,-19.31,0.92,0.6717673798711513,0.16763824095618318,0.43485023804907424,-0.026634681229312007,0.4668047938982706,-1.8154767638641547,-5.650740842402195,0.26111773083754014,5.940960395212265,0.0,0.0,0.0011481244445770698,0.0011481244445770698,0.0,0.0,0.0,0.0,-0.043966270990162815,-1.8816610247430063,0.0,0.0,0.0,0.0,0.043966270990162926,1.8816610247430061,1.88217460534927,0.0,-2.519081768664796,-107.81123519203584,0.0,0.0,0.0,0.0,2.519081768664803,107.81123519203582,107.84066119321452
18,0.09178328514099121,1775825040.8640451,0.133546407,-19.483279591990954,0.4675415907561131,0.6992119367815635,-19.31,0.92,0.6717719262002602,0.17327959199095488,0.4524584092438869,-0.027440010581303298,0.48528072625724844,-1.8074827068199186,-5.716467838723345,0.2591895427066338,6.001014706335911,0.0,0.0,0.0011251177270826666,0.0011251177270826666,0.0,0.0,0.0,0.0,-0.043204392534972554,-1.8770382084068227,0.0,0.0,0.0,0.0,0.04320439253497277,1.8770382084068231,1.8775353672709902,0.0,-2.4754293486804473,-107.54636732650837,0.0,0.0,0.0,0.0,2.4754293486804597,107.5463673265084,107.5748524311727
19,0.0967874526977539,1775825040.8690493,0.138550393,-19.492363269767086,0.43857494769113875,0.7005109386840825,-19.31,0.92,0.671777481198955,0.1823632697670874,0.4814250523088613,-0.028733457485127567,0.51560843159299,-1.7895890604091138,-5.816491462714197,0.2553840941808106,6.09092956588103,0.0,0.0,0.0010970040883978773,0.0010970040883978773,0.0,0.0,0.0,0.0,-0.041940885788059705,-1.8692794552862995,0.0,0.0,0.0,0.0,0.041940885788059656,1.8692794552863,1.8697499083717406,0.0,-2.403035744696037,-107.10182351841844,0.0,0.0,0.0,0.0,2.403035744696034,107.10182351841847,107.12877849467313
20,0.10179328918457031,1775825040.8740551,0.143556434,-19.501345804372058,0.40911586198180716,0.7017893161979446,-19.31,0.92,0.6717828974294747,0.19134580437205884,0.5108841380181929,-0.030006418768469878,0.5463663647193987,-1.7655830580516787,-5.908453506533322,0.2507364992494266,6.171707637745074,0.0,0.0,0.0010695991149772973,0.0010695991149772973,0.0,0.0,0.0,0.0,-0.0406379465938196,-1.8611731503950044,0.0,0.0,0.0,0.0,0.040637946593819585,1.861173150395004,1.8616167539143567,0.0,-2.3283828279039027,-106.63736646070097,0.0,0.0,0.0,0.0,2.328382827903902,106.63736646070096,106.66278307013701
21,0.10679292678833008,1775825040.8790548,0.148555956,-19.510181460278844,0.37925589987501834,0.7030407098528692,-19.31,0.92,0.6717881783177052,0.20018146027884498,0.5407441001249818,-0.03125253153516394,0.5774543441577902,-1.735513978537818,-5.99220729798716,0.2452558419308305,6.243293001273603,0.0,0.0,0.0010428729436987414,0.0010428729436987414,0.0,0.0,0.0,0.0,-0.03929320054968837,-1.8527110291067048,0.0,0.0,0.0,0.0,0.03929320054968821,1.8527110291067048,1.8531276569581123,0.0,-2.25133455505827,-106.15252262515361,0.0,0.0,0.0,0.0,2.251334555058261,106.15252262515361,106.17639364266685
22,0.11174631118774414,1775825040.8840082,0.153509345,-19.518772406645805,0.349278323738576,0.7042514791435156,-19.31,0.92,0.6717933272878377,0.20877240664580654,0.570721676261424,-0.03245815185567791,0.6085743020808699,-1.699716032049193,-6.067216563464045,0.238998760490164,6.305336773328872,0.0,0.0,0.0010168206857492268,0.0010168206857492268,0.0,0.0,0.0,0.0,-0.03791328449320455,-1.8439418746804392,0.0,0.0,0.0,0.0,0.037913284493204635,1.8439418746804392,1.8443316009712232,0.0,-2.172271188939411,-105.65008708663012,0.0,0.0,0.0,0.0,2.172271188939416,105.65008708663012,105.67241675825733
23,0.11678600311279297,1775825040.8890479,0.158549028,-19.52731566329965,0.3184175890945903,0.7054494164984224,-19.31,0.92,0.6717983475967867,0.2173156632996509,0.6015824109054098,-0.03365106890163572,0.6405153308581732,-1.6571588175184013,-6.13538928791384,0.23178787393793043,6.359473459275661,0.0,0.0,0.0009914138942478592,0.0009914138942478592,0.0,0.0,0.0,0.0,-0.036455726275171726,-1.8345998711293885,0.0,0.0,0.0,0.0,0.036455726275171685,1.834599871129388,1.8349620451459527,0.0,-2.0887592546515212,-105.11482971095869,0.0,0.0,0.0,0.0,2.0887592546515186,105.11482971095866,105.13558075355712
24,0.12178230285644531,1775825040.8940442,0.16354545,-19.535558556858913,0.2875029218066476,0.706599089231871,-19.31,0.92,0.6718032424999288,0.22555855685891402,0.6324970781933524,-0.03479584673194214,0.6724135390109248,-1.608857766160999,-6.194868656375556,0.22379773203347064,6.404288126430929,0.0,0.0,0.0009666477222839204,0.0009666477222839204,0.0,0.0,0.0,0.0,-0.03495209790084239,-1.824890978798281,0.0,0.0,0.0,0.0,0.034952097900842194,1.8248909787982814,1.8252256664990825,0.0,-2.002607694846333,-104.5585511566393,0.0,0.0,0.0,0.0,2.0026076948463216,104.55855115663933,104.57772734935016
25,0.12681341171264648,1775825040.8990753,0.168576478,-19.543599271204325,0.2560943287199766,0.7077142630678148,-19.31,0.92,0.6718080150934398,0.23359927120432644,0.6639056712800234,-0.03590624797437503,0.7047188223033128,-1.5540760151672834,-6.246602714241336,0.21490599949687006,6.440604188979881,0.0,0.0,0.0009424952258929894,0.0009424952258929894,0.0,0.0,0.0,0.0,-0.03337356122153077,-1.814633389145712,0.0,0.0,0.0,0.0,0.03337356122153068,1.8146333891457118,1.8149402556533534,0.0,-1.9121642053151813,-103.97083456157003,0.0,0.0,0.0,0.0,1.9121642053151762,103.97083456157002,103.9884167173318
26,0.13181161880493164,1775825040.9040735,0.173574716,-19.551299363805324,0.2246530074699918,0.7087757644609742,-19.31,0.92,0.671812668472436,0.24129936380532513,0.6953469925300082,-0.0369630959885382,0.7369525720549728,-1.4935441003226309,-6.28989401635698,0.20523133287217177,6.4680414822884655,0.0,0.0,0.0009189517823284162,0.0009189517823284162,0.0,0.0,0.0,0.0,-0.031735384930214404,-1.803930115933456,0.0,0.0,0.0,0.0,0.03173538493021422,1.803930115933456,1.8042092444692663,0.0,-1.8183036177243599,-103.35758217953233,0.0,0.0,0.0,0.0,1.8183036177243492,103.35758217953233,103.37357506657592
27,0.13680648803710938,1775825040.9090683,0.178569645,-19.558676915230034,0.19303649764241432,0.7097861632265967,-19.31,0.92,0.6718172055803742,0.24867691523003543,0.7269635023575858,-0.037968957646222545,0.7692579435228957,-1.4269710634088113,-6.325085603771674,0.19472576610722891,6.486977141537636,0.0,0.0,0.0008959917098966607,0.0008959917098966607,0.0,0.0,0.0,0.0,-0.03002246154935547,-1.7926865611095466,0.0,0.0,0.0,0.0,0.030022461549355395,1.7926865611095462,1.7929379394112483,0.0,-1.720160337371863,-102.71337394139836,0.0,0.0,0.0,0.0,1.7201603373718586,102.71337394139833,102.72777685714703
28,0.14180707931518555,1775825040.914069,0.183570022,-19.565714223121343,0.16122963447385727,0.7107430082064308,-19.31,0.92,0.6718216293590135,0.25571422312134473,0.7587703655261427,-0.03892137884741731,0.8016464964300744,-1.3542362827833727,-6.3522339878391,0.18337034309246777,6.497573179933491,0.0,0.0,0.0008736104028494099,0.0008736104028494099,0.0,0.0,0.0,0.0,-0.028225106124458596,-1.7808423452985487,0.0,0.0,0.0,0.0,0.0282251061244585,1.7808423452985487,1.7810660053530225,0.0,-1.6171794572403293,-102.03475036378606,0.0,0.0,0.0,0.0,1.6171794572403237,102.03475036378606,102.04756514095308
29,0.1468048095703125,1775825040.9190667,0.188567846,-19.57236929976875,0.1293235566050977,0.7116405317644534,-19.31,0.92,0.6718259426057341,0.2623692997687499,0.7906764433949023,-0.03981458915871927,0.8340216358768122,-1.2754508517939918,-6.37128871058121,0.17118250530394627,6.499953704376957,0.0,0.0,0.0008517836814614298,0.0008517836814614298,0.0,0.0,0.0,0.0,-0.026339002933260632,-1.7683719411943728,0.0,0.0,0.0,0.0,0.026339002933260414,1.7683719411943724,1.7685680833598325,0.0,-1.5091137046585297,-101.32024883979416,0.0,0.0,0.0,0.0,1.5091137046585172,101.32024883979413,101.33148695805956
30,0.1518115997314453,1775825040.9240735,0.193574525,-19.57862609747193,0.09728572621471915,0.7124764687470599,-19.31,0.92,0.6718301481173753,0.26862609747193034,0.8227142737852808,-0.04064632062968465,0.8664126499040583,-1.192738564017686,-6.382367768872316,0.1584839491774714,6.494794899100513,0.0,0.0,0.0008305071428797007,0.0008305071428797007,0.0,0.0,0.0,0.0,-0.024404108807690013,-1.755545519837642,0.0,0.0,0.0,0.0,0.02440410880769006,1.755545519837642,1.7557151342825277,0.0,-1.3982524374586773,-100.58534902979702,0.0,0.0,0.0,0.0,1.39825243745868,100.58534902979702,100.59506722163343
31,0.15680670738220215,1775825040.9290686,0.198569674,-19.584429036814853,0.06528703863650998,0.7132432759522034,-19.31,0.92,0.6718342485525455,0.27442903681485475,0.8547129613634901,-0.041409027399657905,0.8986435612188303,-1.1518920354980546,-6.389932525161348,0.15219021693264867,6.494709754845766,0.0,0.0,0.0008097575915958695,0.0008097575915958695,0.0,0.0,0.0,0.0,-0.023435096277302114,-1.749147580985955,0.0,0.0,0.0,0.0,0.023435096277302225,1.7491475809859551,1.749304565765077,0.0,-1.3427321091721582,-100.21877413601258,0.0,0.0,0.0,0.0,1.3427321091721647,100.21877413601258,100.22776870130407
32,0.16181302070617676,1775825040.9340749,0.203575962,-19.589773987479642,0.03322278381957186,0.7139402394094212,-19.31,0.92,0.6718382465701868,0.27977398747964344,0.8867772161804282,-0.04210199283923444,0.9308167880995725,-1.1089210641995153,-6.3948154494577665,0.14560248199018652,6.491884983732446,0.0,0.0,0.00078953147750021,0.00078953147750021,0.0,0.0,0.0,0.0,-0.022430263666995045,-1.7424982351929403,0.0,0.0,0.0,0.0,0.022430263666994854,1.7424982351929401,1.7426425957087934,0.0,-1.2851594414844494,-99.83779468554978,0.0,0.0,0.0,0.0,1.2851594414844385,99.83779468554977,99.84606593383648
33,0.16681170463562012,1775825040.9390736,0.208574817,-19.594610131320465,0.0012523542464804357,0.7145604992067511,-19.31,0.92,0.6718421446997156,0.2846101313204663,0.9187476457535196,-0.04271835450703554,0.9627694538360037,-1.0639828034568883,-6.396995431133089,0.13874487225984572,6.486359540726061,0.0,0.0,0.0007698064072216329,0.0007698064072216329,0.0,0.0,0.0,0.0,-0.021391884593634856,-1.7356129394951385,0.0,0.0,0.0,0.0,0.021391884593634725,1.7356129394951383,1.735744764782375,0.0,-1.2256647030462053,-99.44329630136615,0.0,0.0,0.0,0.0,1.2256647030461978,99.44329630136613,99.45084933395789
34,0.17181062698364258,1775825040.9440725,0.213573605,-19.598720939394102,-0.029101123877988806,0.7150768577938174,-19.31,0.92,0.6718459454655152,0.2887209393941035,0.9491011238779888,-0.04323091232830212,0.9929862214410694,-1.01701560490702,-6.396481747640527,0.13160791200797373,6.478164873714308,0.0,0.0,0.0007505776334559923,0.0007505776334559923,0.0,0.0,0.0,0.0,-0.02031701403385975,-1.7284725871962294,0.0,0.0,0.0,0.0,0.02031701403385977,1.7284725871962294,1.7285919893798187,0.0,-1.1640791564482276,-99.03418425040212,0.0,0.0,0.0,0.0,1.1640791564482287,99.03418425040212,99.04102549158644
35,0.17680621147155762,1775825040.949068,0.218569321,-19.598720939394102,-0.029101123877988806,0.7150768577938174,-19.31,0.92,0.6718496512671042,0.2887209393941035,0.9491011238779888,-0.04322720652671319,0.9929860601112074,-0.9680496139652952,-6.393277244465282,0.12419615474791922,6.467344019344426,0.0,0.0,0.0007318250088643208,0.0007318250088643208,0.0,0.0,0.0,0.0,-0.01920475996029075,-1.7210716139647209,0.0,0.0,0.0,0.0,0.019204759960290918,1.721071613964721,1.7211787598039496,0.0,-1.1003516922864904,-98.61013971994738,0.0,0.0,0.0,0.0,1.1003516922865,98.6101397199474,98.61627872432757
36,0.1818084716796875,1775825040.9540703,0.223571429,-19.598720939394102,-0.029101123877988806,0.7150768577938174,-19.31,0.92,0.6718532645076123,0.2887209393941035,0.9491011238779888,-0.043223593286205064,0.9929859028242276,-0.9169900463935582,-6.387373167384118,0.11649528108030154,6.453911827342969,0.0,0.0,0.0007135452460575507,0.0007135452460575507,0.0,0.0,0.0,0.0,-0.018051316953642448,-1.7133849904075604,0.0,0.0,0.0,0.0,0.01805131695364226,1.71338499040756,1.7134800773273307,0.0,-1.0342642760966625,-98.16972863141625,0.0,0.0,0.0,0.0,1.0342642760966518,98.16972863141623,98.17517671060598
37,0.18681049346923828,1775825040.9590724,0.228573596,-19.598720939394102,-0.029101123877988806,0.7150768577938174,-19.31,0.92,0.6718567874722357,0.2887209393941035,0.9491011238779888,-0.043220070321581705,0.9929857494796577,-0.8638976173413314,-6.37877177586589,0.10851449975793638,6.437920771374018,0.0,0.0,0.0006957185360678802,0.0006957185360678802,0.0,0.0,0.0,0.0,-0.016856317836892124,-1.7054104986465501,0.0,0.0,0.0,0.0,0.01685631783689212,1.7054104986465504,1.7054938007348175,0.0,-0.9657958701850079,-97.71282390974852,0.0,0.0,0.0,0.0,0.9657958701850077,97.71282390974852,97.71759676783086
38,0.19180941581726074,1775825040.9640713,0.233572426,-19.598720939394102,-0.029101123877988806,0.7150768577938174,-19.31,0.92,0.671860222445662,0.2887209393941035,0.9491011238779888,-0.04321663534815534,0.9929855999771047,0.0,0.0,0.0,0.0,0.0,0.0,0.0006783412104828921,0.0006783412104828921,0.0,0.0,0.0,0.0,-0.016856317836892124,-1.7054104986465501,0.0,0.0,0.0,0.0,0.01685631783689212,1.7054104986465504,1.7054938007348175,0.0,-0.9657958701850079,-97.71282390974852,0.0,0.0,0.0,0.0,0.9657958701850077,97.71282390974852,97.71759676783086
39,0.1968061923980713,1775825040.969068,0.23856922,-19.598720939394102,-0.029101123877988806,0.7150768577938174,-19.31,0.92,0.6718635715999781,0.2887209393941035,0.9491011238779888,-0.04321328619383924,0.992985454221131,0.0,0.0,0.0,0.0,0.0,0.0,0.0006613946405573198,0.0006613946405573198,0.0,0.0,0.0,0.0,-0.016856317836892124,-1.7054104986465501,0.0,0.0,0.0,0.0,0.01685631783689212,1.7054104986465504,1.7054938007348175,0.0,-0.9657958701850079,-97.71282390974852,0.0,0.0,0.0,0.0,0.9657958701850077,97.71282390974852,97.71759676783086
40,0.2017965316772461,1775825040.9740584,0.243559668,-19.598720939394102,-0.029101123877988806,0.7150768577938174,-19.31,0.92,0.6718668371079082,0.2887209393941035,0.9491011238779888,-0.04321002068590918,0.9929853121163232,0.0,0.0,0.0,0.0,0.0,0.0,0.0006448754606703137,0.0006448754606703137,0.0,0.0,0.0,0.0,-0.016856317836892124,-1.7054104986465501,0.0,0.0,0.0,0.0,0.01685631783689212,1.7054104986465504,1.7054938007348175,0.0,-0.9657958701850079,-97.71282390974852,0.0,0.0,0.0,0.0,0.9657958701850077,97.71282390974852,97.71759676783086
41,0.2067863941192627,1775825040.9790483,0.248549536,-19.598720939394102,-0.029101123877988806,0.7150768577938174,-19.31,0.92,0.6718700210339499,0.2887209393941035,0.9491011238779888,-0.04320683675986747,0.9929851735720272,0.0,0.0,0.0,0.0,0.0,0.0,0.0006287652485910592,0.0006287652485910592,0.0,0.0,0.0,0.0,-0.016856317836892124,-1.7054104986465501,0.0,0.0,0.0,0.0,0.01685631783689212,1.7054104986465504,1.7054938007348175,0.0,-0.9657958701850079,-97.71282390974852,0.0,0.0,0.0,0.0,0.9657958701850077,97.71282390974852,97.71759676783086
42,0.21178054809570312,1775825040.9840424,0.253543614,-19.598720939394102,-0.029101123877988806,0.7150768577938174,-19.31,0.92,0.6718731254399101,0.2887209393941035,0.9491011238779888,-0.04320373235390729,0.9929850384977525,0.0,0.0,0.0,0.0,0.0,0.0,0.0006130606817437721,0.0006130606817437721,0.0,0.0,0.0,0.0,-0.016856317836892124,-1.7054104986465501,0.0,0.0,0.0,0.0,0.01685631783689212,1.7054104986465504,1.7054938007348175,0.0,-0.9657958701850079,-97.71282390974852,0.0,0.0,0.0,0.0,0.9657958701850077,97.71282390974852,97.71759676783086
43,0.21677851676940918,1775825040.9890404,0.258541523,-19.598720939394102,-0.029101123877988806,0.7150768577938174,-19.31,0.92,0.6718761522865211,0.2887209393941035,0.9491011238779888,-0.043200705507296266,0.9929849068074516,0.0,0.0,0.0,0.0,0.0,0.0,0.0005977448349481814,0.0005977448349481814,0.0,0.0,0.0,0.0,-0.016856317836892124,-1.7054104986465501,0.0,0.0,0.0,0.0,0.01685631783689212,1.7054104986465504,1.7054938007348175,0.0,-0.9657958701850079,-97.71282390974852,0.0,0.0,0.0,0.0,0.9657958701850077,97.71282390974852,97.71759676783086
44,0.22178053855895996,1775825040.9940424,0.26354362,-19.598720939394102,-0.029101123877988806,0.7150768577938174,-19.31,0.92,0.6718791035345267,0.2887209393941035,0.9491011238779888,-0.04319775425929062,0.9929847784151181,0.0,0.0,0.0,0.0,0.0,0.0,0.0005828148004583207,0.0005828148004583207,0.0,0.0,0.0,0.0,-0.016856317836892124,-1.7054104986465501,0.0,0.0,0.0,0.0,0.01685631783689212,1.7054104986465504,1.7054938007348175,0.0,-0.9657958701850079,-97.71282390974852,0.0,0.0,0.0,0.0,0.9657958701850077,97.71282390974852,97.71759676783086
45,0.2268056869506836,1775825040.9990675,0.268568846,-19.598720939394102,-0.029101123877988806,0.7150768577938174,-19.31,0.92,0.6718819810491294,0.2887209393941035,0.9491011238779888,-0.043194876744687916,0.992984653238943,0.0,0.0,0.0,0.0,0.0,0.0,0.0005682546746862428,0.0005682546746862428,0.0,0.0,0.0,0.0,-0.016856317836892124,-1.7054104986465501,0.0,0.0,0.0,0.0,0.01685631783689212,1.7054104986465504,1.7054938007348175,0.0,-0.9657958701850079,-97.71282390974852,0.0,0.0,0.0,0.0,0.9657958701850077,97.71282390974852,97.71759676783086
46,0.2317790985107422,1775825041.004041,0.273542147,-19.598720939394102,-0.029101123877988806,0.7150768577938174,-19.31,0.92,0.6718847866952307,0.2887209393941035,0.9491011238779888,-0.04319207109858669,0.9929845311971685,0.0,0.0,0.0,0.0,0.0,0.0,0.0005540611581109267,0.0005540611581109267,0.0,0.0,0.0,0.0,-0.016856317836892124,-1.7054104986465501,0.0,0.0,0.0,0.0,0.01685631783689212,1.7054104986465504,1.7054938007348175,0.0,-0.9657958701850079,-97.71282390974852,0.0,0.0,0.0,0.0,0.9657958701850077,97.71282390974852,97.71759676783086
47,0.23678064346313477,1775825041.0090425,0.278543619,-19.598720939394102,-0.029101123877988806,0.7150768577938174,-19.31,0.92,0.6718875222442663,0.2887209393941035,0.9491011238779888,-0.04318933554955107,0.9929844122121388,0.0,0.0,0.0,0.0,0.0,0.0,0.0005402189293712458,0.0005402189293712458,0.0,0.0,0.0,0.0,-0.016856317836892124,-1.7054104986465501,0.0,0.0,0.0,0.0,0.01685631783689212,1.7054104986465504,1.7054938007348175,0.0,-0.9657958701850079,-97.71282390974852,0.0,0.0,0.0,0.0,0.9657958701850077,97.71282390974852,97.71759676783086
48,0.24177789688110352,1775825041.0140398,0.283540868,-19.598720939394102,-0.029101123877988806,0.7150768577938174,-19.31,0.92,0.6718901894691414,0.2887209393941035,0.9491011238779888,-0.04318666832467599,0.9929842962061689,0.0,0.0,0.0,0.0,0.0,0.0,0.0005267256924325941,0.0005267256924325941,0.0,0.0,0.0,0.0,-0.016856317836892124,-1.7054104986465501,0.0,0.0,0.0,0.0,0.01685631783689212,1.7054104986465504,1.7054938007348175,0.0,-0.9657958701850079,-97.71282390974852,0.0,0.0,0.0,0.0,0.9657958701850077,97.71282390974852,97.71759676783086
49,0.24677634239196777,1775825041.0190382,0.288539475,-19.598720939394102,-0.029101123877988806,0.7150768577938174,-19.31,0.92,0.6718927900565795,0.2887209393941035,0.9491011238779888,-0.04318406773723782,0.9929841831053552,0.0,0.0,0.0,0.0,0.0,0.0,0.0005135667702508588,0.0005135667702508588,0.0,0.0,0.0,0.0,-0.016856317836892124,-1.7054104986465501,0.0,0.0,0.0,0.0,0.01685631783689212,1.7054104986465504,1.7054938007348175,0.0,-0.9657958701850079,-97.71282390974852,0.0,0.0,0.0,0.0,0.9657958701850077,97.71282390974852,97.71759676783086
50,0.2517879009246826,1775825041.0240498,0.293551023,-19.598720939394102,-0.029101123877988806,0.7150768577938174,-19.31,0.92,0.6718953256922429,0.2887209393941035,0.9491011238779888,-0.043181532101574494,0.9929840728358711,0.0,0.0,0.0,0.0,0.0,0.0,0.0005007394277466885,0.0005007394277466885,0.0,0.0,0.0,0.0,-0.016856317836892124,-1.7054104986465501,0.0,0.0,0.0,0.0,0.01685631783689212,1.7054104986465504,1.7054938007348175,0.0,-0.9657958701850079,-97.71282390974852,0.0,0.0,0.0,0.0,0.9657958701850077,97.71282390974852,97.71759676783086
51,0.2568199634552002,1775825041.0290818,0.298583118,-19.598720939394102,-0.029101123877988806,0.7150768577938174,-19.31,0.92,0.6718977979786576,0.2887209393941035,0.9491011238779888,-0.04317905981515979,0.9929839653275355,0.0,0.0,0.0,0.0,0.0,0.0,0.00048822980995356924,0.00048822980995356924,0.0,0.0,0.0,0.0,-0.016856317836892124,-1.7054104986465501,0.0,0.0,0.0,0.0,0.01685631783689212,1.7054104986465504,1.7054938007348175,0.0,-0.9657958701850079,-97.71282390974852,0.0,0.0,0.0,0.0,0.9657958701850077,97.71282390974852,97.71759676783086
52,0.2617979049682617,1775825041.0340598,0.303560911,-19.598720939394102,-0.029101123877988806,0.7150768577938174,-19.31,0.92,0.6719002085188542,0.2887209393941035,0.9491011238779888,-0.04317664927496312,0.9929838605101737,0.0,0.0,0.0,0.0,0.0,0.0,0.00047603569346910146,0.00047603569346910146,0.0,0.0,0.0,0.0,-0.016856317836892124,-1.7054104986465501,0.0,0.0,0.0,0.0,0.01685631783689212,1.7054104986465504,1.7054938007348175,0.0,-0.9657958701850079,-97.71282390974852,0.0,0.0,0.0,0.0,0.9657958701850077,97.71282390974852,97.71759676783086
53,0.26677870750427246,1775825041.0390406,0.308541753,-19.598720939394102,-0.029101123877988806,0.7150768577938174,-19.31,0.92,0.6719025588378572,0.2887209393941035,0.9491011238779888,-0.043174298955960144,0.9929837583170299,0.0,0.0,0.0,0.0,0.0,0.0,0.0004641438620941797,0.0004641438620941797,0.0,0.0,0.0,0.0,-0.016856317836892124,-1.7054104986465501,0.0,0.0,0.0,0.0,0.01685631783689212,1.7054104986465504,1.7054938007348175,0.0,-0.9657958701850079,-97.71282390974852,0.0,0.0,0.0,0.0,0.9657958701850077,97.71282390974852,97.71759676783086
54,0.27179479598999023,1775825041.0440567,0.313557898,-19.598720939394102,-0.029101123877988806,0.7150768577938174,-19.31,0.92,0.6719048504585098,0.2887209393941035,0.9491011238779888,-0.04317200733530757,0.9929836586814684,0.0,0.0,0.0,0.0,0.0,0.0,0.00045255123083271897,0.00045255123083271897,0.0,0.0,0.0,0.0,-0.016856317836892124,-1.7054104986465501,0.0,0.0,0.0,0.0,0.01685631783689212,1.7054104986465504,1.7054938007348175,0.0,-0.9657958701850079,-97.71282390974852,0.0,0.0,0.0,0.0,0.9657958701850077,97.71282390974852,97.71759676783086
55,0.2767825126647949,1775825041.0490444,0.318545569,-19.598720939394102,-0.029101123877988806,0.7150768577938174,-19.31,0.92,0.671907084826907,0.2887209393941035,0.9491011238779888,-0.04316977296691038,0.9929835615402148,0.0,0.0,0.0,0.0,0.0,0.0,0.0004412455285330016,0.0004412455285330016,0.0,0.0,0.0,0.0,-0.016856317836892124,-1.7054104986465501,0.0,0.0,0.0,0.0,0.01685631783689212,1.7054104986465504,1.7054938007348175,0.0,-0.9657958701850079,-97.71282390974852,0.0,0.0,0.0,0.0,0.9657958701850077,97.71282390974852,97.71759676783086
56,0.2817847728729248,1775825041.0540466,0.323547799,-19.598720939394102,-0.029101123877988806,0.7150768577938174,-19.31,0.92,0.6719092633903737,0.2887209393941035,0.9491011238779888,-0.04316759440344364,0.9929834668299645,0.0,0.0,0.0,0.0,0.0,0.0,0.00043022440757167345,0.00043022440757167345,0.0,0.0,0.0,0.0,-0.016856317836892124,-1.7054104986465501,0.0,0.0,0.0,0.0,0.01685631783689212,1.7054104986465504,1.7054938007348175,0.0,-0.9657958701850079,-97.71282390974852,0.0,0.0,0.0,0.0,0.9657958701850077,97.71282390974852,97.71759676783086
57,0.28678297996520996,1775825041.0590448,0.328546063,-19.598720939394102,-0.029101123877988806,0.7150768577938174,-19.31,0.92,0.671911387523714,0.2887209393941035,0.9491011238779888,-0.04316547027010331,0.9929833744905875,0.0,0.0,0.0,0.0,0.0,0.0,0.0004194758208531231,0.0004194758208531231,0.0,0.0,0.0,0.0,-0.016856317836892124,-1.7054104986465501,0.0,0.0,0.0,0.0,0.01685631783689212,1.7054104986465504,1.7054938007348175,0.0,-0.9657958701850079,-97.71282390974852,0.0,0.0,0.0,0.0,0.9657958701850077,97.71282390974852,97.71759676783086
58,0.2917823791503906,1775825041.0640442,0.333545425,-19.598720939394102,-0.029101123877988806,0.7150768577938174,-19.31,0.92,0.6719134586018783,0.2887209393941035,0.9491011238779888,-0.04316339919193901,0.992983284461968,0.0,0.0,0.0,0.0,0.0,0.0,0.0004089978354342829,0.0004089978354342829,0.0,0.0,0.0,0.0,-0.016856317836892124,-1.7054104986465501,0.0,0.0,0.0,0.0,0.01685631783689212,1.7054104986465504,1.7054938007348175,0.0,-0.9657958701850079,-97.71282390974852,0.0,0.0,0.0,0.0,0.9657958701850077,97.71282390974852,97.71759676783086
59,0.2967813014984131,1775825041.0690432,0.338544234,-19.598720939394102,-0.029101123877988806,0.7150768577938174,-19.31,0.92,0.6719154779332573,0.2887209393941035,0.9491011238779888,-0.04316137986056001,0.992983196686904,0.0,0.0,0.0,0.0,0.0,0.0,0.0003987793778050585,0.0003987793778050585,0.0,0.0,0.0,0.0,-0.016856317836892124,-1.7054104986465501,0.0,0.0,0.0,0.0,0.01685631783689212,1.7054104986465504,1.7054938007348175,0.0,-0.9657958701850079,-97.71282390974852,0.0,0.0,0.0,0.0,0.9657958701850077,97.71282390974852,97.71759676783086
60,0.30177760124206543,1775825041.0740395,0.343540713,-19.598720939394102,-0.029101123877988806,0.7150768577938174,-19.31,0.92,0.6719174468267447,0.2887209393941035,0.9491011238779888,-0.04315941096707265,0.9929831111081899,0.0,0.0,0.0,0.0,0.0,0.0,0.00038881831855869833,0.00038881831855869833,0.0,0.0,0.0,0.0,-0.016856317836892124,-1.7054104986465501,0.0,0.0,0.0,0.0,0.01685631783689212,1.7054104986465504,1.7054938007348175,0.0,-0.9657958701850079,-97.71282390974852,0.0,0.0,0.0,0.0,0.9657958701850077,97.71282390974852,97.71759676783086
61,0.3067770004272461,1775825041.0790389,0.348540008,-19.598720939394102,-0.029101123877988806,0.7150768577938174,-19.31,0.92,0.6719193665260772,0.2887209393941035,0.9491011238779888,-0.043157491267740156,0.9929830276714704,0.0,0.0,0.0,0.0,0.0,0.0,0.00037910381986575904,0.00037910381986575904,0.0,0.0,0.0,0.0,-0.016856317836892124,-1.7054104986465501,0.0,0.0,0.0,0.0,0.01685631783689212,1.7054104986465504,1.7054938007348175,0.0,-0.9657958701850079,-97.71282390974852,0.0,0.0,0.0,0.0,0.9657958701850077,97.71282390974852,97.71759676783086
62,0.31177687644958496,1775825041.0840387,0.353539881,-19.598720939394102,-0.029101123877988806,0.7150768577938174,-19.31,0.92,0.6719212382743376,0.2887209393941035,0.9491011238779888,-0.04315561951947977,0.9929829463224357,0.0,0.0,0.0,0.0,0.0,0.0,0.00036963375924477384,0.00036963375924477384,0.0,0.0,0.0,0.0,-0.016856317836892124,-1.7054104986465501,0.0,0.0,0.0,0.0,0.01685631783689212,1.7054104986465504,1.7054938007348175,0.0,-0.9657958701850079,-97.71282390974852,0.0,0.0,0.0,0.0,0.9657958701850077,97.71282390974852,97.71759676783086
63,0.31677699089050293,1775825041.0890388,0.358539986,-19.598720939394102,-0.029101123877988806,0.7150768577938174,-19.31,0.92,0.6719230632530818,0.2887209393941035,0.9491011238779888,-0.043153794540735535,0.9929828670094661,0.0,0.0,0.0,0.0,0.0,0.0,0.0003603981278978961,0.0003603981278978961,0.0,0.0,0.0,0.0,-0.016856317836892124,-1.7054104986465501,0.0,0.0,0.0,0.0,0.01685631783689212,1.7054104986465504,1.7054938007348175,0.0,-0.9657958701850079,-97.71282390974852,0.0,0.0,0.0,0.0,0.9657958701850077,97.71282390974852,97.71759676783086
64,0.3217778205871582,1775825041.0940397,0.363540756,-19.598720939394102,-0.029101123877988806,0.7150768577938174,-19.31,0.92,0.6719248426462969,0.2887209393941035,0.9491011238779888,-0.04315201514752043,0.992982789680852,0.0,0.0,0.0,0.0,0.0,0.0,0.00035139569795984737,0.00035139569795984737,0.0,0.0,0.0,0.0,-0.016856317836892124,-1.7054104986465501,0.0,0.0,0.0,0.0,0.01685631783689212,1.7054104986465504,1.7054938007348175,0.0,-0.9657958701850079,-97.71282390974852,0.0,0.0,0.0,0.0,0.9657958701850077,97.71282390974852,97.71759676783086
65,0.3267781734466553,1775825041.09904,0.368541122,-19.598720939394102,-0.029101123877988806,0.7150768577938174,-19.31,0.92,0.6719265775811583,0.2887209393941035,0.9491011238779888,-0.0431502802126591,0.9929827142873667,0.0,0.0,0.0,0.0,0.0,0.0,0.00034261663403671757,0.00034261663403671757,0.0,0.0,0.0,0.0,-0.016856317836892124,-1.7054104986465501,0.0,0.0,0.0,0.0,0.01685631783689212,1.7054104986465504,1.7054938007348175,0.0,-0.9657958701850079,-97.71282390974852,0.0,0.0,0.0,0.0,0.9657958701850077,97.71282390974852,97.71759676783086
66,0.3317890167236328,1775825041.1040509,0.373552133,-19.598720939394102,-0.029101123877988806,0.7150768577938174,-19.31,0.92,0.6719282691832335,0.2887209393941035,0.9491011238779888,-0.043148588610583904,0.9929826407798681,0.0,0.0,0.0,0.0,0.0,0.0,0.00033405884343072395,0.00033405884343072395,0.0,0.0,0.0,0.0,-0.016856317836892124,-1.7054104986465501,0.0,0.0,0.0,0.0,0.01685631783689212,1.7054104986465504,1.7054938007348175,0.0,-0.9657958701850079,-97.71282390974852,0.0,0.0,0.0,0.0,0.9657958701850077,97.71282390974852,97.71759676783086
67,0.3367807865142822,1775825041.1090426,0.378543887,-19.598720939394102,-0.029101123877988806,0.7150768577938174,-19.31,0.92,0.671929918522373,0.2887209393941035,0.9491011238779888,-0.04314693927144431,0.9929825691116481,0.0,0.0,0.0,0.0,0.0,0.0,0.0003257133848588723,0.0003257133848588723,0.0,0.0,0.0,0.0,-0.016856317836892124,-1.7054104986465501,0.0,0.0,0.0,0.0,0.01685631783689212,1.7054104986465504,1.7054938007348175,0.0,-0.9657958701850079,-97.71282390974852,0.0,0.0,0.0,0.0,0.9657958701850077,97.71282390974852,97.71759676783086
68,0.3417825698852539,1775825041.1140444,0.383545499,-19.598720939394102,-0.029101123877988806,0.7150768577938174,-19.31,0.92,0.6719315266700795,0.2887209393941035,0.9491011238779888,-0.04314533112373786,0.9929824992359393,0.0,0.0,0.0,0.0,0.0,0.0,0.00031757869848853546,0.00031757869848853546,0.0,0.0,0.0,0.0,-0.016856317836892124,-1.7054104986465501,0.0,0.0,0.0,0.0,0.01685631783689212,1.7054104986465504,1.7054938007348175,0.0,-0.9657958701850079,-97.71282390974852,0.0,0.0,0.0,0.0,0.9657958701850077,97.71282390974852,97.71759676783086
69,0.3467831611633301,1775825041.119045,0.388546224,-19.598720939394102,-0.029101123877988806,0.7150768577938174,-19.31,0.92,0.6719330946446894,0.2887209393941035,0.9491011238779888,-0.043143763149127934,0.9929824311082966,0.0,0.0,0.0,0.0,0.0,0.0,0.00030964584258657527,0.00030964584258657527,0.0,0.0,0.0,0.0,-0.016856317836892124,-1.7054104986465501,0.0,0.0,0.0,0.0,0.01685631783689212,1.7054104986465504,1.7054938007348175,0.0,-0.9657958701850079,-97.71282390974852,0.0,0.0,0.0,0.0,0.9657958701850077,97.71282390974852,97.71759676783086
70,0.35178136825561523,1775825041.1240432,0.393544465,-19.598720939394102,-0.029101123877988806,0.7150768577938174,-19.31,0.92,0.6719346234633431,0.2887209393941035,0.9491011238779888,-0.04314223433047426,0.9929823646843385,0.0,0.0,0.0,0.0,0.0,0.0,0.00030191292073033105,0.00030191292073033105,0.0,0.0,0.0,0.0,-0.016856317836892124,-1.7054104986465501,0.0,0.0,0.0,0.0,0.01685631783689212,1.7054104986465504,1.7054938007348175,0.0,-0.9657958701850079,-97.71282390974852,0.0,0.0,0.0,0.0,0.9657958701850077,97.71282390974852,97.71759676783086
71,0.3567845821380615,1775825041.1290464,0.398547603,-19.598720939394102,-0.029101123877988806,0.7150768577938174,-19.31,0.92,0.6719361140920489,0.2887209393941035,0.9491011238779888,-0.04314074370176846,0.9929822999219154,0.0,0.0,0.0,0.0,0.0,0.0,0.0002943715245808615,0.0002943715245808615,0.0,0.0,0.0,0.0,-0.016856317836892124,-1.7054104986465501,0.0,0.0,0.0,0.0,0.01685631783689212,1.7054104986465504,1.7054938007348175,0.0,-0.9657958701850079,-97.71282390974852,0.0,0.0,0.0,0.0,0.9657958701850077,97.71282390974852,97.71759676783086
72,0.3617861270904541,1775825041.134048,0.403549145,-19.598720939394102,-0.029101123877988806,0.7150768577938174,-19.31,0.92,0.6719375674973316,0.2887209393941035,0.9491011238779888,-0.04313929029648578,0.9929822367788659,0.0,0.0,0.0,0.0,0.0,0.0,0.00028702039786413923,0.00028702039786413923,0.0,0.0,0.0,0.0,-0.016856317836892124,-1.7054104986465501,0.0,0.0,0.0,0.0,0.01685631783689212,1.7054104986465504,1.7054938007348175,0.0,-0.9657958701850079,-97.71282390974852,0.0,0.0,0.0,0.0,0.9657958701850077,97.71282390974852,97.71759676783086
73,0.36681318283081055,1775825041.139075,0.408576232,-19.598720939394102,-0.029101123877988806,0.7150768577938174,-19.31,0.92,0.6719389845975188,0.2887209393941035,0.9491011238779888,-0.04313787319629858,0.992982175215132,0.0,0.0,0.0,0.0,0.0,0.0,0.0002798503316319006,0.0002798503316319006,0.0,0.0,0.0,0.0,-0.016856317836892124,-1.7054104986465501,0.0,0.0,0.0,0.0,0.01685631783689212,1.7054104986465504,1.7054938007348175,0.0,-0.9657958701850079,-97.71282390974852,0.0,0.0,0.0,0.0,0.9657958701850077,97.71282390974852,97.71759676783086
74,0.3717818260192871,1775825041.1440437,0.413544908,-19.598720939394102,-0.029101123877988806,0.7150768577938174,-19.31,0.92,0.6719403662995433,0.2887209393941035,0.9491011238779888,-0.04313649149427401,0.9929821151911603,0.0,0.0,0.0,0.0,0.0,0.0,0.0002728587655309097,0.0002728587655309097,0.0,0.0,0.0,0.0,-0.016856317836892124,-1.7054104986465501,0.0,0.0,0.0,0.0,0.01685631783689212,1.7054104986465504,1.7054938007348175,0.0,-0.9657958701850079,-97.71282390974852,0.0,0.0,0.0,0.0,0.9657958701850077,97.71282390974852,97.71759676783086
75,0.37680554389953613,1775825041.1490674,0.418568678,-19.598720939394102,-0.029101123877988806,0.7150768577938174,-19.31,0.92,0.6719417134724297,0.2887209393941035,0.9491011238779888,-0.04313514432138765,0.9929820566690528,0.0,0.0,0.0,0.0,0.0,0.0,0.0002660401129902181,0.0002660401129902181,0.0,0.0,0.0,0.0,-0.016856317836892124,-1.7054104986465501,0.0,0.0,0.0,0.0,0.01685631783689212,1.7054104986465504,1.7054938007348175,0.0,-0.9657958701850079,-97.71282390974852,0.0,0.0,0.0,0.0,0.9657958701850077,97.71282390974852,97.71759676783086
76,0.3817920684814453,1775825041.154054,0.423555176,-19.598720939394102,-0.029101123877988806,0.7150768577938174,-19.31,0.92,0.6719430269878479,0.2887209393941035,0.9491011238779888,-0.04313383080596944,0.9929819996108051,0.0,0.0,0.0,0.0,0.0,0.0,0.0002593929067340218,0.0002593929067340218,0.0,0.0,0.0,0.0,-0.016856317836892124,-1.7054104986465501,0.0,0.0,0.0,0.0,0.01685631783689212,1.7054104986465504,1.7054938007348175,0.0,-0.9657958701850079,-97.71282390974852,0.0,0.0,0.0,0.0,0.9657958701850077,97.71282390974852,97.71759676783086
77,0.38678932189941406,1775825041.1590512,0.428552349,-19.598720939394102,-0.029101123877988806,0.7150768577938174,-19.31,0.92,0.6719443076746815,0.2887209393941035,0.9491011238779888,-0.04313255011913586,0.9929819439802795,0.0,0.0,0.0,0.0,0.0,0.0,0.0002529101293120707,0.0002529101293120707,0.0,0.0,0.0,0.0,-0.016856317836892124,-1.7054104986465501,0.0,0.0,0.0,0.0,0.01685631783689212,1.7054104986465504,1.7054938007348175,0.0,-0.9657958701850079,-97.71282390974852,0.0,0.0,0.0,0.0,0.9657958701850077,97.71282390974852,97.71759676783086
78,0.391787052154541,1775825041.164049,0.433550123,-19.598720939394102,-0.029101123877988806,0.7150768577938174,-19.31,0.92,0.6719455563623716,0.2887209393941035,0.9491011238779888,-0.04313130143144572,0.9929818897413212,0.0,0.0,0.0,0.0,0.0,0.0,0.00024659049117263846,0.00024659049117263846,0.0,0.0,0.0,0.0,-0.016856317836892124,-1.7054104986465501,0.0,0.0,0.0,0.0,0.01685631783689212,1.7054104986465504,1.7054938007348175,0.0,-0.9657958701850079,-97.71282390974852,0.0,0.0,0.0,0.0,0.9657958701850077,97.71282390974852,97.71759676783086
79,0.3967878818511963,1775825041.1690497,0.438550896,-19.598720939394102,-0.029101123877988806,0.7150768577938174,-19.31,0.92,0.6719467738399313,0.2887209393941035,0.9491011238779888,-0.04313008395388607,0.9929818368595391,0.0,0.0,0.0,0.0,0.0,0.0,0.00024042757369826357,0.00024042757369826357,0.0,0.0,0.0,0.0,-0.016856317836892124,-1.7054104986465501,0.0,0.0,0.0,0.0,0.01685631783689212,1.7054104986465504,1.7054938007348175,0.0,-0.9657958701850079,-97.71282390974852,0.0,0.0,0.0,0.0,0.9657958701850077,97.71282390974852,97.71759676783086
80,0.40178489685058594,1775825041.1740468,0.443548026,-19.598720939394102,-0.029101123877988806,0.7150768577938174,-19.31,0.92,0.6719479608996277,0.2887209393941035,0.9491011238779888,-0.04312889689418964,0.9929817853004076,0.0,0.0,0.0,0.0,0.0,0.0,0.00023442076342038365,0.00023442076342038365,0.0,0.0,0.0,0.0,-0.016856317836892124,-1.7054104986465501,0.0,0.0,0.0,0.0,0.01685631783689212,1.7054104986465504,1.7054938007348175,0.0,-0.9657958701850079,-97.71282390974852,0.0,0.0,0.0,0.0,0.9657958701850077,97.71282390974852,97.71759676783086
81,0.4067854881286621,1775825041.1790473,0.448548433,-19.598720939394102,-0.029101123877988806,0.7150768577938174,-19.31,0.92,0.6719491182956613,0.2887209393941035,0.9491011238779888,-0.04312773949815607,0.9929817350310609,0.0,0.0,0.0,0.0,0.0,0.0,0.0002285632982749933,0.0002285632982749933,0.0,0.0,0.0,0.0,-0.016856317836892124,-1.7054104986465501,0.0,0.0,0.0,0.0,0.01685631783689212,1.7054104986465504,1.7054938007348175,0.0,-0.9657958701850079,-97.71282390974852,0.0,0.0,0.0,0.0,0.9657958701850077,97.71282390974852,97.71759676783086
82,0.4117915630340576,1775825041.1840534,0.453554623,-19.598720939394102,-0.029101123877988806,0.7150768577938174,-19.31,0.92,0.6719502467804507,0.2887209393941035,0.9491011238779888,-0.04312661101336668,0.9929816860187167,0.0,0.0,0.0,0.0,0.0,0.0,0.00022285379270359015,0.00022285379270359015,0.0,0.0,0.0,0.0,-0.016856317836892124,-1.7054104986465501,0.0,0.0,0.0,0.0,0.01685631783689212,1.7054104986465504,1.7054938007348175,0.0,-0.9657958701850079,-97.71282390974852,0.0,0.0,0.0,0.0,0.9657958701850077,97.71282390974852,97.71759676783086
83,0.4168105125427246,1775825041.1890724,0.458573675,-19.598720939394102,-0.029101123877988806,0.7150768577938174,-19.31,0.92,0.6719513470683608,0.2887209393941035,0.9491011238779888,-0.04312551072545656,0.9929816382322518,0.0,0.0,0.0,0.0,0.0,0.0,0.00021728564322812005,0.00021728564322812005,0.0,0.0,0.0,0.0,-0.016856317836892124,-1.7054104986465501,0.0,0.0,0.0,0.0,0.01685631783689212,1.7054104986465504,1.7054938007348175,0.0,-0.9657958701850079,-97.71282390974852,0.0,0.0,0.0,0.0,0.9657958701850077,97.71282390974852,97.71759676783086
84,0.4217824935913086,1775825041.1940444,0.463545619,-19.598720939394102,-0.029101123877988806,0.7150768577938174,-19.31,0.92,0.6719524198719469,0.2887209393941035,0.9491011238779888,-0.043124437921870484,0.9929815916406267,0.0,0.0,0.0,0.0,0.0,0.0,0.0002118577818309388,0.0002118577818309388,0.0,0.0,0.0,0.0,-0.016856317836892124,-1.7054104986465501,0.0,0.0,0.0,0.0,0.01685631783689212,1.7054104986465504,1.7054938007348175,0.0,-0.9657958701850079,-97.71282390974852,0.0,0.0,0.0,0.0,0.9657958701850077,97.71282390974852,97.71759676783086
85,0.42681241035461426,1775825041.1990743,0.468575548,-19.598720939394102,-0.029101123877988806,0.7150768577938174,-19.31,0.92,0.6719534658692033,0.2887209393941035,0.9491011238779888,-0.04312339192461401,0.9929815462143086,0.0,0.0,0.0,0.0,0.0,0.0,0.0002065641867071185,0.0002065641867071185,0.0,0.0,0.0,0.0,-0.016856317836892124,-1.7054104986465501,0.0,0.0,0.0,0.0,0.01685631783689212,1.7054104986465504,1.7054938007348175,0.0,-0.9657958701850079,-97.71282390974852,0.0,0.0,0.0,0.0,0.9657958701850077,97.71282390974852,97.71759676783086
86,0.43178224563598633,1775825041.204044,0.473545301,-19.598720939394102,-0.029101123877988806,0.7150768577938174,-19.31,0.92,0.671954485736933,0.2887209393941035,0.9491011238779888,-0.043122372056884406,0.9929815019238211,0.0,0.0,0.0,0.0,0.0,0.0,0.00020140377323598702,0.00020140377323598702,0.0,0.0,0.0,0.0,-0.016856317836892124,-1.7054104986465501,0.0,0.0,0.0,0.0,0.01685631783689212,1.7054104986465504,1.7054938007348175,0.0,-0.9657958701850079,-97.71282390974852,0.0,0.0,0.0,0.0,0.9657958701850077,97.71282390974852,97.71759676783086
87,0.436781644821167,1775825041.2090435,0.478544609,-19.598720939394102,-0.029101123877988806,0.7150768577938174,-19.31,0.92,0.6719554801194473,0.2887209393941035,0.9491011238779888,-0.043121377674370076,0.992981458741104,0.0,0.0,0.0,0.0,0.0,0.0,0.00019637123146071196,0.00019637123146071196,0.0,0.0,0.0,0.0,-0.016856317836892124,-1.7054104986465501,0.0,0.0,0.0,0.0,0.01685631783689212,1.7054104986465504,1.7054938007348175,0.0,-0.9657958701850079,-97.71282390974852,0.0,0.0,0.0,0.0,0.9657958701850077,97.71282390974852,97.71759676783086
88,0.4417858123779297,1775825041.2140477,0.48354874,-19.598720939394102,-0.029101123877988806,0.7150768577938174,-19.31,0.92,0.6719564496609609,0.2887209393941035,0.9491011238779888,-0.04312040813285645,0.9929814166381057,0.0,0.0,0.0,0.0,0.0,0.0,0.00019146515442322904,0.00019146515442322904,0.0,0.0,0.0,0.0,-0.016856317836892124,-1.7054104986465501,0.0,0.0,0.0,0.0,0.01685631783689212,1.7054104986465504,1.7054938007348175,0.0,-0.9657958701850079,-97.71282390974852,0.0,0.0,0.0,0.0,0.9657958701850077,97.71282390974852,97.71759676783086
89,0.44681215286254883,1775825041.219074,0.488575282,-19.598720939394102,-0.029101123877988806,0.7150768577938174,-19.31,0.92,0.6719573949727028,0.2887209393941035,0.9491011238779888,-0.04311946282111456,0.9929813755882114,0.0,0.0,0.0,0.0,0.0,0.0,0.00018668046922933727,0.00018668046922933727,0.0,0.0,0.0,0.0,-0.016856317836892124,-1.7054104986465501,0.0,0.0,0.0,0.0,0.01685631783689212,1.7054104986465504,1.7054938007348175,0.0,-0.9657958701850079,-97.71282390974852,0.0,0.0,0.0,0.0,0.9657958701850077,97.71282390974852,97.71759676783086
90,0.45178651809692383,1775825041.2240484,0.49354957,-19.598720939394102,-0.029101123877988806,0.7150768577938174,-19.31,0.92,0.6719583166674161,0.2887209393941035,0.9491011238779888,-0.04311854112640123,0.9929813355647448,0.0,0.0,0.0,0.0,0.0,0.0,0.00018201627388372862,0.00018201627388372862,0.0,0.0,0.0,0.0,-0.016856317836892124,-1.7054104986465501,0.0,0.0,0.0,0.0,0.01685631783689212,1.7054104986465504,1.7054938007348175,0.0,-0.9657958701850079,-97.71282390974852,0.0,0.0,0.0,0.0,0.9657958701850077,97.71282390974852,97.71759676783086
91,0.4567887783050537,1775825041.2290506,0.498551901,-19.598720939394102,-0.029101123877988806,0.7150768577938174,-19.31,0.92,0.6719592153272235,0.2887209393941035,0.9491011238779888,-0.043117642466593886,0.992981296542363,0.0,0.0,0.0,0.0,0.0,0.0,0.00017746756057075334,0.00017746756057075334,0.0,0.0,0.0,0.0,-0.016856317836892124,-1.7054104986465501,0.0,0.0,0.0,0.0,0.01685631783689212,1.7054104986465504,1.7054938007348175,0.0,-0.9657958701850079,-97.71282390974852,0.0,0.0,0.0,0.0,0.9657958701850077,97.71282390974852,97.71759676783086
92,0.4617905616760254,1775825041.2340524,0.503553524,-19.598720939394102,-0.029101123877988806,0.7150768577938174,-19.31,0.92,0.6719600915361084,0.2887209393941035,0.9491011238779888,-0.043116766257708994,0.992981258495646,0.0,0.0,0.0,0.0,0.0,0.0,0.00017303406174190927,0.00017303406174190927,0.0,0.0,0.0,0.0,-0.016856317836892124,-1.7054104986465501,0.0,0.0,0.0,0.0,0.01685631783689212,1.7054104986465504,1.7054938007348175,0.0,-0.9657958701850079,-97.71282390974852,0.0,0.0,0.0,0.0,0.9657958701850077,97.71282390974852,97.71759676783086
93,0.466796875,1775825041.2390587,0.508559987,-19.598720939394102,-0.029101123877988806,0.7150768577938174,-19.31,0.92,0.6719609458504285,0.2887209393941035,0.9491011238779888,-0.04311591194338882,0.9929812214003774,0.0,0.0,0.0,0.0,0.0,0.0,0.0001687102073753397,0.0001687102073753397,0.0,0.0,0.0,0.0,-0.016856317836892124,-1.7054104986465501,0.0,0.0,0.0,0.0,0.01685631783689212,1.7054104986465504,1.7054938007348175,0.0,-0.9657958701850079,-97.71282390974852,0.0,0.0,0.0,0.0,0.9657958701850077,97.71282390974852,97.71759676783086
94,0.47180747985839844,1775825041.2440693,0.513570514,-19.598720939394102,-0.029101123877988806,0.7150768577938174,-19.31,0.92,0.6719617788183586,0.2887209393941035,0.9491011238779888,-0.04311507897545874,0.9929811852326987,0.0,0.0,0.0,0.0,0.0,0.0,0.00016449399330681252,0.00016449399330681252,0.0,0.0,0.0,0.0,-0.016856317836892124,-1.7054104986465501,0.0,0.0,0.0,0.0,0.01685631783689212,1.7054104986465504,1.7054938007348175,0.0,-0.9657958701850079,-97.71282390974852,0.0,0.0,0.0,0.0,0.9657958701850077,97.71282390974852,97.71759676783086
95,0.47678375244140625,1775825041.2490456,0.518546811,-19.598720939394102,-0.029101123877988806,0.7150768577938174,-19.31,0.92,0.6719625909637074,0.2887209393941035,0.9491011238779888,-0.04311426683010999,0.9929811499698135,0.0,0.0,0.0,0.0,0.0,0.0,0.0001603821611600555,0.0001603821611600555,0.0,0.0,0.0,0.0,-0.016856317836892124,-1.7054104986465501,0.0,0.0,0.0,0.0,0.01685631783689212,1.7054104986465504,1.7054938007348175,0.0,-0.9657958701850079,-97.71282390974852,0.0,0.0,0.0,0.0,0.9657958701850077,97.71282390974852,97.71759676783086
96,0.4817814826965332,1775825041.2540433,0.523544636,-19.598720939394102,-0.029101123877988806,0.7150768577938174,-19.31,0.92,0.671963382814701,0.2887209393941035,0.9491011238779888,-0.04311347497911633,0.9929811155887357,0.0,0.0,0.0,0.0,0.0,0.0,0.00015637458772913037,0.00015637458772913037,0.0,0.0,0.0,0.0,-0.016856317836892124,-1.7054104986465501,0.0,0.0,0.0,0.0,0.01685631783689212,1.7054104986465504,1.7054938007348175,0.0,-0.9657958701850079,-97.71282390974852,0.0,0.0,0.0,0.0,0.9657958701850077,97.71282390974852,97.71759676783086
97,0.48677992820739746,1775825041.2590418,0.528543041,-19.598720939394102,-0.029101123877988806,0.7150768577938174,-19.31,0.92,0.6719641548751863,0.2887209393941035,0.9491011238779888,-0.04311270291863101,0.9929810820675413,0.0,0.0,0.0,0.0,0.0,0.0,0.00015246671616209022,0.00015246671616209022,0.0,0.0,0.0,0.0,-0.016856317836892124,-1.7054104986465501,0.0,0.0,0.0,0.0,0.01685631783689212,1.7054104986465504,1.7054938007348175,0.0,-0.9657958701850079,-97.71282390974852,0.0,0.0,0.0,0.0,0.9657958701850077,97.71282390974852,97.71759676783086
98,0.4917900562286377,1775825041.264052,0.533553097,-19.598720939394102,-0.029101123877988806,0.7150768577938174,-19.31,0.92,0.6719649076474405,0.2887209393941035,0.9491011238779888,-0.04311195014637681,0.9929810493843771,0.0,0.0,0.0,0.0,0.0,0.0,0.00014865767330474435,0.00014865767330474435,0.0,0.0,0.0,0.0,-0.016856317836892124,-1.7054104986465501,0.0,0.0,0.0,0.0,0.01685631783689212,1.7054104986465504,1.7054938007348175,0.0,-0.9657958701850079,-97.71282390974852,0.0,0.0,0.0,0.0,0.9657958701850077,97.71282390974852,97.71759676783086
99,0.4967844486236572,1775825041.2690463,0.538547526,-19.598720939394102,-0.029101123877988806,0.7150768577938174,-19.31,0.92,0.6719656416094115,0.2887209393941035,0.9491011238779888,-0.04311121618440583,0.9929810175184487,0.0,0.0,0.0,0.0,0.0,0.0,0.00014494338062925674,0.00014494338062925674,0.0,0.0,0.0,0.0,-0.016856317836892124,-1.7054104986465501,0.0,0.0,0.0,0.0,0.01685631783689212,1.7054104986465504,1.7054938007348175,0.0,-0.9657958701850079,-97.71282390974852,0.0,0.0,0.0,0.0,0.9657958701850077,97.71282390974852,97.71759676783086
100,0.5017590522766113,1775825041.274021,0.543522194,-19.598720939394102,-0.029101123877988806,0.7150768577938174,-19.31,0.92,0.6719663572374872,0.2887209393941035,0.9491011238779888,-0.043110500556330145,0.9929809864490319,0.0,0.0,0.0,0.0,0.0,0.0,0.00014132244163031873,0.00014132244163031873,0.0,0.0,0.0,0.0,-0.016856317836892124,-1.7054104986465501,0.0,0.0,0.0,0.0,0.01685631783689212,1.7054104986465504,1.7054938007348175,0.0,-0.9657958701850079,-97.71282390974852,0.0,0.0,0.0,0.0,0.9657958701850077,97.71282390974852,97.71759676783086
101,0.506788969039917,1775825041.2790508,0.548552043,-19.598720939394102,-0.029101123877988806,0.7150768577938174,-19.31,0.92,0.6719670549830048,0.2887209393941035,0.9491011238779888,-0.04310980281081256,0.9929809561564926,0.0,0.0,0.0,0.0,0.0,0.0,0.00013779125988494644,0.00013779125988494644,0.0,0.0,0.0,0.0,-0.016856317836892124,-1.7054104986465501,0.0,0.0,0.0,0.0,0.01685631783689212,1.7054104986465504,1.7054938007348175,0.0,-0.9657958701850079,-97.71282390974852,0.0,0.0,0.0,0.0,0.9657958701850077,97.71282390974852,97.71759676783086
102,0.5110645294189453,1775825041.2833264,0.55282766,-19.598720939394102,-0.029101123877988806,0.7150768577938174,-19.31,0.92,0.6719676006093779,0.2887209393941035,0.9491011238779888,-0.043109257184439476,0.9929809324685289,0.0,0.0,0.0,0.0,0.0,0.0,0.00013503097364266634,0.00013503097364266634,0.0,0.0,0.0,0.0,-0.016856317836892124,-1.7054104986465501,0.0,0.0,0.0,0.0,0.01685631783689212,1.7054104986465504,1.7054938007348175,0.0,-0.9657958701850079,-97.71282390974852,0.0,0.0,0.0,0.0,0.9657958701850077,97.71282390974852,97.71759676783086
103,0.5167849063873291,1775825041.2890468,0.558547907,-19.598720939394102,-0.029101123877988806,0.7150768577938174,-19.31,0.92,0.6719683986232773,0.2887209393941035,0.9491011238779888,-0.04310845917054007,0.9929808978238873,0.0,0.0,0.0,0.0,0.0,0.0,0.00013099459405709066,0.00013099459405709066,0.0,0.0,0.0,0.0,-0.016856317836892124,-1.7054104986465501,0.0,0.0,0.0,0.0,0.01685631783689212,1.7054104986465504,1.7054938007348175,0.0,-0.9657958701850079,-97.71282390974852,0.0,0.0,0.0,0.0,0.9657958701850077,97.71282390974852,97.71759676783086
104,0.5217831134796143,1775825041.294045,0.563546169,-19.598720939394102,-0.029101123877988806,0.7150768577938174,-19.31,0.92,0.671969045383385,0.2887209393941035,0.9491011238779888,-0.04310781241043238,0.992980869746184,0.0,0.0,0.0,0.0,0.0,0.0,0.0001277223516176053,0.0001277223516176053,0.0,0.0,0.0,0.0,-0.016856317836892124,-1.7054104986465501,0.0,0.0,0.0,0.0,0.01685631783689212,1.7054104986465504,1.7054938007348175,0.0,-0.9657958701850079,-97.71282390974852,0.0,0.0,0.0,0.0,0.9657958701850077,97.71282390974852,97.71759676783086
105,0.5267856121063232,1775825041.2990475,0.568548691,-19.598720939394102,-0.029101123877988806,0.7150768577938174,-19.31,0.92,0.6719696759795825,0.2887209393941035,0.9491011238779888,-0.043107181814234896,0.9929808423706071,0.0,0.0,0.0,0.0,0.0,0.0,0.0001245300318582275,0.0001245300318582275,0.0,0.0,0.0,0.0,-0.016856317836892124,-1.7054104986465501,0.0,0.0,0.0,0.0,0.01685631783689212,1.7054104986465504,1.7054938007348175,0.0,-0.9657958701850079,-97.71282390974852,0.0,0.0,0.0,0.0,0.9657958701850077,97.71282390974852,97.71759676783086
