sample_idx,t_rel_s,stamp_s,t_in_traj_s,x_des_m,y_des_m,z_des_m,x_act_m,y_act_m,z_act_m,ex_m,ey_m,ez_m,e_pos_norm_m,vx_des_mps,vy_des_mps,vz_des_mps,speed_des_mps,vx_act_mps,vy_act_mps,vz_act_mps,speed_act_mps,wx_act_radps,wy_act_radps,wz_act_radps,roll_des_rad,pitch_des_rad,yaw_des_rad,roll_act_rad,pitch_act_rad,yaw_act_rad,e_roll_rad,e_pitch_rad,e_yaw_rad,e_ang_norm_rad,roll_des_deg,pitch_des_deg,yaw_des_deg,roll_act_deg,pitch_act_deg,yaw_act_deg,e_roll_deg,e_pitch_deg,e_yaw_deg,e_ang_norm_deg
0,0.0008444786071777344,1775788850.6247547,0.928959312,-16.40894665555834,-0.18111815883074225,0.5192708149876258,-19.42102553493561,0.2591319177929588,0.6269801358232481,-3.0120788793772704,0.4402500766237011,0.10770932083562224,3.045987623637476,0.0,0.0,0.0,0.0,-0.18344914496390766,-0.5744407317928407,0.6249343640826757,0.868434627673322,1.1798589349153548,0.3620646138767849,-1.8315400796769652,0.0,0.0,0.0,0.13092876853807192,-0.02287167752088837,-1.8543406608646011,0.13092876853807178,-0.02287167752088859,-1.8543406608646011,1.859097830292769,0.0,0.0,0.0,7.501665854076759,-1.3104505923311414,-106.24589364704156,7.501665854076751,-1.310450592331154,-106.24589364704156,106.51845937770423
1,0.005865573883056641,1775788850.6297758,0.933980451,-16.40894665555834,-0.18111815883074225,0.5192708149876258,-19.421973233736196,0.2562745360642971,0.6302317107053027,-3.0130265781778576,0.4373926948950394,0.11096089571767687,3.046629916929882,0.0,0.0,0.0,0.0,-0.1957661663075163,-0.5684945997645541,0.6759546220605802,0.9046685320697656,1.1820737302010578,0.30074044678123785,-1.5725852484835101,0.0,0.0,0.0,0.13701045241886783,-0.020096783361902463,-1.8625577778317388,0.13701045241886778,-0.02009678336190257,-1.8625577778317388,1.8676983751492164,0.0,0.0,0.0,7.850120672779108,-1.1514608684257448,-106.71669976902388,7.850120672779105,-1.151460868425751,-106.71669976902388,107.01123429949162
2,0.010849714279174805,1775788850.63476,0.93896444,-16.40894665555834,-0.18111815883074225,0.5192708149876258,-19.4229845402932,0.2534471630269677,0.6337420801437517,-3.0140378847348614,0.4345653218577099,0.11447126515612582,3.0473554207090348,0.0,0.0,0.0,0.0,-0.2088893951136522,-0.5624337969452663,0.7284147247340739,0.9436919871158349,1.1835897435377034,0.24772342984691897,-1.3096121837141284,0.0,0.0,0.0,0.14305629274906806,-0.0177369789362429,-1.869504809717947,0.14305629274906817,-0.01773697893624293,-1.869504809717947,1.8750541157191782,0.0,0.0,0.0,8.19652180730956,-1.0162540343591586,-107.11473537624641,8.196521807309567,-1.0162540343591604,-107.11473537624641,107.43268718934358
3,0.01609063148498535,1775788850.6400008,0.944205492,-16.40894665555834,-0.18111815883074225,0.5192708149876258,-19.424063442767146,0.2506504221169104,0.6375179052284674,-3.0151167872088074,0.4317685809476527,0.11824709024084157,3.0481692410941252,0.0,0.0,0.0,0.0,-0.2228016803346523,-0.5562386595951538,0.7821040692404894,0.9852557080832824,1.184567632417438,0.2021603357925746,-1.0431566325161674,0.0,0.0,0.0,0.1490717081968167,-0.015771507449083347,-1.875163157719959,0.14907170819681692,-0.015771507449083177,-1.875163157719959,1.8811453911652394,0.0,0.0,0.0,8.541179724483356,-0.903640813391615,-107.43893483577799,8.541179724483369,-0.9036408133916052,-107.43893483577799,107.78169156425456
4,0.020847797393798828,1775788850.644758,0.948962639,-16.40894665555834,-0.18111815883074225,0.5192708149876258,-19.42521384397013,0.24788502932813689,0.6415648611367832,-3.016267188411792,0.42900318815887917,0.1222940461491574,3.0490764701895543,0.0,0.0,0.0,0.0,-0.23748611181566623,-0.5498918684852878,0.8368383694841905,1.0291157257434767,1.1851416365536214,0.16329194309147257,-0.7736859269195691,0.0,0.0,0.0,0.1550613666659764,-0.01418345606586521,-1.8795166826165437,0.15506136666597659,-0.01418345606586513,-1.8795166826165437,1.8859555026808534,0.0,0.0,0.0,8.884361875490997,-0.812652171483303,-107.68837343835742,8.884361875491008,-0.8126521714832985,-107.68837343835742,108.05729065308651
5,0.02651381492614746,1775788850.650424,0.95462855,-16.40894665555834,-0.18111815883074225,0.5192708149876258,-19.426439541373085,0.24515177206554656,0.6458876111859845,-3.0174928858147467,0.42626993089628884,0.12661679619835864,3.0500821600423276,0.0,0.0,0.0,0.0,-0.25291069805346006,-0.5433847817082597,0.892351712340131,1.0749522876381004,1.185415043037827,0.12018878153444189,-0.5018802953200742,0.0,0.0,0.0,0.1610291432802736,-0.012973717870116388,-1.8825541493640654,0.1610291432802735,-0.012973717870116364,-1.8825541493640654,1.8894731613941522,0.0,0.0,0.0,9.226290288567098,-0.7433392785511246,-107.86240746340174,9.226290288567093,-0.7433392785511231,-107.86240746340174,108.25883765112596
6,0.0317683219909668,1775788850.6556785,0.959883012,-16.40894665555834,-0.18111815883074225,0.5192708149876258,-19.427744068455713,0.24245144370568938,0.6504888848909507,-3.0187974128973742,0.4235696025364316,0.13121806990332485,3.051191113348671,0.0,0.0,0.0,0.0,-0.26900573236103337,-0.5367196482638533,0.9481718576426886,1.122257517908059,1.1854459255043033,0.03977998540187312,-0.228958902543783,0.0,0.0,0.0,0.16697825309136227,-0.012259634295220586,-1.88428848800645,0.16697825309136238,-0.01225963429522059,-1.88428848800645,1.8917122248566587,0.0,0.0,0.0,9.567149172602349,-0.7024253034899811,-107.96177774785683,9.567149172602356,-0.7024253034899813,-107.96177774785683,108.38712653758952
7,0.035849809646606445,1775788850.65976,0.963964574,-16.40894665555834,-0.18111815883074225,0.5192708149876258,-19.42913057900266,0.23978486140414548,0.6553690683979847,-3.0201839234443213,0.42090302023488774,0.13609825341035886,3.0524077411865758,0.0,0.0,0.0,0.0,-0.28568552368365296,-0.5298830933815777,1.003817878323073,1.1704882075164484,1.1853538555220782,-0.10923807749879096,0.043833974441512415,0.0,0.0,0.0,0.17291110862667897,-0.012319233044646235,-1.8847682867208586,0.1729111086266788,-0.012319233044646438,-1.8847682867208586,1.892723305086614,0.0,0.0,0.0,9.907076755236824,-0.7058400602963285,-107.98926818920825,9.907076755236815,-0.7058400602963402,-107.98926818920825,108.44505716751507
8,0.04085040092468262,1775788850.6647606,0.968965233,-16.40894665555834,-0.18111815883074225,0.5192708149876258,-19.43060166511685,0.23715294491372288,0.6605256090861329,-3.0216550095585113,0.41827110374446513,0.14125479409850705,3.053735848084027,0.0,0.0,0.0,0.0,-0.3028102741196161,-0.5228458438702699,1.0585966310968424,1.2188882909989724,1.1854659788869968,-0.33606085102824335,0.3146971274338412,0.0,0.0,0.0,0.17882896660802539,-0.013543735326170554,-1.884074835758253,0.17882896660802539,-0.01354373532617048,-1.884074835758253,1.892591138836428,0.0,0.0,0.0,10.246145041325784,-0.7759988730318121,-107.94953637575166,10.246145041325784,-0.7759988730318079,-107.94953637575166,108.43748459918535
9,0.046953678131103516,1775788850.6708639,0.975068393,-16.4059798922873,-0.15295335536544377,0.5192708149876258,-19.432159136320607,0.23455682812014783,0.6659523322877059,-3.026179244033308,0.38751018348559163,0.14668151730008006,3.0544132704728244,0.0,0.0,0.0,0.0,-0.3202068776999409,-0.5155530299182661,1.1117525529775283,1.266617981175185,1.1863644570371632,-0.6262512035947772,0.5816621438398641,0.0,0.0,0.0,0.1847316041362906,-0.01629329774047898,-1.8823002138890108,0.18473160413629053,-0.01629329774047905,-1.8823002138890108,1.8914135804536887,0.0,0.0,0.0,10.584341259690913,-0.9335371948794859,-107.84785803241246,10.584341259690909,-0.9335371948794902,-107.84785803241246,108.37001547372414
10,0.051198720932006836,1775788850.675109,0.979313511,-16.4059798922873,-0.15295335536544377,0.5192708149876258,-19.4338038773727,0.2319979647834057,0.6716392251650959,-3.0278239850854014,0.3849513201488495,0.15236841017747005,3.055997666223388,0.0,0.0,0.0,0.0,-0.3376913950091208,-0.507929054339333,1.162575243531079,1.3128627496340213,1.188816178350077,-0.9629712453759629,0.8428752225185543,0.0,0.0,0.0,0.19061751730700724,-0.020846109155547774,-1.879537507259335,0.19061751730700704,-0.020846109155547854,-1.879537507259335,1.8892937408899249,0.0,0.0,0.0,10.92157924295344,-1.194394073881912,-107.68956660249923,10.92157924295343,-1.1943940738819165,-107.68956660249923,108.24855761347563
11,0.056052207946777344,1775788850.6799624,0.984167035,-16.4059798922873,-0.15295335536544377,0.5192708149876258,-19.43553593886781,0.22947825093393848,0.6775733966808393,-3.029556046580513,0.3824316062993822,0.15830258169321343,3.0576990499785963,0.0,0.0,0.0,0.0,-0.3551038968278296,-0.49987965489929415,1.2105570624096802,1.3569918379542678,1.1936837278907937,-1.331173893472638,1.0970121971536908,0.0,0.0,0.0,0.19648443336058494,-0.027398670330066117,-1.8758762861560876,0.19648443336058508,-0.027398670330065933,-1.8758762861560876,1.8863373666053593,0.0,0.0,0.0,11.257728771580991,-1.5698281741830986,-107.47979408541892,11.257728771581,-1.5698281741830882,-107.47979408541892,108.079169844309
12,0.060851097106933594,1775788850.6847613,0.988965831,-16.4059798922873,-0.15295335536544377,0.5192708149876258,-19.43735448387484,0.22700000236326048,0.6837390000779087,-3.031374591587543,0.37995335772870426,0.16446818509028283,3.059517323448055,0.0,0.0,0.0,0.0,-0.37226146380638814,-0.4913283292330207,1.255086068016464,1.3982929459420206,1.2018407885600477,-1.7157662633269217,1.3424767036993699,0.0,0.0,0.0,0.20232996620836236,-0.036070251161995415,-1.8714016186188989,0.2023299662083624,-0.03607025116199525,-1.8714016186188989,1.882653047275095,0.0,0.0,0.0,11.592653132763726,-2.066673157559191,-107.2234145208138,11.59265313276373,-2.066673157559181,-107.2234145208138,107.8680738963064
13,0.06636691093444824,1775788850.690277,0.994481784,-16.4059798922873,-0.15295335536544377,0.5192708149876258,-19.438870537093308,0.22504907559870685,0.6888260375449403,-3.0328906448060096,0.37800243096415065,0.16955522255731448,3.0610554510924954,0.0,0.0,0.0,0.0,-0.3857178692251716,-0.48407053664164995,1.2880112664658252,1.4290120998882552,1.2112859246868914,-2.0267202321934508,1.5320561124066165,0.0,0.0,0.0,0.20698966005292738,-0.044568375349705494,-1.867288924761786,0.20698966005292752,-0.04456837534970548,-1.867288924761786,1.87925490234512,0.0,0.0,0.0,11.859633923880391,-2.553579807293019,-106.98777452037186,11.859633923880398,-2.5535798072930183,-106.98777452037186,107.67337453364505
14,0.07086563110351562,1775788850.6947758,0.998980366,-16.4059798922873,-0.15295335536544377,0.5192708149876258,-19.440439816037244,0.223127975759462,0.6940396569978668,-3.034459923749946,0.37608133112490577,0.174768842010241,3.0626668680421005,0.0,0.0,0.0,0.0,-0.39886738775639796,-0.47640927006264405,1.3183672268666686,1.4574474709207685,1.2237257721359813,-2.33351188998849,1.7151587117065168,0.0,0.0,0.0,0.21163376082420382,-0.0544508444571768,-1.8627415496649893,0.2116337608242036,-0.05445084445717674,-1.8627415496649893,1.8755158821057798,0.0,0.0,0.0,12.125721297707981,-3.1198035783195426,-106.7272291194625,12.125721297707969,-3.119803578319539,-106.7272291194625,107.45914445441686
15,0.07596874237060547,1775788850.699879,1.004083494,-16.4059798922873,-0.15295335536544377,0.5192708149876258,-19.442474256433393,0.22077110231936992,0.7007188293322423,-3.036494364146094,0.37372445768481366,0.18144801434461644,3.0647824352916806,0.0,0.0,0.0,0.0,-0.4148116562673154,-0.46622561781594246,1.3526023080194007,1.4896200994020254,1.2439433533294677,-2.7032094848535593,1.9346930214701616,0.0,0.0,0.0,0.21741653453075582,-0.06870576129669638,-1.8564932575654904,0.2174165345307557,-0.06870576129669637,-1.8564932575654904,1.8704431684787561,0.0,0.0,0.0,12.457049824972636,-3.936550150533981,-106.36922835299629,12.457049824972628,-3.93655015053398,-106.36922835299629,107.1684993729099
16,0.0808858871459961,1775788850.704796,1.009000675,-16.4059798922873,-0.15295335536544377,0.5192708149876258,-19.444586920360948,0.21846688469118583,0.7075586527887391,-3.038607028073649,0.3714202400566296,0.18828783780111324,3.0670079842814424,0.0,0.0,0.0,0.0,-0.4301507530478947,-0.45534270750052447,1.3826301698870955,1.5179040939083066,1.2697452841422123,-3.0485827297448345,2.143648821420728,0.0,0.0,0.0,0.22317454513698234,-0.08497846634241636,-1.8496650555042047,0.22317454513698243,-0.08497846634241624,-1.8496650555042047,1.8650171674524556,0.0,0.0,0.0,12.78695953110098,-4.868907470914975,-105.97800119322208,12.786959531100983,-4.868907470914968,-105.97800119322208,106.85761241446923
17,0.0858469009399414,1775788850.709757,1.013961562,-16.4059798922873,-0.15295335536544377,0.5192708149876258,-19.446774714127983,0.21621886706065158,0.7145381954872758,-3.0407948218406844,0.3691722224260954,0.19526738049964998,3.0693404223434286,0.0,0.0,0.0,0.0,-0.4448585437357013,-0.44374705138346987,1.4084876492209335,1.5422866230224797,1.3013786817059936,-3.362447302670327,2.342158116098268,0.0,0.0,0.0,0.2289080750158925,-0.10312708376020378,-1.8422951599068798,0.22890807501589272,-0.10312708376020385,-1.8422951599068798,1.8593239519859581,0.0,0.0,0.0,13.115466594874684,-5.908746652951809,-105.55573728004332,13.115466594874698,-5.9087466529518125,-105.55573728004332,106.53141519638032
18,0.09106040000915527,1775788850.7149706,1.019175132,-16.4059798922873,-0.15295335536544377,0.5192708149876258,-19.448122113349566,0.21489849931121427,0.7187842841652996,-3.0421422210622673,0.36785185467665804,0.19951346917767376,3.07078978514356,0.0,0.0,0.0,0.0,-0.4533681670918447,-0.43645718465510863,1.4219884268558889,1.5550204677371189,1.3231890514398432,-3.532859722838509,2.4562328797178847,0.0,0.0,0.0,0.23233644536000417,-0.11484522582779362,-1.837624718977034,0.23233644536000408,-0.11484522582779366,-1.837624718977034,1.855810943370413,0.0,0.0,0.0,13.311897746200097,-6.580146737159411,-105.28814072629801,13.311897746200092,-6.580146737159413,-105.28814072629801,106.33013462931649
19,0.09762358665466309,1775788850.7215338,1.025738289,-16.404237819459354,-0.13365885546087855,0.5192708149876258,-19.450891739513438,0.2123251860481336,0.7273868670473624,-3.0466539200540836,0.3459840415090122,0.2081160520597366,3.073290965184513,0.0,0.0,0.0,0.0,-0.4696841955197449,-0.4211596461876461,1.4445582189152744,1.5763017283926333,1.3730673004823146,-3.8284457775662926,2.6733615733828584,0.0,0.0,0.0,0.23916561882217907,-0.13994538781250343,-1.827740970539432,0.23916561882217913,-0.13994538781250343,-1.827740970539432,1.848627047347575,0.0,0.0,0.0,13.703180563145464,-8.018280083977995,-104.7218436550544,13.703180563145466,-8.018280083977995,-104.7218436550544,105.91852770674706
20,0.10357928276062012,1775788850.7274895,1.031693937,-16.404237819459354,-0.13365885546087855,0.5192708149876258,-19.453272654061983,0.21025270529984844,0.7346472722112611,-3.0490348346026295,0.343911560760727,0.2153764572236353,3.075918659940696,0.0,0.0,0.0,0.0,-0.48257896467358713,-0.40773411874605753,1.4589545078638677,1.5898672349449043,1.420719048919134,-4.025053306051655,2.8433805215425445,0.0,0.0,0.0,0.24482530965326774,-0.16233211626067975,-1.8189570633065004,0.24482530965326754,-0.1623321162606799,-1.8189570633065004,1.8425243407806307,0.0,0.0,0.0,14.027456961115734,-9.300945141163952,-104.21856284297297,14.027456961115723,-9.300945141163961,-104.21856284297297,105.56886837685437
21,0.10622859001159668,1775788850.7301388,1.034343401,-16.404237819459354,-0.13365885546087855,0.5192708149876258,-19.454731611782954,0.20904194299957435,0.7390346538838956,-3.0504937923236,0.34270079846045287,0.21976383889626971,3.0775399849809713,0.0,0.0,0.0,0.0,-0.49002015785763176,-0.3994129769324171,1.4657206931755205,1.5962417209344462,1.4517806215040736,-4.120189437878417,2.9407799602170197,0.0,0.0,0.0,0.24820492731947932,-0.1763025528790976,-1.8134460783531676,0.2482049273194793,-0.1763025528790978,-1.8134460783531676,1.8388243404936313,0.0,0.0,0.0,14.22109478975751,-10.101392197354313,-103.9028066641869,14.221094789757508,-10.101392197354324,-103.9028066641869,105.35687397621211
22,0.11562728881835938,1775788850.7395375,1.043742126,-16.404237819459354,-0.13365885546087855,0.5192708149876258,-19.455716497089515,0.2082487380227796,0.7419698850390347,-3.0514786776301612,0.3419075934836582,0.22269907005140888,3.0786389522506643,0.0,0.0,0.0,0.0,-0.49484721562221284,-0.39378193444451726,1.4693988666918771,1.5997096637012904,1.4734433098932798,-4.173268148729014,3.0036506388262216,0.0,0.0,0.0,0.25045010863397904,-0.18580780861598598,-1.8096702599892318,0.250450108633979,-0.18580780861598578,-1.8096702599892318,1.8363431728701856,0.0,0.0,0.0,14.34973420331998,-10.64600323427053,-103.68646820772538,14.349734203319976,-10.64600323427052,-103.68646820772538,105.21471354312416
23,0.11670756340026855,1775788850.7406178,1.04482224,-16.404237819459354,-0.13365885546087855,0.5192708149876258,-19.456710929739476,0.2074668533978503,0.7449118066247461,-3.052473110280122,0.34112570885872884,0.22564099163712026,3.0797520509506207,0.0,0.0,0.0,0.0,-0.49956807695277733,-0.38809350758794897,1.4724137183890083,1.6025563928431221,1.4958190834637337,-4.217926433916575,3.0648785572271127,0.0,0.0,0.0,0.25268813621828357,-0.19544691766062353,-1.8058117204400668,0.2526881362182838,-0.1954469176606235,-1.8058117204400668,1.8338502560152565,0.0,0.0,0.0,14.477963738334488,-11.198283500794641,-103.46539017647392,14.4779637383345,-11.19828350079464,-103.46539017647392,105.07187992865971
24,0.12177848815917969,1775788850.7456887,1.049893187,-16.404237819459354,-0.13365885546087855,0.5192708149876258,-19.459237432745756,0.20556236604066822,0.7522873794724719,-3.0549996132864017,0.33922122150154677,0.2330165644848461,3.082594750144979,0.0,0.0,0.0,0.0,-0.5109322464730057,-0.3736526192419443,1.477167852260155,1.6070758862303909,1.5545639268182665,-4.293261287046028,3.21107699515952,0.0,0.0,0.0,0.2582459251629231,-0.22002111305100758,-1.7957941151470005,0.2582459251629232,-0.2200211130510077,-1.7957941151470005,1.8275603278819708,0.0,0.0,0.0,14.7964015882868,-12.60628118159349,-102.89142367235331,14.796401588286807,-12.606281181593497,-102.89142367235331,104.71149359318183
25,0.12749934196472168,1775788850.7514095,1.055614027,-16.404237819459354,-0.13365885546087855,0.5192708149876258,-19.461819295599348,0.20373074976368905,0.7596772351347958,-3.057581476139994,0.3373896052245676,0.24040642014716995,3.085519644370457,0.0,0.0,0.0,0.0,-0.5217213511279799,-0.35895970266984,1.4781666966641156,1.6081113206151272,1.6166768735058825,-4.318166284000072,3.348038126730384,0.0,0.0,0.0,0.2637360285234806,-0.24507316845499444,-1.7852238916824756,0.26373602852348066,-0.2450731684549945,-1.7852238916824756,1.8211649826613272,0.0,0.0,0.0,15.110961339937335,-14.041658224369844,-102.28579447932589,15.110961339937338,-14.041658224369847,-102.28579447932589,104.3450673035098
26,0.13170075416564941,1775788850.755611,1.059815551,-16.404237819459354,-0.13365885546087855,0.5192708149876258,-19.464453782011656,0.20197304395736318,0.7670631879599614,-3.060215962552302,0.33563189941824173,0.24779237297233558,3.088522554470061,0.0,0.0,0.0,0.0,-0.5319924190457388,-0.3441009555009201,1.475652764722295,1.6059179566625863,1.6813062581062994,-4.294613911174107,3.476386953399278,0.0,0.0,0.0,0.2691355150518061,-0.27035758170238566,-1.7740671182594534,0.269135515051806,-0.27035758170238555,-1.7740671182594534,1.8146187719561275,0.0,0.0,0.0,15.420329129548131,-15.490348390910029,-101.64655844920298,15.420329129548126,-15.490348390910022,-101.64655844920298,103.96999705829849
27,0.1361370086669922,1775788850.7600472,1.064251713,-16.404237819459354,-0.13365885546087855,0.5192708149876258,-19.4665976115972,0.20062053278997632,0.7729577313266552,-3.0623597921378476,0.3342793882508549,0.2536869163390294,3.090978365733661,0.0,0.0,0.0,0.0,-0.5398744307094555,-0.33215102142044045,1.4712754086144395,1.6020112452658022,1.7342264989322282,-4.242814316841994,3.5732783409245044,0.0,0.0,0.0,0.2733706798861481,-0.2905957306648536,-1.764692715420401,0.27337067988614816,-0.29059573066485367,-1.764692715420401,1.8092312696722561,0.0,0.0,0.0,15.66298620009815,-16.649908911616507,-101.10944473106983,15.662986200098153,-16.64990891161651,-101.10944473106983,103.66131591531557
28,0.14150786399841309,1775788850.765418,1.069622587,-16.404237819459354,-0.13365885546087855,0.5192708149876258,-19.46932082908428,0.1989971317308565,0.780294692993081,-3.0650830096249244,0.33265598719173506,0.2610238780054551,3.0941117185057974,0.0,0.0,0.0,0.0,-0.5493461970171698,-0.31721477378548074,1.4630103698541501,1.5946177595855937,1.801138135638897,-4.13931957560127,3.6875572897000346,0.0,0.0,0.0,0.2785304867482198,-0.31572182720655984,-1.7523764043589705,0.2785304867482199,-0.31572182720656006,-1.7523764043589705,1.8022437589784914,0.0,0.0,0.0,15.958621356397499,-18.089528199094527,-100.40377208807956,15.958621356397504,-18.08952819909454,-100.40377208807956,103.26096104326032
29,0.14604711532592773,1775788850.7699573,1.07416182,-16.404237819459354,-0.13365885546087855,0.5192708149876258,-19.472090447069377,0.1974482613709029,0.7875830170168255,-3.067852627610023,0.33110711683178146,0.2683122020291997,3.0973122389110426,0.0,0.0,0.0,0.0,-0.5584415727575827,-0.3023531129474239,1.4518528115771763,1.5846611567074873,1.8680583627707992,-3.996284285700198,3.794755983009689,0.0,0.0,0.0,0.2835045938901846,-0.3404672365149186,-1.7393511653714269,0.2835045938901848,-0.3404672365149186,-1.7393511653714269,1.7948914369331326,0.0,0.0,0.0,16.243616702477965,-19.507335714787228,-99.65748086694407,16.243616702477972,-19.507335714787228,-99.65748086694407,102.83970402044027
30,0.1507277488708496,1775788850.774638,1.078842602,-16.403595653853735,-0.12579950322179959,0.5192708149876258,-19.474338346915097,0.19626244973710175,0.7933692322835411,-3.070742693061362,0.32206195295890133,0.2740984172959152,3.099728138223992,0.0,0.0,0.0,0.0,-0.5654743092170742,-0.29057245297599876,1.4409759371854425,1.5749937131177636,1.9210093739032825,-3.855715107028116,3.87572618319816,0.0,0.0,0.0,0.2873207527650652,-0.3598629247302362,-1.7283872957190163,0.2873207527650652,-0.35986292473023607,-1.7283872957190163,1.7886802910435888,0.0,0.0,0.0,16.462266499960013,-20.61862679027655,-99.02929740872938,16.462266499960013,-20.618626790276547,-99.02929740872938,102.48383157502938
31,0.15573406219482422,1775788850.7796443,1.083848893,-16.403595653853735,-0.12579950322179959,0.5192708149876258,-19.47718715048938,0.1948460398823756,0.8005355158231982,-3.073591496635647,0.32064554310417515,0.2812647008355723,3.103044969773988,0.0,0.0,0.0,0.0,-0.5740102681706644,-0.27601430713707836,1.4251722234614936,1.5610213170344271,1.9857610719846752,-3.6520083054182697,3.9715257683541703,0.0,0.0,0.0,0.2918469797415966,-0.3834645008481742,-1.7139607120904048,0.2918469797415968,-0.3834645008481741,-1.7139607120904048,1.780415964201759,0.0,0.0,0.0,16.721600202833525,-21.970897491691158,-98.2027150540174,16.72160020283353,-21.97089749169115,-98.2027150540174,102.01032052647585
32,0.16074490547180176,1775788850.784655,1.088859762,-16.403595653853735,-0.12579950322179959,0.5192708149876258,-19.480078156613935,0.19350210984324906,0.8076176217550453,-3.0764825027602,0.3193016130650487,0.2883468067674194,3.1064194808281402,0.0,0.0,0.0,0.0,-0.5823645113445115,-0.2615837465350011,1.4073460734351855,1.5453793873797637,2.0482470836871243,-3.425444163407659,4.062456722662979,0.0,0.0,0.0,0.2960558188032189,-0.4062280304099733,-1.6986882128726792,0.29605581880321896,-0.40622803040997324,-1.6986882128726792,1.7714999026504594,0.0,0.0,0.0,16.962748917714283,-23.27515166240353,-97.32766530622487,16.962748917714286,-23.275151662403527,-97.32766530622487,101.49946782970753
33,0.1657276153564453,1775788850.7896378,1.093842362,-16.403595653853735,-0.12579950322179959,0.5192708149876258,-19.483010524033656,0.19222986601813344,0.8146057935810496,-3.079414870179921,0.318029369239933,0.2953349785934237,3.1098490915099317,0.0,0.0,0.0,0.0,-0.5905557921646322,-0.2473546235894631,1.3876106159362012,1.52820275975707,2.107844563263814,-3.1793101756771978,4.148747622851228,0.0,0.0,0.0,0.2998967042839795,-0.42804777786524767,-1.6825259562816932,0.2998967042839795,-0.4280477778652476,-1.6825259562816932,1.7618332857956212,0.0,0.0,0.0,17.18281544535494,-24.52533110163207,-96.40163621615388,17.18281544535494,-24.525331101632066,-96.40163621615388,100.94561148175526
34,0.17073655128479004,1775788850.7946467,1.098851319,-16.403595653853735,-0.12579950322179959,0.5192708149876258,-19.485983448615357,0.1910280827298195,0.8214906635321628,-3.0823877947616225,0.3168275859516191,0.302219848544537,3.113331185943704,0.0,0.0,0.0,0.0,-0.5985868941023064,-0.23341463963477382,1.3660349236735871,1.5095827491339389,2.163965103027357,-2.915667056149193,4.230492777655624,0.0,0.0,0.0,0.3033182139683841,-0.4488278835687943,-1.6654320025672775,0.3033182139683843,-0.4488278835687942,-1.6654320025672775,1.7513172651376065,0.0,0.0,0.0,17.37885350983446,-25.71594345628102,-95.42222481312588,17.378853509834475,-25.715943456281018,-95.42222481312588,100.34308788077864
35,0.17573928833007812,1775788850.7996495,1.103854133,-16.403595653853735,-0.12579950322179959,0.5192708149876258,-19.488996109616615,0.18989507786494303,0.8282631463235233,-3.08540045576288,0.31569458108674264,0.30899233133589743,3.1168630547031917,0.0,0.0,0.0,0.0,-0.6064482661569073,-0.21985873403675266,1.3426628658656554,1.4895841479525544,2.2160132767142273,-2.6371326220751277,4.307702419905983,0.0,0.0,0.0,0.3062694754415608,-0.4684827218797176,-1.64736806964787,0.3062694754415607,-0.4684827218797176,-1.64736806964787,1.7398559162133016,0.0,0.0,0.0,17.54794833648705,-26.842082738508967,-94.38723769543641,17.547948336487043,-26.842082738508967,-94.38723769543641,99.68640095988916
36,0.18088078498840332,1775788850.804791,1.108995428,-16.403595653853735,-0.12579950322179959,0.5192708149876258,-19.492047639824982,0.1888287328824291,0.8349144213907578,-3.088451985971247,0.3146282361042287,0.31564360640313194,3.1204418730152583,0.0,0.0,0.0,0.0,-0.6141339607706112,-0.20676120120810287,1.3175661440711441,1.4682953586044325,2.260914179806925,-2.345670973020586,4.380331345052009,0.0,0.0,0.0,0.3086968617939981,-0.48693541512164,-1.6283006956009496,0.30869686179399825,-0.48693541512164007,-1.6283006956009496,1.727357231806925,0.0,0.0,0.0,17.68702732972936,-27.8993441819207,-93.29475763615058,17.68702732972937,-27.8993441819207,-93.29475763615058,98.9702790939378
37,0.1857311725616455,1775788850.8096414,1.113846012,-16.403595653853735,-0.12579950322179959,0.5192708149876258,-19.495137137645106,0.1878265874491274,0.8414360467808379,-3.091541483791371,0.31362609067092695,0.3221652317932121,3.1240647412191787,0.0,0.0,0.0,0.0,-0.621632776773037,-0.1941900583841397,1.2908134998629668,1.4457996332003524,2.2925487136168456,-2.0439370819970564,4.448159231695481,0.0,0.0,0.0,0.31052801246565737,-0.504117872383203,-1.6082032029352387,0.31052801246565753,-0.5041178723832029,-1.6082032029352387,1.7137327731338976,0.0,0.0,0.0,17.791944534867984,-28.883826464672175,-92.14325612761021,17.791944534867994,-28.88382646467217,-92.14325612761021,98.18965511382292
38,0.19072890281677246,1775788850.814639,1.118843551,-16.403595653853735,-0.12579950322179959,0.5192708149876258,-19.498263641517063,0.1868858735290047,0.8478199423202247,-3.0946679876633283,0.3126853767508043,0.3285491273325989,3.1277286691420336,0.0,0.0,0.0,0.0,-0.6289347280832025,-0.18219565470701213,1.2624892018704683,1.4221930718516178,2.3045644232666764,-1.7335793632545602,4.510999611315894,0.0,0.0,0.0,0.3116663557324284,-0.5199692793243575,-1.5870568355755756,0.3116663557324282,-0.5199692793243575,-1.5870568355755756,1.6988976920591141,0.0,0.0,0.0,17.8571667996911,-29.792045181744705,-90.93165852586833,17.857166799691086,-29.792045181744705,-90.93165852586833,97.33966757950343
39,0.19575953483581543,1775788850.8196697,1.123874316,-16.403595653853735,-0.12579950322179959,0.5192708149876258,-19.501426122086848,0.18600358190002,0.8540584257813566,-3.097830468233113,0.3118030851218196,0.33478761079373076,3.1314305865124723,0.0,0.0,0.0,0.0,-0.6360189662901089,-0.17083011190530153,1.232657483207345,1.3975505441741212,2.2894938568148184,-1.4169646865606074,4.568545025158278,0.0,0.0,0.0,0.3119892665310407,-0.5344339890516412,-1.5648514073584578,0.31198926653104087,-0.5344339890516414,-1.5648514073584578,1.6827706077169202,0.0,0.0,0.0,17.87566822561078,-30.620812000999887,-89.65938120674677,17.87566822561079,-30.620812000999898,-89.65938120674677,96.41565371084421
40,0.20239830017089844,1775788850.8263085,1.130512964,-16.403771602825948,-0.12800102451742582,0.5192708149876258,-19.504623433090433,0.18517646216308942,0.8601441266126781,-3.100851830264485,0.31317748668051526,0.3408733116250523,3.135212405244079,0.0,0.0,0.0,0.0,-0.6428639632900811,-0.1601308316909481,1.2013906352973134,1.371953139555119,2.2397649526549994,-1.0957512540078604,4.620509025710563,0.0,0.0,0.0,0.3113452737369793,-0.5474616057962591,-1.541587466565491,0.31134527373697907,-0.5474616057962591,-1.541587466565491,1.6652753545198409,0.0,0.0,0.0,17.838770156474226,-31.367239457580453,-88.32645558446754,17.83877015647421,-31.367239457580453,-88.32645558446754,95.4132495411388
41,0.20572686195373535,1775788850.829637,1.133841555,-16.403771602825948,-0.12800102451742582,0.5192708149876258,-19.507854236476735,0.18440098978884376,0.8660698483751474,-3.104082633650787,0.31240201430626957,0.3467990333875216,3.1389797043997496,0.0,0.0,0.0,0.0,-0.6493640635760402,-0.15024520987089776,1.168561222606631,1.3452816214953067,2.145084786509185,-0.7627384361138507,4.6658302668358065,0.0,0.0,0.0,0.3095521150133215,-0.5589948177112335,-1.517274130316118,0.3095521150133216,-0.5589948177112336,-1.517274130316118,1.6463348701475553,0.0,0.0,0.0,17.73602972961157,-32.02804382453848,-86.93340403149602,17.736029729611573,-32.028043824538486,-86.93340403149602,94.32803972467335
42,0.21073269844055176,1775788850.834643,1.138847487,-16.403771602825948,-0.12800102451742582,0.5192708149876258,-19.511115938051404,0.18367188331181614,0.8718260362502891,-3.1073443352254557,0.31167290782924195,0.35255522126266325,3.1427732980875396,0.0,0.0,0.0,0.0,-0.6552090619431059,-0.1415961016588103,1.1335750729376133,1.316943740955874,1.9855696653422064,-0.3937884995757779,4.701465682804109,0.0,0.0,0.0,0.3063434874675649,-0.5688596273377592,-1.4919033083777908,0.306343487467565,-0.5688596273377593,-1.4919033083777908,1.6257992156097387,0.0,0.0,0.0,17.552188913210298,-32.59325578183843,-85.47976301165197,17.5521889132103,-32.59325578183844,-85.47976301165197,93.15143339011777
43,0.21573686599731445,1775788850.839647,1.143851557,-16.403771602825948,-0.12800102451742582,0.5192708149876258,-19.514405335417553,0.18298321267323994,0.8774025604022365,-3.110633732591605,0.31098423719066576,0.3581317454146107,3.146587319810394,0.0,0.0,0.0,0.0,-0.6604603312743956,-0.1340350811665836,1.096767203194283,1.2872729120792634,1.7516422763762445,-0.0282650223791248,4.727869989801908,0.0,0.0,0.0,0.3014046494343454,-0.5769160637715445,-1.4655041565301665,0.3014046494343452,-0.5769160637715443,-1.4655041565301665,1.6035521008515712,0.0,0.0,0.0,17.269214338208126,-33.054855587409754,-83.96720302805811,17.269214338208116,-33.05485558740974,-83.96720302805811,91.87676760813157
44,0.22073030471801758,1775788850.8446405,1.148844987,-16.403771602825948,-0.12800102451742582,0.5192708149876258,-19.517719740889813,0.18233008458882807,0.8827913760225143,-3.113948138063865,0.3103311091062539,0.3635205610348885,3.1504167346758507,0.0,0.0,0.0,0.0,-0.6652247369462537,-0.12735213744496796,1.0585438126471434,1.2566851319445795,1.440638871872802,0.30532159329674075,4.746084871901315,0.0,0.0,0.0,0.2944391118987635,-0.5831912825469876,-1.438180503689254,0.2944391118987637,-0.5831912825469878,-1.438180503689254,1.579610592470945,0.0,0.0,0.0,16.870118435379325,-33.4143991387639,-82.40167303939319,16.87011843537934,-33.41439913876391,-82.40167303939319,90.50502022274459
45,0.22573590278625488,1775788850.849646,1.153850762,-16.403771602825948,-0.12800102451742582,0.5192708149876258,-19.521056828452036,0.1817084018774085,0.8879859854431701,-3.1172852256260875,0.30970942639483434,0.36871517045554425,3.1542571207224954,0.0,0.0,0.0,0.0,-0.6695416539242345,-0.12143605576905143,1.0191230982270665,1.2254161053782011,1.0515210249883638,0.5751953833377809,4.756629187542396,0.0,0.0,0.0,0.28517780233574874,-0.587848140840047,-1.4100958896385336,0.28517780233574896,-0.5878481408400469,-1.4100958896385336,1.5541113967826228,0.0,0.0,0.0,16.339484484654434,-33.681217464746695,-80.79254318503308,16.339484484654445,-33.68121746474669,-80.79254318503308,89.04402392882555
46,0.23072361946105957,1775788850.8546338,1.158838438,-16.403771602825948,-0.12800102451742582,0.5192708149876258,-19.524414569097022,0.18111474744362063,0.8929811354385575,-3.120642966271074,0.30911577196104645,0.37371032045093167,3.1581045718949428,0.0,0.0,0.0,0.0,-0.6735054644813002,-0.11610641740758075,0.9788183470560287,1.193807215333737,0.5883817679973571,0.7796660300265084,4.760603534912992,0.0,0.0,0.0,0.27337790067348333,-0.5911320136352967,-1.3814461748670224,0.27337790067348333,-0.5911320136352964,-1.3814461748670224,1.5272740645266942,0.0,0.0,0.0,15.66339992073722,-33.86936951637233,-79.15103544437189,15.66339992073722,-33.869369516372316,-79.15103544437189,87.50635805717053
47,0.23629140853881836,1775788850.8602016,1.164406132,-16.403771602825948,-0.12800102451742582,0.5192708149876258,-19.527114622506684,0.18065834229841696,0.8968311942374693,-3.1233430196807355,0.3086593668158428,0.3775603792498434,3.161185547115325,0.0,0.0,0.0,0.0,-0.6764998543852987,-0.11213025008393077,0.946164470031264,1.1685257593723632,0.16628113417126164,0.9026399265153896,4.759801876355737,0.0,0.0,0.0,0.26195101932206083,-0.5929156996416057,-1.358240319330456,0.26195101932206066,-0.5929156996416056,-1.358240319330456,1.504986421354113,0.0,0.0,0.0,15.008687846303964,-33.971567196510385,-77.82143786213634,15.008687846303955,-33.97156719651038,-77.82143786213634,86.22937016808807
48,0.24135088920593262,1775788850.865261,1.169465654,-16.403771602825948,-0.12800102451742582,0.5192708149876258,-19.53050612882781,0.1801095829677007,0.901459256981034,-3.1267345260018615,0.30811060748512653,0.3821884419934082,3.165038538111391,0.0,0.0,0.0,0.0,-0.6800732391961468,-0.10741490820787025,0.9050068219442544,1.1371345219197613,-0.4163108255285418,1.0141505070588597,4.7548133236749415,0.0,0.0,0.0,0.24499487037007117,-0.5942306968030908,-1.3290054210806745,0.24499487037007128,-0.5942306968030908,-1.3290054210806745,1.476275047812079,0.0,0.0,0.0,14.037172074559784,-34.04691098393516,-76.14640157792945,14.03717207455979,-34.04691098393516,-76.14640157792945,84.58432964010593
49,0.24676132202148438,1775788850.8706715,1.174876038,-16.40461401260214,-0.1380548124442064,0.5192708149876258,-19.533915103342228,0.17958387138056808,0.9058808730121368,-3.129301090740089,0.31763868382477445,0.386610058024511,3.169051433305361,0.0,0.0,0.0,0.0,-0.6834935975013231,-0.10289530724242464,0.8636109057473156,1.1061531262006685,-1.0510443350552858,1.0858975917303437,4.746254745115726,0.0,0.0,0.0,0.22489969221297046,-0.59464617910292,-1.2996412007109281,0.22489969221297024,-0.5946461791029201,-1.2996412007109281,1.4468072437144257,0.0,0.0,0.0,12.885803177594433,-34.07071636617776,-74.46395568205091,12.88580317759442,-34.07071636617777,-74.46395568205091,82.89594883379209
50,0.25094151496887207,1775788850.8748517,1.179056284,-16.40461401260214,-0.1380548124442064,0.5192708149876258,-19.536654386747518,0.1791793605597663,0.9092689125573625,-3.1320403741453795,0.3172341730039727,0.3899980975697367,3.1721306628047743,0.0,0.0,0.0,0.0,-0.6861337309779391,-0.09937151527370397,0.8303975154080901,1.0817644052331488,-1.589126898411058,1.1203814643983343,4.737424181146017,0.0,0.0,0.0,0.20645854822589088,-0.5943936370100052,-1.2761338652052534,0.20645854822589094,-0.5943936370100054,-1.2761338652052534,1.4228304782289507,0.0,0.0,0.0,11.829203457741718,-34.05624677010435,-73.11708456997772,11.829203457741722,-34.05624677010436,-73.11708456997772,81.52218136509944
51,0.2571117877960205,1775788850.881022,1.185226596,-16.40461401260214,-0.1380548124442064,0.5192708149876258,-19.538715685046505,0.17888515934680632,0.9117226916474118,-3.134101672444366,0.31693997179101274,0.392451876659786,3.1744389605773256,0.0,0.0,0.0,0.0,-0.6880567649148325,-0.09676735435962318,0.8054509385679076,1.0637373957207434,-2.002604931188252,1.1389275395334326,4.730106611743956,0.0,0.0,0.0,0.19121408198368184,-0.5938778565516087,-1.2585252224239702,0.19121408198368162,-0.5938778565516087,-1.2585252224239702,1.4046848291088285,0.0,0.0,0.0,10.955759881133481,-34.026694726682905,-72.10818365565669,10.955759881133469,-34.026694726682905,-72.10818365565669,80.48251225399116
52,0.2612004280090332,1775788850.8851106,1.189315266,-16.40461401260214,-0.1380548124442064,0.5192708149876258,-19.542163722249473,0.17841202338676715,0.9156458340377432,-3.1375497096473346,0.31646683583097357,0.3963750190501174,3.1782829632391016,0.0,0.0,0.0,0.0,-0.6911283991401386,-0.09250242947900658,0.7637873023934829,1.0342080094715198,-2.6738961226422124,1.185286735628677,4.718490154965736,0.0,0.0,0.0,0.1631460800455451,-0.592338358741046,-1.2292516382561314,0.1631460800455451,-0.592338358741046,-1.2292516382561314,1.374241960073133,0.0,0.0,0.0,9.347581830713231,-33.93848799956803,-70.43093083161854,9.347581830713231,-33.93848799956803,-70.43093083161854,78.73826434197632
53,0.26619863510131836,1775788850.8901088,1.194313287,-16.40461401260214,-0.1380548124442064,0.5192708149876258,-19.54562663300393,0.17795996375581624,0.9193603294571832,-3.141012620401792,0.3160147762000226,0.4000895144695573,3.18212149986272,0.0,0.0,0.0,0.0,-0.6939928351748696,-0.0883485672930078,0.7219679578128412,1.005320474637429,-3.3012897174908673,1.2579776046475344,4.70861993821694,0.0,0.0,0.0,0.13193019741054407,-0.5897799972187272,-1.2000992277180609,0.13193019741054401,-0.5897799972187272,-1.2000992277180609,1.3436830647431681,0.0,0.0,0.0,7.559043501951957,-33.7919046818705,-68.76062074515438,7.559043501951955,-33.7919046818705,-68.76062074515438,76.98736861298728
54,0.2712068557739258,1775788850.895117,1.199321634,-16.40461401260214,-0.1380548124442064,0.5192708149876258,-19.54910318099883,0.17752823368128945,0.9228650113094582,-3.1444891683966922,0.3155830461254958,0.40359419632183235,3.1859524579740097,0.0,0.0,0.0,0.0,-0.6965797144530061,-0.08437161072910844,0.6798571375746271,0.977009516225723,-3.842639766429008,1.3652494442070922,4.702357980478127,0.0,0.0,0.0,0.09795481914328384,-0.5859834148350209,-1.1711116549129865,0.09795481914328397,-0.5859834148350211,-1.1711116549129865,1.3131923763592828,0.0,0.0,0.0,5.612397719877446,-33.57437653471041,-67.09975516509543,5.612397719877453,-33.574376534710424,-67.09975516509543,75.24038085414209
55,0.27620363235473633,1775788850.9001138,1.2043183,-16.40461401260214,-0.1380548124442064,0.5192708149876258,-19.552591971663322,0.1771159920758692,0.9261584588232098,-3.1479779590611834,0.3151708045200756,0.40688764383558396,3.1897735689955984,0.0,0.0,0.0,0.0,-0.6988997866605277,-0.0805346959575581,0.6375047879542738,0.9493993383775506,-4.290854631642539,1.510014440232408,4.700290497377408,0.0,0.0,0.0,0.06173422566156424,-0.5807140141580779,-1.1423548763501066,0.06173422566156406,-0.5807140141580778,-1.1423548763501066,1.2829709834514917,0.0,0.0,0.0,3.537110581915853,-33.272462115358195,-65.45211312105013,3.537110581915843,-33.27246211535819,-65.45211312105013,73.50882258951906
56,0.28119516372680664,1775788850.9051054,1.209309812,-16.40461401260214,-0.1380548124442064,0.5192708149876258,-19.556091938069144,0.1767230253175473,0.9292402963044,-3.151477925467006,0.3147778377617537,0.40996948131677413,3.1935831251844586,0.0,0.0,0.0,0.0,-0.7010682778424265,-0.0766247376232577,0.5952769196930101,0.9228882336079366,-4.64553634750204,1.6976309331083193,4.703623927796763,0.0,0.0,0.0,0.02383937543767599,-0.5737285972507133,-1.1139207201305983,0.02383937543767578,-0.5737285972507133,-1.113920720130598,1.2532167369855862,0.0,0.0,0.0,1.3658955988066739,-32.87222720842688,-63.82295597565664,1.365895598806662,-32.87222720842688,-63.822955975656626,71.80402984443063
57,0.2875964641571045,1775788850.9115067,1.215711315,-16.40461401260214,-0.1380548124442064,0.5192708149876258,-19.558899577829475,0.17642307188454673,0.9315543369947704,-3.1542855652273367,0.3144778843287531,0.4122835220071446,3.1966218839975493,0.0,0.0,0.0,0.0,-0.7027521745625703,-0.07330397073087241,0.5618265241050291,0.9027087759434228,-4.87821979742211,1.879338800308566,4.710087159510727,0.0,0.0,0.0,-0.007333484256099652,-0.5667417029923772,-1.0914875131612476,-0.007333484256099698,-0.5667417029923771,-1.0914875131612476,1.2298759812635416,0.0,0.0,0.0,-0.42017769700014623,-32.471907655520035,-62.53762789536938,-0.42017769700014884,-32.47190765552003,-62.53762789536938,70.46670305091165
58,0.29096436500549316,1775788850.9148746,1.219079203,-16.40461401260214,-0.1380548124442064,0.5192708149876258,-19.56171400688924,0.17613711758250297,0.9337358173568929,-3.157099994287101,0.31419193002670937,0.4144650023692671,3.199652821949669,0.0,0.0,0.0,0.0,-0.7044687195365873,-0.06960045979060807,0.5290397016146141,0.8837439712343519,-5.076397913257768,2.0931647997178864,4.72049248288794,0.0,0.0,0.0,-0.03902683487858407,-0.558373150955102,-1.0694165086491598,-0.03902683487858427,-0.5583731509551022,-1.0694165086491596,1.2070440499499295,0.0,0.0,0.0,-2.2360729262968237,-31.992424943148556,-61.27305248721255,-2.2360729262968353,-31.992424943148567,-61.273052487212546,69.15852974850908
59,0.2969624996185303,1775788850.9208727,1.225077298,-16.40461401260214,-0.1380548124442064,0.5192708149876258,-19.56524179641056,0.17580201883596527,0.9362808617101048,-3.1606277838084225,0.31385683128017167,0.417010046722479,3.203431203786099,0.0,0.0,0.0,0.0,-0.7066530289498969,-0.06430068004408573,0.48921794118626255,0.8618742801341279,-5.287652470395079,2.4024081999331672,4.739117780759236,0.0,0.0,0.0,-0.07908704320300902,-0.5457784062950023,-1.042473782909164,-0.07908704320300908,-0.5457784062950024,-1.042473782909164,1.1793559332251862,0.0,0.0,0.0,-4.531353789701221,-31.270799230079913,-59.729348013732306,-4.531353789701224,-31.27079923007992,-59.729348013732306,67.57211751751571
60,0.3060181140899658,1775788850.9299283,1.23413289,-16.405920869729616,-0.15233982184174458,0.5192708149876258,-19.5687805913007,0.17549573291398562,0.9386308145281185,-3.1628597215710847,0.32783555475573023,0.41935999954049263,3.207338550654314,0.0,0.0,0.0,0.0,-0.7088620757591206,-0.05804391973242399,0.45105853192230266,0.8422044515955353,-5.469760707013289,2.7554097724404536,4.764522766544296,0.0,0.0,0.0,-0.11934509408746309,-0.5306119305296897,-1.0164321399148002,-0.11934509408746319,-0.5306119305296897,-1.0164321399148002,1.152790773451527,0.0,0.0,0.0,-6.83797019680335,-30.401824178640055,-58.23727177856883,-6.837970196803355,-30.401824178640055,-58.23727177856883,66.05004598039433
61,0.30646276473999023,1775788850.930373,1.234577503,-16.405920869729616,-0.15233982184174458,0.5192708149876258,-19.569489669860868,0.17543836713552058,0.9390781484449564,-3.1635688001312516,0.3277781889772652,0.41980733345733057,3.2080904431698394,0.0,0.0,0.0,0.0,-0.7092938419903796,-0.0566824964616488,0.44361826846990415,0.8385152519846222,-5.503563006898652,2.8299539035298205,4.77034838045505,0.0,0.0,0.0,-0.12739629373980133,-0.5272538910102436,-1.0113501687460362,-0.12739629373980144,-0.5272538910102433,-1.011350168746036,1.14763044795209,0.0,0.0,0.0,-7.2992699568995265,-30.209422686737653,-57.94609627899149,-7.299269956899533,-30.20942268673764,-57.94609627899148,65.75438110836285
62,0.31085729598999023,1775788850.9347675,1.238971992,-16.405920869729616,-0.15233982184174458,0.5192708149876258,-19.570909103458014,0.17532779890151898,0.93995063354261,-3.1649882337283977,0.32766762074326355,0.42067981855498415,3.2095931360629195,0.0,0.0,0.0,0.0,-0.7101343832472173,-0.05386395235478266,0.42890494145582875,0.8313552889339262,-5.569072228578951,2.981666847633213,4.782643577698213,0.0,0.0,0.0,-0.14348296337099217,-0.5202062489558344,-1.0013260736839922,-0.14348296337099198,-0.5202062489558346,-1.001326073683992,1.1374778275069015,0.0,0.0,0.0,-8.220968233188035,-29.8056225415011,-57.37175793849844,-8.220968233188023,-29.80562254150111,-57.371757938498426,65.17267880585531
63,0.3159472942352295,1775788850.9398575,1.244062031,-16.405920869729616,-0.15233982184174458,0.5192708149876258,-19.575176936431347,0.17503170801703016,0.942394675277615,-3.169256066701731,0.3273715298587747,0.42312386028998916,3.2140923969348645,0.0,0.0,0.0,0.0,-0.712389451261489,-0.044701516978349426,0.3860090542562481,0.8114800957858512,-5.752693009661598,3.4507879434957935,4.824203550469515,0.0,0.0,0.0,-0.19150230844160815,-0.4963813507918861,-0.9724896821086559,-0.1915023084416081,-0.49638135079188617,-0.9724896821086562,1.1085142134227406,0.0,0.0,0.0,-10.972274040716664,-28.440556429377878,-55.71955440484507,-10.97227404071666,-28.44055642937788,-55.719554404845084,63.51318595938723
64,0.3209512233734131,1775788850.9448614,1.249065895,-16.405920869729616,-0.15233982184174458,0.5192708149876258,-19.578742556198854,0.1748281687073371,0.9442369452879241,-3.172821686469238,0.3271679905490817,0.4249661303002983,3.217830411950237,0.0,0.0,0.0,0.0,-0.713777050384837,-0.036649047213479995,0.3510186882551905,0.7962631159498276,-5.895991139685242,3.838471979037189,4.861936772361927,0.0,0.0,0.0,-0.23109177996791672,-0.4734836858555629,-0.9500542635653535,-0.23109177996791663,-0.4734836858555629,-0.9500542635653533,1.0863670260362357,0.0,0.0,0.0,-13.24058367232749,-27.128616867821865,-54.434099610704294,-13.240583672327485,-27.128616867821865,-54.43409961070428,62.24424559405512
65,0.32594943046569824,1775788850.9498596,1.254064295,-16.405920869729616,-0.15233982184174458,0.5192708149876258,-19.582313849512914,0.17466607500601775,0.9459064355926879,-3.176392979783298,0.3270058968477623,0.4266356206050621,3.2215560171070896,0.0,0.0,0.0,0.0,-0.7146494059075962,-0.028068839477975685,0.31699576124757095,0.7823029756831094,-6.0347316692022686,4.219134542687914,4.903111986325998,0.0,0.0,0.0,-0.27018170029430266,-0.44791410425718825,-0.9292368954645963,-0.27018170029430255,-0.44791410425718814,-0.9292368954645962,1.0663519137035018,0.0,0.0,0.0,-15.480271128532054,-25.663587758319625,-53.24135227796064,-15.48027112853205,-25.66358775831962,-53.24135227796063,61.09746413090923
66,0.33165526390075684,1775788850.9555655,1.259770082,-16.405920869729616,-0.15233982184174458,0.5192708149876258,-19.5851731274801,0.17456861733270004,0.9471219656031511,-3.179252257750484,0.3269084391744446,0.42785115061552526,3.2245264230733253,0.0,0.0,0.0,0.0,-0.7149183955634395,-0.020551426021304504,0.2909674192314916,0.7721351646446019,-6.1445323389775695,4.5208123807012335,4.939903050259836,0.0,0.0,0.0,-0.30106071887888913,-0.42559616030683023,-0.913830979105481,-0.30106071887888897,-0.4255961603068301,-0.9138309791054811,1.0520725766279968,0.0,0.0,0.0,-17.249508568934893,-24.384863762554584,-52.358658291051775,-17.249508568934882,-24.384863762554577,-52.35865829105178,60.27931838223811
67,0.3366692066192627,1775788850.9605794,1.264783881,-16.405920869729616,-0.15233982184174458,0.5192708149876258,-19.58874720447741,0.17449129346891673,0.9484990194171248,-3.1828263347477943,0.32683111531066134,0.42922820442949894,3.22822534941058,0.0,0.0,0.0,0.0,-0.7145699621490125,-0.010177165520221526,0.2602227199319553,0.7605456393093395,-6.282386961768513,4.8920379451007685,4.991535107768957,0.0,0.0,0.0,-0.33916589260503394,-0.39544678307265346,-0.8962127284322107,-0.3391658926050338,-0.3954467830726536,-0.8962127284322108,1.0366334528428973,0.0,0.0,0.0,-19.432774201055782,-22.657431692088448,-51.34920688506987,-19.432774201055775,-22.657431692088455,-51.349206885069876,59.394721749971865
68,0.3416438102722168,1775788850.965554,1.269758612,-16.405920869729616,-0.15233982184174458,0.5192708149876258,-19.59231717394048,0.17446918523324148,0.9497284846986911,-3.186396304210863,0.32680900707498606,0.43045766971106525,3.2319064559493462,0.0,0.0,0.0,0.0,-0.713228549703186,0.001575433956725212,0.23200827576168398,0.750016857227737,-6.42275670141181,5.255391643169881,5.051016957178741,0.0,0.0,0.0,-0.37675918957320287,-0.36288936806834876,-0.8804773210826611,-0.37675918957320276,-0.3628893680683487,-0.8804773210826609,1.024146714746379,0.0,0.0,0.0,-21.586711455313814,-20.792029220485887,-50.447634455021536,-21.58671145531381,-20.792029220485883,-50.44763445502153,58.67928435715615
69,0.34664440155029297,1775788850.9705546,1.274759147,-16.40783838525114,-0.17114426076113778,0.5192708149876258,-19.59587733278214,0.17450953170334174,0.9508236925266775,-3.188038947531002,0.3456537924644795,0.4315528775390517,3.2356308135094602,0.0,0.0,0.0,0.0,-0.7105859962969151,0.014843954742683034,0.2065934553288762,0.740157859453243,-6.56719816597879,5.605046660045995,5.119196288228433,0.0,0.0,0.0,-0.41391743374962847,-0.32803876655382597,-0.8666633632529922,-0.4139174337496283,-0.328038766553826,-0.8666633632529921,1.014910074602189,0.0,0.0,0.0,-23.715722020739573,-18.795236840211498,-49.65615297300982,-23.715722020739562,-18.7952368402115,-49.65615297300981,58.150063860012956
70,0.3508570194244385,1775788850.9747672,1.278971758,-16.40783838525114,-0.17114426076113778,0.5192708149876258,-19.598713436472465,0.17459229222125375,0.9516133849920608,-3.190875051221326,0.34573655298239153,0.432342570004435,3.2385394013988598,0.0,0.0,0.0,0.0,-0.7072683585386208,0.02672349495945422,0.18859952173793193,0.7324701057193663,-6.686477622391651,5.871063766593682,5.181048244056724,0.0,0.0,0.0,-0.4434050567719249,-0.29859842844287887,-0.8570024096722146,-0.44340505677192477,-0.29859842844287865,-0.8570024096722149,1.0100604912694355,0.0,0.0,0.0,-25.40523836778996,-17.108429719016076,-49.10262110675946,-25.405238367789952,-17.108429719016065,-49.10262110675947,57.87220320264919
71,0.35669493675231934,1775788850.9806051,1.284809759,-16.40783838525114,-0.17114426076113778,0.5192708149876258,-19.60293631702183,0.17481108446820742,0.9526732641733033,-3.1950979317706896,0.34595534522934523,0.4334024491856775,3.2428650260931673,0.0,0.0,0.0,0.0,-0.6998099839338362,0.046641296043946553,0.16549599049822641,0.7206235820323424,-6.872583337909487,6.2364898528383605,5.286272031650432,0.0,0.0,0.0,-0.48740626308212986,-0.25203388290183665,-0.8448047698761093,-0.48740626308212986,-0.2520338829018365,-0.8448047698761094,1.0073634114001209,0.0,0.0,0.0,-27.926321782849108,-14.44047778456964,-48.40374782642181,-27.926321782849108,-14.440477784569632,-48.403747826421814,57.717671909127766
72,0.3616447448730469,1775788850.985555,1.289759456,-16.40783838525114,-0.17114426076113778,0.5192708149876258,-19.606414007668327,0.17509009950385632,0.953460554659639,-3.198575622417188,0.3462343602649941,0.43418973967201313,3.246426493020605,0.0,0.0,0.0,0.0,-0.6908046904663507,0.06526152953054735,0.14996286691073135,0.7099007318344325,-7.034728950378591,6.498759974042495,5.386240140026761,0.0,0.0,0.0,-0.5240428330017386,-0.21124481293150507,-0.8366852845831995,-0.5240428330017384,-0.211244812931505,-0.8366852845831994,1.0095977056476622,0.0,0.0,0.0,-30.025442615078635,-12.103436225005836,-47.938535587319535,-30.02544261507862,-12.103436225005831,-47.93853558731953,57.84568753970224
73,0.36664271354675293,1775788850.990553,1.294757583,-16.40783838525114,-0.17114426076113778,0.5192708149876258,-19.609839450598365,0.17546651055755472,0.9541779769869214,-3.2020010653472255,0.3466107713186925,0.4349071619992956,3.249937551528827,0.0,0.0,0.0,0.0,-0.6788528975310573,0.08556820074149385,0.1374784803316992,0.6978993523558839,-7.203346775303403,6.713273394997875,5.496905468384741,0.0,0.0,0.0,-0.5608415538383625,-0.1688973973917545,-0.8303359447681576,-0.5608415538383626,-0.16889739739175447,-0.8303359447681578,1.0161335347933196,0.0,0.0,0.0,-32.13385401049731,-9.677108041291412,-47.57474521322326,-32.133854010497316,-9.67710804129141,-47.57474521322327,58.220162965367
74,0.3716464042663574,1775788850.9955566,1.299761106,-16.40783838525114,-0.17114426076113778,0.5192708149876258,-19.61319709784415,0.17594825683492057,0.9548396404706784,-3.2053587125930108,0.34709251759605836,0.43556882548305254,3.253385604858388,0.0,0.0,0.0,0.0,-0.6636403414943363,0.10735972235631401,0.12757218037667922,0.6842654996777231,-7.378130417036265,6.873421639952435,5.617470601661895,0.0,0.0,0.0,-0.5979857376382216,-0.12524547549109744,-0.8256493107212528,-0.5979857376382216,-0.12524547549109766,-0.8256493107212526,1.0271174011982265,0.0,0.0,0.0,-34.26205897568744,-7.176037148749074,-47.306220862213294,-34.26205897568744,-7.176037148749088,-47.30622086221329,58.849492153103704
75,0.376650333404541,1775788851.0005605,1.304765029,-16.40783838525114,-0.17114426076113778,0.5192708149876258,-19.61647001961126,0.1765422203702975,0.9554570731917776,-3.2086316343601204,0.3476864811314353,0.4361862582041518,3.2567562552368265,0.0,0.0,0.0,0.0,-0.6449300260213816,0.13041893421385206,0.1196887856903453,0.6687819093586835,-7.558457216422302,6.973671551935774,5.746975374873485,0.0,0.0,0.0,-0.6356543230334025,-0.08055575890988977,-0.8224988577581717,-0.6356543230334024,-0.08055575890988997,-0.8224988577581716,1.0426169093670494,0.0,0.0,0.0,-36.420309939059436,-4.615505001010061,-47.12571320387426,-36.42030993905943,-4.615505001010073,-47.125713203874255,59.7375485557058
76,0.3816688060760498,1775788851.005579,1.309783569,-16.40783838525114,-0.17114426076113778,0.5192708149876258,-19.619640313997355,0.17725420019453544,0.9560388853475414,-3.2118019287462154,0.34839846095567323,0.4367680703599156,3.260033660007227,0.0,0.0,0.0,0.0,-0.6225726213976441,0.15453084948010123,0.11321824252895918,0.6513791697593055,-7.743409530916251,7.010203657698209,5.884359636227365,0.0,0.0,0.0,-0.6740139247945345,-0.03509978853179578,-0.8207414303800558,-0.6740139247945347,-0.03509978853179563,-0.820741430380056,1.0626115289767046,0.0,0.0,0.0,-38.6181532237749,-2.0110697446735863,-47.02502003230748,-38.61815322377491,-2.011069744673578,-47.025020032307495,60.883155872308556
77,0.38604140281677246,1775788851.0099516,1.3141561689999999,-16.40783838525114,-0.17114426076113778,0.5192708149876258,-19.622090014485885,0.1779122470758432,0.9564829310113153,-3.214251629234745,0.34905650783698094,0.4372121160236895,3.2625769594140572,0.0,0.0,0.0,0.0,-0.601741136043376,0.17470830792773087,0.10908915827716474,0.6360155910977057,-7.8939291285081445,6.993328415846136,6.000733728497528,0.0,0.0,0.0,-0.705298769707551,0.001638391517987775,-0.8202327073233876,-0.705298769707551,0.001638391517987614,-0.8202327073233877,1.0817720337671914,0.0,0.0,0.0,-40.41064280001207,0.0938729191707318,-46.9958723482194,-40.41064280001207,0.09387291917072259,-46.99587234821941,61.980971930143646
78,0.39165830612182617,1775788851.0155685,1.319773066,-16.40783838525114,-0.17114426076113778,0.5192708149876258,-19.62559154524843,0.17905729595591538,0.9571263249054177,-3.21775315999729,0.35020155671705316,0.4378555099177919,3.2662354441413073,0.0,0.0,0.0,0.0,-0.5641515019533343,0.20744302052084773,0.10587225008452801,0.610334709202235,-8.122660717521654,6.895944292855039,6.19181619329017,0.0,0.0,0.0,-0.7533691275607003,0.057107616131997864,-0.8207578241519645,-0.7533691275607004,0.05710761613199766,-0.8207578241519644,1.115558034388403,0.0,0.0,0.0,-43.164871424681074,3.2720253824166927,-47.025959326248156,-43.16487142468108,3.272025382416681,-47.02595932624815,63.91676717236545
79,0.3975989818572998,1775788851.0215092,1.325713658,-16.41003452478177,-0.19039625531368012,0.5192708149876258,-19.627251970499866,0.17970550426303286,0.957442758699615,-3.217217445718095,0.370101759576713,0.4381719437119892,3.2679440108011315,0.0,0.0,0.0,0.0,-0.5424837110431822,0.22479542780665085,0.10514872418773055,0.5965549558156946,-8.237787049056935,6.813032166805649,6.294006273772402,0.0,0.0,0.0,-0.777963966567943,0.08491523892548394,-0.8215126548969541,-0.7779639665679428,0.08491523892548392,-0.8215126548969542,1.1346019448404543,0.0,0.0,0.0,-44.57405189759981,4.865284806775233,-47.06920794218277,-44.574051897599794,4.865284806775232,-47.06920794218278,65.00790286669306
80,0.40169477462768555,1775788851.025605,1.329809481,-16.41003452478177,-0.19039625531368012,0.5192708149876258,-19.629865918398924,0.1809042568942301,0.9579666394274429,-3.2198313936171523,0.3713005122079102,0.43869582443981703,3.270723513241277,0.0,0.0,0.0,0.0,-0.5022550370605732,0.2549445144435292,0.10444363634817502,0.5728571382737535,-8.429660271374514,6.62232822065082,6.472572627069304,0.0,0.0,0.0,-0.8198334233886884,0.13123169225857456,-0.8233492509874353,-0.8198334233886886,0.13123169225857456,-0.8233492509874352,1.1692957659462537,0.0,0.0,0.0,-46.97299506393376,7.51902210477596,-47.17443714683757,-46.97299506393377,7.51902210477596,-47.17443714683756,66.99571239123726
81,0.4067072868347168,1775788851.0306175,1.334821992,-16.41003452478177,-0.19039625531368012,0.5192708149876258,-19.632266402803083,0.18225714126711712,0.9584867709240775,-3.2222318780213115,0.3726533965807972,0.4392159559364517,3.273310172542334,0.0,0.0,0.0,0.0,-0.4571614220375296,0.28640952491593374,0.10348551317057077,0.5493052277178176,-8.619989804474708,6.3674291772257146,6.659669021151615,0.0,0.0,0.0,-0.8628252272437507,0.17736832923337964,-0.8257241286084874,-0.8628252272437509,0.17736832923337964,-0.8257241286084875,1.2073720360972078,0.0,0.0,0.0,-49.43624397848309,10.162456684359514,-47.310507611383926,-49.4362439784831,10.162456684359514,-47.31050761138393,69.17732197048689
82,0.41092824935913086,1775788851.0348384,1.339043069,-16.41003452478177,-0.19039625531368012,0.5192708149876258,-19.634017406859154,0.18345449926751267,0.958897856761547,-3.223982882077383,0.37385075458119277,0.4396270417739212,3.2752254802513683,0.0,0.0,0.0,0.0,-0.4178967979419974,0.31237631955489065,0.10188777363890772,0.5315993013218951,-8.76985314091291,6.119180968214861,6.81407657385052,0.0,0.0,0.0,-0.8980230318407396,0.21405766304002125,-0.8278671070117593,-0.8980230318407396,0.21405766304002105,-0.8278671070117594,1.2400120949791615,0.0,0.0,0.0,-51.452929630016726,12.264600664626728,-47.43329122947909,-51.452929630016726,12.264600664626718,-47.433291229479096,71.04745958748134
83,0.4157397747039795,1775788851.03965,1.343854632,-16.41003452478177,-0.19039625531368012,0.5192708149876258,-19.635977081948774,0.18509918420463756,0.9593987411044117,-3.225942557167002,0.37549543951831765,0.44012792611678586,3.277409769709625,0.0,0.0,0.0,0.0,-0.36540009772931803,0.3456251403820465,0.09806058852209887,0.5124352135694862,-8.952393953659382,5.753321872484014,7.011004758464564,0.0,0.0,0.0,-0.9429865886737653,0.2595545514643037,-0.8306598601873042,-0.9429865886737652,0.2595545514643036,-0.8306598601873043,1.2831944805565572,0.0,0.0,0.0,-54.02915166844571,14.871380352315722,-47.59330419965957,-54.0291516684457,14.871380352315718,-47.59330419965958,73.5216280303727
84,0.42170143127441406,1775788851.0456116,1.349816125,-16.41003452478177,-0.19039625531368012,0.5192708149876258,-19.637970599676997,0.18729479878959596,0.9599643138924532,-3.2279360748952257,0.3776910541032761,0.44069349890482734,3.2797000771315385,0.0,0.0,0.0,0.0,-0.29851040242165083,0.38637663574588693,0.08968556981212586,0.4964260936300301,-9.16114298332625,5.235526300820038,7.249825107923841,0.0,0.0,0.0,-0.9982363603132335,0.3135114679028974,-0.8338575696448832,-0.9982363603132334,0.3135114679028974,-0.8338575696448833,1.3379401025502273,0.0,0.0,0.0,-57.194730402448826,17.962883939787197,-47.77651945568792,-57.19473040244882,17.962883939787197,-47.776519455687925,76.65832111742857
