sample_idx,t_rel_s,stamp_s,t_in_traj_s,x_des_m,y_des_m,z_des_m,x_act_m,y_act_m,z_act_m,ex_m,ey_m,ez_m,e_pos_norm_m,vx_des_mps,vy_des_mps,vz_des_mps,speed_des_mps,vx_act_mps,vy_act_mps,vz_act_mps,speed_act_mps,wx_act_radps,wy_act_radps,wz_act_radps,roll_des_rad,pitch_des_rad,yaw_des_rad,roll_act_rad,pitch_act_rad,yaw_act_rad,e_roll_rad,e_pitch_rad,e_yaw_rad,e_ang_norm_rad,roll_des_deg,pitch_des_deg,yaw_des_deg,roll_act_deg,pitch_act_deg,yaw_act_deg,e_roll_deg,e_pitch_deg,e_yaw_deg,e_ang_norm_deg
0,0.0,1775788768.481968,0.045686263,-19.258021180092754,-0.9689717603752119,0.8570846760906055,-19.31,-0.92,0.8847293838014116,-0.0519788199072444,0.04897176037521189,0.027644707710806182,0.07657846236124638,2.1823601110086526,-1.994794038344683,-1.0886831610579353,3.150734824562087,0.0,0.0,0.0013552621922178299,0.0013552621922178299,0.0,0.0,0.0,0.0,0.35280681294697375,-0.7405254684261141,0.0,0.0,0.0,0.0,-0.3528068129469739,0.7405254684261142,0.8202747202306779,0.0,20.214341365323087,-42.42898396276464,0.0,0.0,0.0,0.0,-20.214341365323094,42.42898396276465,46.99827951049221
1,0.004912137985229492,1775788768.48688,0.050598365,-19.246713737636707,-0.9793150386173297,0.851434434783982,-19.31,-0.92,0.8847360749234151,-0.06328626236329171,0.059315038617329674,0.03330164013943315,0.09291083922808474,2.390701043115318,-2.1671693782094383,-1.1714146741774762,3.4328249198407534,0.0,0.0,0.0013213257791515349,0.0013213257791515349,0.0,0.0,0.0,0.0,0.34823498928968455,-0.7363944207641951,0.0,0.0,0.0,0.0,-0.34823498928968455,0.7363944207641953,0.8145823167109764,0.0,19.95239516508235,-42.192292366769294,0.0,0.0,0.0,0.0,-19.95239516508235,42.1922923667693,46.6721288135279
2,0.009888410568237305,1775788768.4918563,0.055574586,-19.23422886940627,-0.9906347930336603,0.8453140083340211,-19.309999999999697,-0.9200000000007357,0.884742578481524,-0.07577113059342722,0.07063479303292464,0.039428570147502895,0.11083839750775387,2.596235461951402,-2.332949450532707,-1.2479821948759853,3.706824958284698,1.503619560884666e-09,-3.667970417650063e-09,0.0012287544553910802,0.0012287544553974748,0.0044939145664402436,0.0018537933009956625,0.00029528288078451543,0.0,0.34337976065797626,-0.7320351719954888,1.5062069457418615e-06,6.188984993311638e-07,9.880116467717944e-08,1.50620694583381e-06,-0.3433791417594767,0.7320352707966533,0.8085696461579998,0.0,19.674211055914387,-41.94252581047483,8.629930106429885e-05,3.546027195865589e-05,5.660889746979411e-06,8.629930106956711e-05,-19.674175595642417,41.94253147136456,46.327628167239745
3,0.014906644821166992,1775788768.4968746,0.06059284,-19.220616857642185,-1.0028630442516948,0.8387745004603926,-19.309999997774945,-0.9200000052352072,0.8847449911919353,-0.08938314013276027,0.08286303901648762,0.04597049073154269,0.1302647880017446,2.7978734381381547,-2.491114027655256,-1.317812946104044,3.971193250842778,1.832497507145643e-06,-4.273577642012166e-06,-0.0006647279734107354,0.0006647442366412208,0.14539848578919942,0.06456295764860094,0.009870748215145416,0.0,0.33825668357389277,-0.7274634207464271,0.0003002373771422322,0.0001304502317202684,2.020407459889346e-05,0.00030023737714213183,-0.3381262333421726,0.7274836248210259,0.8022230763318812,0.0,19.380680360876216,-41.68058375891992,0.017202334562327476,0.007474247714074996,0.001157608203484067,0.017202334562321727,-19.373206113162148,41.6817413671234,45.96399650181807
4,0.01990795135498047,1775788768.5018759,0.065594207,-19.206057972110987,-1.0158173024461261,0.8319268059672769,-19.309999955990783,-0.9200000999928466,0.8847325317121186,-0.10394198387979614,0.09581720245327952,0.05280572574484177,0.15090830649861525,2.993205164990797,-2.6397382931819338,-1.380031523092745,4.222793201300336,1.9630574181521743e-05,-4.3929334224121956e-05,-0.004591630075726192,0.004591882173810799,0.4400314634010229,0.20961517486481,0.030653052432106326,0.0,0.3329213650502959,-0.7227303884331564,0.0017128121071620045,0.0007828977066486917,0.00011843313035406231,0.0017128121071618985,-0.3321384673436474,0.7228488215635105,0.7955056970571972,0.0,19.074989127116144,-41.40940098307047,0.09813690483929215,0.04485673438144124,0.006785718523810492,0.09813690483928607,-19.030132392734714,41.416186701594285,45.57911901999003
5,0.02490544319152832,1775788768.5068734,0.070591686,-19.19054864346417,-1.029481497599761,0.8247920055238895,-19.309999723201358,-0.9200006062541342,0.8846976235878312,-0.11945107973718905,0.10948089134562689,0.05990561806394168,0.17275216090062698,3.182773363504498,-2.7792646162640593,-1.4348455655153327,4.462414132230464,8.497710778084388e-05,-0.00018098143773688847,-0.009463240946897376,0.009465352851779338,0.7990359945368275,0.43824305198492247,0.05337581342944944,0.0,0.32735562475395824,-0.7178215493798327,0.004798156556403323,0.002367826454630272,0.00033451842335220254,0.004798156556403477,-0.3249877982993281,0.7181560678031849,0.7882818208434831,0.0,18.756095698270105,-41.12814522300603,0.27491412012493516,0.1356664624697395,0.019166493827451725,0.27491412012494393,-18.620429235800373,41.14731171683348,45.16522140121927
6,0.030194759368896484,1775788768.5121627,0.075881141,-19.173117047276854,-1.0446782036937121,0.8169627458788471,-19.309998946412588,-0.9200021986483227,0.8846370951845569,-0.13688189913573368,0.12467600504538945,0.06767434930570981,0.19713086541441036,3.3773063479690886,-2.9171615967755797,-1.4848518217522724,4.703277036524172,0.00024662558257456166,-0.0004913268520858732,-0.014833648431069619,0.014843832120787914,1.1820348574055266,0.7402578822348364,0.07389589965630164,0.0,0.32120040035873865,-0.7124249281831307,0.009744738931301764,0.005283132934165667,0.0006753751207436207,0.0097447389313019,-0.31591726742457293,0.7131003033038743,0.7800068732812077,0.0,18.403427318468058,-40.818941604804166,0.5583324132204154,0.30270121973425973,0.03869614400674784,0.5583324132204232,-18.100726098733794,40.85763774881091,44.691101830208815
7,0.03489804267883301,1775788768.516866,0.080584243,-19.156766527856995,-1.0587822118931283,0.8097961809655142,-19.309996997672254,-0.920005928423763,0.8845476033890245,-0.15323046981525934,0.1387762834693652,0.0747514224235103,0.21983222895588533,3.5449969274222495,-3.0313242785465095,-1.5223962279775263,4.90648757993933,0.0005645519109302613,-0.0010473903431264205,-0.021139269901256013,0.021172729567751954,1.5769464409392953,1.1260956396260886,0.08578642117592677,0.0,0.31548996951618297,-0.7074470129915235,0.01664288193007663,0.009908785630053511,0.0011406876091019384,0.01664288193007657,-0.30558118388612954,0.7085877006006251,0.7718506169633267,0.0,18.07624373198828,-40.53372807355101,0.9535668935279324,0.5677315967019445,0.0653565857444097,0.9535668935279291,-17.50851213528634,40.59908465929541,44.223782766567325
8,0.03991580009460449,1775788768.5218837,0.085602076,-19.138465692066642,-1.0744005363196456,0.8019729747338065,-19.30999291643253,-0.9200132044997705,0.8844242909972884,-0.17152722436588874,0.15438733181987507,0.0824513162634819,0.2450617401364539,3.718431412121336,-3.14435840146236,-1.5552722662677374,5.112004865580547,0.001113346360733183,-0.0019222967672718858,-0.028312656178099894,0.0283996701537134,1.9740996224770366,1.5751742483970443,0.08701805026000538,0.0,0.30913966645792795,-0.7019423639953134,0.025528953812327844,0.01663449173921522,0.0017197131444523905,0.02552895381232778,-0.2925051747187126,0.7036620771397657,0.762463981788403,0.0,17.71239816812125,-40.218334918367255,1.4627013088307985,0.9530861710022647,0.09853230515029365,1.462701308830795,-16.75931199711898,40.31686722351754,43.68596818721515
9,0.04445004463195801,1775788768.526418,0.090136226,-19.121191866640224,-1.0889829012864625,0.7947769573825021,-19.30998722290946,-0.9200227465263068,0.8842981837690376,-0.18879535626923527,0.1689601547601557,0.08952122638653548,0.2687103839064515,3.8702841958982317,-3.238711444378039,-1.578603411139756,5.28775380540991,0.0017691205858502883,-0.0028912332828674057,-0.03487374248129024,0.03503807831766159,2.2891518939566913,1.93064465468864,0.07708181851542283,0.0,0.30316200854417213,-0.6967894505001553,0.03406776249965774,0.023641048501830905,0.0022610151699855143,0.03406776249965793,-0.2795209600423414,0.6990504656701408,0.7536339516624541,0.0,17.369903598290065,-39.92309472289869,1.9519390086844441,1.3545323024189886,0.12954662665522437,1.9519390086844548,-16.015371295871088,40.052641349553916,43.18004472802491
10,0.04996156692504883,1775788768.5319295,0.095647809,-19.099282664092676,-1.1072604234477117,0.7857461593102599,-19.309972593551247,-0.9200456942789312,0.8840565824327659,-0.2106899294585709,0.18721472916878046,0.09831042312250593,0.29850383663786223,4.04865023822154,-3.3434427391648254,-1.5978808075770454,5.488478949285348,0.0032066977092692285,-0.004871318199495558,-0.045840897412974334,0.046210394142727304,2.7457106558759854,2.4151509897853076,0.043802774786848866,0.0,0.2954115855663546,-0.6902857648727795,0.04921618523833385,0.03667877855490232,0.003176525702144083,0.04921618523833393,-0.2587328070114525,0.6934622905749235,0.7417916464633848,0.0,16.925837072219906,-39.55046098517016,2.819879697890593,2.1015392088908555,0.18200151624768637,2.819879697890598,-14.824297863329063,39.73246250141784,42.50153062041241
11,0.05489754676818848,1775788768.5368655,0.100583923,-19.078841935337202,-1.1240945782329859,0.7777337504158386,-19.30995255412642,-0.9200753077172708,0.8838023084006253,-0.23111061878921646,0.2040192705157151,0.10606855798478676,0.32601613434287446,4.202604240055673,-3.4279750655489987,-1.6082159042471675,5.656788297544209,0.0048919338387826755,-0.007064986684590372,-0.05593832536018178,0.056594534167515,3.0533304201265055,2.838202527960123,0.0313787123027477,0.0,0.28827455947108566,-0.6842283209907214,0.06379045309348011,0.04976001575284591,0.00409380698448895,0.06379045309348008,-0.23851454371823966,0.6883221279752103,0.7312631272881966,0.0,16.51691559868626,-39.20339501609089,3.6549237354836563,2.8510388911425624,0.23455786235239529,3.654923735483655,-13.665876707543694,39.437952878443284,41.89829090715157
12,0.0599057674407959,1775788768.5418737,0.105592014,-19.05734044624704,-1.1415783268009474,0.7695705931975131,-19.3099227009766,-0.9201173920557983,0.8834979618458559,-0.2525822547295604,0.22146093474514905,0.11392736864834285,0.3547142319524255,4.353210356126435,-3.504787878360543,-1.6113893291815948,5.816403875866063,0.0071620432903786125,-0.009887204141993846,-0.0656113288408994,0.06673753173520396,3.283883921522727,3.304218284062468,0.04737390954345741,0.0,0.28071444639806936,-0.6778455105964153,0.07973550271515847,0.06504817387406114,0.005382846177003919,0.07973550271515828,-0.21566627252400838,0.6832283567734194,0.7208818758971165,0.0,16.08375302696075,-38.837686919064915,4.568507782932497,3.7269858280168493,0.3084143677104546,4.568507782932485,-12.356767198943908,39.146101286775384,41.303489016378364
13,0.0648956298828125,1775788768.5468636,0.110581916,-19.03518089912484,-1.1593587665266378,0.7614395758990318,-19.309879674642335,-0.9201754554737952,0.8831483522472088,-0.27469877551749633,0.23918331105284263,0.121708776348177,0.3840326806369261,4.497666854652672,-3.5723538406352677,-1.6072260024747822,5.964385510777608,0.01019047645545295,-0.013477239600282437,-0.07396815695021737,0.07587338163179859,3.45649484515877,3.800098827846143,0.08740601243421126,0.0,0.27284315970433515,-0.6712361685780945,0.09674811274193543,0.08270036390644703,0.007281000337532462,0.09674811274193562,-0.1901427957978883,0.6785171689156271,0.7112664962067603,0.0,15.632761520072295,-38.458999516056664,5.5432585359687625,4.73838181603546,0.4171705899739379,5.543258535968774,-10.894379704036844,38.87617010603061,40.75256834170514
14,0.06990551948547363,1775788768.5518734,0.115591902,-19.012221054767565,-1.1775274280034045,0.7533151343846933,-19.309819189608046,-0.9202536834737919,0.8827614235253203,-0.2975981348404808,0.2572737445296126,0.12944628914062695,0.41413858943245097,4.637078536175122,-3.63118607712345,-1.5956898151578778,6.101986206437195,0.014181411512384752,-0.017975920534043097,-0.0804727558440405,0.08366666352057063,3.585176093807006,4.313842858941826,0.14792807406800557,0.0,0.2645794204294368,-0.6643360582779133,0.11462215303283237,0.1028048011189806,0.010011826427947408,0.11462215303283241,-0.1617746193104561,0.6743478847058606,0.7028899878545672,0.0,15.159284136624118,-38.06365231768153,6.567365607483944,5.890281217799392,0.5736353995389253,6.5673656074839455,-9.269002918824723,38.637287717220445,40.2726297660684
15,0.0749046802520752,1775788768.5568726,0.120590976,-18.988629103225705,-1.1959278056948612,0.745284372754625,-19.30973604463372,-0.9203567749412729,0.882345737810806,-0.321106941408015,0.27557103075358835,0.13706136505618105,0.4447863291537514,4.77056743299915,-3.680895872791078,-1.5768319402800237,6.228459442511427,0.019269440605416226,-0.02341878285181678,-0.08562594529209787,0.09083806051799845,3.6801453723533295,4.837236052040808,0.22401132418043235,0.0,0.255951104271578,-0.6571726810125147,0.1332285772235605,0.125389231126296,0.01378398982114138,0.1332285772235604,-0.130561873145282,0.6709566708336561,0.6964044160144319,0.0,14.664918036474278,-37.653221033314225,7.633435185442783,7.184273739927174,0.7897644416026876,7.633435185442779,-7.480644296547101,38.44298547491691,39.90103387189975
16,0.07991719245910645,1775788768.561885,0.125603468,-18.96431793026416,-1.2146044882158435,0.7373451580741106,-19.309624401945854,-0.9204895211142304,0.8819070115542978,-0.34530647168169537,0.2941149671016131,0.14456185348018724,0.4760654395564454,4.898778994924947,-3.7217183935549074,-1.550555071137014,6.344560226735302,0.02561094918052378,-0.02984841040042593,-0.0896927307815803,0.0979368892522969,3.748833582696923,5.360995452480668,0.312316878704762,0.0,0.2468918670935413,-0.649695272415272,0.1525002872219261,0.15043533859685201,0.018787432980682466,0.1525002872219261,-0.0964565284966894,0.6684827053959546,0.6924083527123984,0.0,14.145861980564767,-37.22479707899738,8.737622832349203,8.619309991221115,1.0764406176779935,8.737622832349203,-5.526551989343658,38.30123769667538,39.672076310026114
17,0.0850825309753418,1775788768.5670505,0.13076874,-18.93860851328985,-1.2340403409186567,0.7293214918245015,-19.30947771678829,-0.9206568275512013,0.8814494514658553,-0.3708692034984402,0.3133835133674554,0.15212795964135384,0.5088183454423975,5.024994614233248,-3.754335214799149,-1.5157582742698326,6.453148605461646,0.03329250466930585,-0.037228298094623975,-0.09330464933233905,0.10583049954152485,3.7966101178644136,5.876658491301971,0.4092704753193933,0.0,0.2371019246831051,-0.6416631804121308,0.1724215511704338,0.17787169293324087,0.025198936979462135,0.17242155117043367,-0.05923023174986408,0.666862117391593,0.6913338522545817,0.0,13.58493959877064,-36.764592106556606,9.879027179164817,10.191297299921652,1.443792737139319,9.87902717916481,-3.3936422988489805,38.20838484369593,39.610511968708344
18,0.0899038314819336,1775788768.5718718,0.135590226,-18.914035293460948,-1.2523132639257235,0.7220114964491904,-19.309289055068255,-0.9208633678716697,0.8809742225628676,-0.3952537616073073,0.33144989605405384,0.15896272611367723,0.5397719128969765,5.137402228238487,-3.7761256949077455,-1.4762074185732057,6.544556154629803,0.04241297539373966,-0.04553353337237643,-0.09683002488135516,0.11510089861355186,3.82830758482771,6.3757275012221895,0.512259275098811,0.0,0.22752052973641798,-0.6338488569476464,0.19301958271368166,0.2075802834767157,0.03318096372834375,0.1930195827136818,-0.019940246259702477,0.6670298206759901,0.6946819087920061,0.0,13.035966106477495,-36.3168643522916,11.059207452870261,11.893474153345029,1.9011291818107654,11.059207452870268,-1.1424919531324775,38.21799353410237,39.802341477873945
19,0.09487795829772949,1775788768.576846,0.140564241,-18.888130201187668,-1.2712527970961542,0.7146876959382746,-19.309051877804396,-0.9211129255423751,0.8804772030584108,-0.42092167661672875,0.3501398715537791,0.16578950712013618,0.5720656851871755,5.247894207486504,-3.7898472529573906,-1.4282513446295222,6.628969581854719,0.05261246603788037,-0.05434646599960828,-0.10244127192063382,0.12734136854122047,3.8789683632141876,6.866585471165633,0.6053130472702654,0.0,0.21715878470593655,-0.6254476497155027,0.21442203929879167,0.23943676236922265,0.04286594468933031,0.21442203929879167,0.022277977663286208,0.6683135944048333,0.7022223150058152,0.0,12.442281847840254,-35.83551063507499,12.28547788640904,13.718715944033267,2.4560377155398516,12.28547788640904,1.2764340961930196,38.29154835061485,40.23437492973943
20,0.09990572929382324,1775788768.5818737,0.145592065,-18.86078749694264,-1.2911464055159454,0.7054604040629281,-19.30876122477073,-0.9214075006923595,0.8799459401524036,-0.4479737278280922,0.36973890482358585,0.17448553608947548,0.6064919792287232,5.340020538151882,-3.7786890380654823,-1.3239283430262405,6.674361126860635,0.06382742040696987,-0.06355364910558046,-0.11041274557276773,0.14249203590152,3.9669000228140727,7.336616385917515,0.6811770246728154,0.0,0.19968470427949989,-0.6158197384154698,0.23693247158290862,0.27333718565719806,0.05433396192172463,0.23693247158290864,0.0736524813776982,0.6701537003371945,0.7146101497873594,0.0,11.441090788533272,-35.283871952056785,13.575230651303976,15.661067122141267,3.113106702339345,13.575230651303977,4.219976333607998,38.396978654396136,40.944145580027275
21,0.10489892959594727,1775788768.5868669,0.150585304,-18.833798583561858,-1.310126045583318,0.6989082101554622,-19.30841196844969,-0.9217490135198695,0.8793691292288988,-0.47461338488783156,0.3883770320634484,0.18046091907343653,0.639265772165167,5.43997371020071,-3.774803211656937,-1.2622888022262724,6.7406102301376425,0.07609127601018507,-0.07314590015810493,-0.12053067064515843,0.1602118833325708,4.082291565330962,7.71900279514483,0.7238513176070909,0.0,0.18837842133575264,-0.6066209384055506,0.260858057129381,0.3089892129491821,0.06759577819744265,0.26085805712938104,0.12061079161342958,0.6742167166029933,0.7329134123277146,0.0,10.793288493875806,-34.75681953490352,14.946065725496045,17.703777817057176,3.872952803615892,14.946065725496048,6.9104893231813795,38.629772338519416,41.99284527490953
22,0.1099100112915039,1775788768.591878,0.155596233,-18.80622608145351,-1.3291312281243974,0.6926596536667613,-19.307997323449754,-0.9221405031000095,0.8787407132254748,-0.501771241996245,0.40699072502438793,0.18608105955871346,0.6723406802186112,5.534777412010608,-3.7620356143929907,-1.193465106794351,6.797869660827555,0.09014434129068599,-0.08365876951712937,-0.13064544093796837,0.17942414336350623,4.209860045649346,8.009296945129453,0.7279356678244789,0.0,0.17647922257614362,-0.5969773459216023,0.28639273226567735,0.34589412614158715,0.08253235276438445,0.2863927322656772,0.16941490356544353,0.6795096986859868,0.7566079812247614,0.0,10.111514625362906,-34.2042823862292,16.409094842043466,19.81827358627866,4.7287554866841015,16.40909484204346,9.706758960915757,38.9330378729133,43.35044407009226
23,0.11490154266357422,1775788768.5968695,0.160587873,-18.778301099927354,-1.3479775711806514,0.6867953701228579,-19.30750602590995,-0.9225881572864454,0.8780658375928769,-0.5292049259825973,0.42538941389420604,0.19127046747001908,0.7054065486396494,5.623734656070492,-3.7404847086713118,-1.1179684847334093,6.845982096861583,0.10689225683005724,-0.095700430297324,-0.138893824142205,0.19968981274507133,4.340525121881733,8.230515031947142,0.6968523419666374,0.0,0.1640375373210187,-0.5869343138381188,0.31366078736535713,0.3836476401939358,0.09903968822609892,0.31366078736535696,0.21961010287291716,0.6859740020642175,0.7856029648127023,0.0,9.3986585702141,-33.628859034331114,17.9714393147853,21.981390603266085,5.674556139646979,17.97143931478529,12.582732033051988,39.30341517397809,45.01173425673236
24,0.11990880966186523,1775788768.6018767,0.165595059,-18.749856776397,-1.3667523814996605,0.6813088362208553,-19.306922620921544,-0.9231008338350305,0.8773564415320113,-0.5570658445245442,0.44365154766463,0.19604760531115606,0.7386363885087871,5.707472413417494,-3.7100100363514708,-1.0352798767928055,6.885580603191171,0.12710317851053812,-0.10973373915292002,-0.14436372187066293,0.2214443399328891,4.468847138304719,8.399580597888946,0.6340530954287011,0.0,0.15092711072089213,-0.5763940613384337,0.3427485601577998,0.42194626256068557,0.11704835407338679,0.3427485601578,0.2710191518397935,0.6934424154118206,0.8196281715792754,0.0,8.647486458410798,-33.024947051096945,19.63804593122773,24.17574002604618,6.70637668735796,19.63804593122774,15.528253567635389,39.73132373845491,46.96123500151697
25,0.12490200996398926,1775788768.60687,0.170588363,-18.721087463736175,-1.3853011071061847,0.6762671699145404,-19.306228180367174,-0.9236893808847608,0.8766272871029664,-0.585140716630999,0.4616117262214239,0.20036011718842606,0.771763707752782,5.785495805592869,-3.6707862886606564,-0.945881790134837,6.916742445288855,0.15139737780573836,-0.12609519637187735,-0.1467958697654439,0.24570346341618582,4.591887587597902,8.528909075696468,0.5428838713489064,0.0,0.13718236331897035,-0.5653879726891422,0.37372278029770034,0.4605605625794009,0.13652141448110228,0.3737227802977001,0.3233781992604303,0.7019093871702444,0.8584398430106035,0.0,7.8599704418072776,-32.3943446225457,21.412738018953146,26.388176445970508,7.82210086292336,21.41273801895313,18.528206004163216,40.21644548546906,49.18497997038054
26,0.12991118431091309,1775788768.611879,0.175597354,-18.691850098234596,-1.4036891515480736,0.6716755798286168,-19.305401047357993,-0.9243660528375915,0.8758932668778641,-0.6135509491233968,0.47932309871048207,0.20421768704924725,0.8049225203902447,5.8582638917582335,-3.622576400558571,-0.8492410688414863,6.939994668324267,0.18024671599223738,-0.1450139007076305,-0.1463667131278043,0.27375376661566825,4.708397507302036,8.627585713695533,0.4265023489047202,0.0,0.12267659719118015,-0.5538176794439561,0.40664434717358067,0.49931518141048065,0.15745285154998412,0.40664434717358056,0.3766385842193003,0.7112705309939402,0.9017327855142832,0.0,7.028851264081072,-31.731415651867813,23.29900485589878,28.6086525416296,9.021383866113972,23.299004855898772,21.579801277548516,40.752799517981785,51.66548285854392
27,0.13490557670593262,1775788768.6168735,0.180591823,-18.66234829709937,-1.4217613592904386,0.6675966246508955,-19.304417563334635,-0.9251440187372966,0.875167638953283,-0.6420692662352643,0.496617340553142,0.20757101430238745,0.8378349787162672,5.9253358927572135,-3.565668033065202,-0.7459381210733421,6.955574573282241,0.2139816492834767,-0.1666294856221862,-0.14353159873670193,0.30684662544128594,4.818242139772906,8.70223912982061,0.2878321664822501,0.0,0.10744984711335043,-0.5417173097227207,0.4415788260698841,0.5380737615683036,0.17986665306116573,0.4415788260698843,0.4306239144549533,0.7215839627838863,0.9492693140940884,0.0,6.1564227489209316,-31.03811553629313,25.300603056145807,30.82935560459235,10.305600095548625,25.300603056145818,24.672932855671426,41.34371563184175,54.38912531886978
28,0.13999533653259277,1775788768.6219633,0.185681556,-18.63195339777674,-1.4398629017254896,0.6639887032636808,-19.30325274698234,-0.9260369567686778,0.8744609285995623,-0.6712993492056007,0.5138259449568118,0.2104722253358815,0.8711822286941244,5.988052361832444,-3.498594674576057,-0.6335328547436545,6.96407206044414,0.25280306958256965,-0.19100858191749306,-0.13891268929928832,0.3459630119028071,4.9219954830386845,8.757687563271269,0.12954218241037216,0.0,0.09109755830927138,-0.5287674611428096,0.4786046479353129,0.576727457097122,0.2038166251413937,0.47860464793531277,0.4856298987878507,0.732584086284203,1.000788814435315,0.0,5.219505615068173,-30.29614386733074,27.422026382038077,33.04404922097735,11.677832415201845,27.42202638203807,27.824543605909177,41.973976282532576,57.34097525104487
29,0.14446640014648438,1775788768.6264343,0.190152657,-18.6050004540218,-1.4554649392518155,0.6613052309202541,-19.302173079654093,-0.9268434018465804,0.8739141192918349,-0.6971726256322945,0.5286215374052351,0.21260888837158087,0.9003848838992695,6.03845288755194,-3.432111748408913,-0.5288499739395965,6.965772507316526,0.28758354741973885,-0.21250885640945763,-0.13440884712786014,0.3820079174378682,5.001274980104178,8.79059581242594,-0.00958794474473226,0.0,0.07599434909717408,-0.5168419254358044,0.5097960922371648,0.6075138210108681,0.22413816406205184,0.5097960922371647,0.5315194719136942,0.7409800894978562,1.0447279539267373,0.0,4.354155470111893,-29.612861002886785,29.209164497451575,34.80797793978886,12.842170828566394,29.209164497451567,30.453822469676975,42.45503183145318,59.85850249933997
30,0.15183401107788086,1775788768.633802,0.197520284,-18.560014781951644,-1.4805703318402939,0.6578407125034896,-19.30027617907858,-0.9282231133070682,0.8731292808589116,-0.7402613971269361,0.5523472185332257,0.21528856835542198,0.9483794354382857,6.080752115926435,-3.337057808404259,-0.38843650748535113,6.947113359685667,0.3459481416178407,-0.24804579869818705,-0.12719613636616067,0.4442810957571096,5.1154541385871894,8.823926213910385,-0.23650901067617855,0.0,0.05594254300761098,-0.5019139879863025,0.5593473392728322,0.6533708167912056,0.2566934679953831,0.5593473392728323,0.5974282737835948,0.7586074559816858,1.1159190206007998,0.0,3.205271609565204,-28.757553190195036,32.04824182220545,37.43539025915142,14.707452344711925,32.048241822205455,34.230118649586224,43.46500553490697,63.9374501587982
31,0.1549217700958252,1775788768.6368897,0.200607996,-18.54109312370572,-1.490733623892785,0.6568815870599395,-19.298807522022297,-0.9292663931731171,0.8726297562314936,-0.7577143983165762,0.561467230719668,0.21574816917155415,0.9674315650675976,6.098322390492782,-3.313580964346323,-0.35217619892454727,6.949344059747858,0.3889073206891581,-0.2738707244157227,-0.12264725649994764,0.49121932708778504,5.187728945496035,8.836832285286768,-0.39844549413498886,0.0,0.05069933431937088,-0.4977305911310667,0.5943350189465514,0.6836724585639411,0.2798880801058042,0.5943350189465515,0.63297312424457,0.7776186712368709,1.165581352209414,0.0,2.9048578806227217,-28.517862206361727,34.05288820246521,39.17154644504648,16.03640572608208,34.05288820246522,36.266688564423745,44.55426793244381,66.78289216075093
32,0.15996909141540527,1775788768.641937,0.205655355,-18.509974879425553,-1.5069589280725415,0.6558551523807425,-19.29672005018366,-0.9307209893379285,0.8720286477207141,-0.7867451707581061,0.576237938734613,0.21617349533997154,0.9988739188885742,6.125624268319265,-3.2728521969285116,-0.291070833553738,6.951226971528651,0.4468214914017623,-0.3083518251962153,-0.11807269201625936,0.5555820856365861,5.247158904451472,8.843705051112325,-0.6105566135207927,0.0,0.04188554930582914,-0.490700875731282,0.6403708253854598,0.7211810467627683,0.3107218883362749,0.6403708253854599,0.6792954974569394,0.8014227640675569,1.230364016718552,0.0,2.399865197811125,-28.115089182775943,36.69054561789584,41.320630244333486,17.80305280400379,36.69054561789585,38.92076504652238,45.91814198677973,70.49466542273649
33,0.16491341590881348,1775788768.6468813,0.210599703,-18.47928814773542,-1.5223489847340959,0.6555298986683297,-19.29433233083981,-0.9323535090737499,0.8714455878480201,-0.8150441831043906,0.5899954756603459,0.2159156891796904,1.0290827306615935,6.150661005548272,-3.2301246930389684,-0.2290082611168305,6.951027342876154,0.508918084157891,-0.3449891896663414,-0.11556000579571868,0.6255951344992092,5.235008504138622,8.841344868000443,-0.8309892606736179,0.0,0.03295192193092073,-0.4835779731089168,0.6889182202742592,0.758211077389913,0.34380461187669725,0.6889182202742594,0.7252591554589922,0.8273825849856138,1.2981414016741089,0.0,1.888006053486336,-27.70697692463175,39.472106451379034,43.44229471450905,19.69855323766809,39.47210645137905,41.55428866102272,47.405530162299826,74.37802352712337
34,0.16991019248962402,1775788768.651878,0.215596459,-18.46224481635945,-1.530628365885425,0.6556509881041519,-19.291625034383294,-0.9341738036479034,0.8708682330512517,-0.829380218023843,0.5964545622375216,0.21521724494709982,1.0440057726784133,6.1742458201749635,-3.1840988180485024,-0.1640714691795512,6.948864380461359,0.5745011976666045,-0.38337058588188405,-0.11593917379808305,0.700333152335918,5.114061030338122,8.83091965741548,-1.056992497722587,0.0,0.023613458080387742,-0.4761337256666856,0.7397797783521481,0.7946883011784596,0.3793846336615632,0.739779778352148,0.7710748430980718,0.8555183593282489,1.3688470320913029,0.0,1.3529514877153082,-27.280452964540842,42.38625906870159,45.53228568594698,21.737138320924437,42.386259068701584,44.17933419823167,49.017591285465286,78.42915773784041
35,0.17490434646606445,1775788768.6568723,0.220590664,-18.46224481635945,-1.530628365885425,0.6556509881041519,-19.288583085141372,-0.936189147480579,0.8702800324970017,-0.826338268781921,0.5944392184048459,0.2146290443928498,1.0403165602489726,6.196093561034953,-3.135238152338423,-0.0969414685735347,6.944831987694623,0.6426208700977097,-0.4229083281519109,-0.1200112859636458,0.778598577871826,4.8780143947268,8.813817242808812,-1.285323856256113,0.0,0.013959245833655575,-0.4684379830232829,0.7926616358109299,0.8305384040019159,0.4177415619427664,0.79266163581093,0.8165791581682602,0.8861795449660494,1.4423689459904072,0.0,0.7998058714540429,-26.839519390855017,45.416166313902195,47.586345272841065,23.934828426523364,45.4161663139022,46.78653940138701,50.77434781737839,82.64165310598332
36,0.17991328239440918,1775788768.6618812,0.225599483,-18.46224481635945,-1.530628365885425,0.6556509881041519,-19.28519657217426,-0.9384035610574363,0.8696607798905052,-0.8229517558148096,0.5922248048279887,0.21400979178635327,1.0362335657720538,6.2162730629239435,-3.083364397529309,-0.027379461090995396,6.939015523521673,0.7120937528087844,-0.4628506072904487,-0.12847732958628977,0.858961362155516,4.537896165030918,8.791623615199908,-1.5123130644460407,0.0,0.003945737265284101,-0.460454493172618,0.8473375786045926,0.8656848029944587,0.4591909753659811,0.8473375786045927,0.861739065729175,0.9196454685385991,1.5186582819458976,0.0,0.22607409236827025,-26.38209911662639,48.5488670768778,49.600085600196614,26.309704878966468,48.548867076877805,49.37401150782837,52.691803995592856,87.01271007808856
37,0.18490266799926758,1775788768.6668706,0.230589005,-18.46224481635945,-1.530628365885425,0.6556509881041519,-19.281461832002798,-0.9408170614193773,0.8689871892801883,-0.8192170156433463,0.5898113044660477,0.21333620117603636,1.031749111134947,6.234650132695947,-3.028832774263165,0.044140467768129646,6.93156826645104,0.781755369773853,-0.5024368912211976,-0.14177998692753674,0.9400456651266722,4.1070120192160555,8.766106681906702,-1.734645386912034,0.0,-0.00636807781536902,-0.4522283696138866,0.9036819762660654,0.9000425433701146,0.5040948530503956,0.9036819762660651,0.9064106211854837,0.9563232226642819,1.5977407282262643,0.0,-0.36486398243153434,-25.910776954957946,51.77716326208697,51.56863911732792,28.8825075540551,51.77716326208696,51.933503099759456,54.79328450901303,91.54380048352363
38,0.18991827964782715,1775788768.6718862,0.235604459,-18.46224481635945,-1.530628365885425,0.6556509881041519,-19.277380721978126,-0.9434260163724008,0.8682345081108525,-0.8151359056186749,0.5872023495130242,0.21258352000670055,1.026861673683867,0.0,0.0,0.0,0.0,0.8503994068703831,-0.5408781247940522,-0.16015598649888513,1.0204794153228476,3.5995985414208924,8.739135039301853,-1.949086976254989,0.0,-0.00636807781536902,-0.4522283696138866,0.961692975275351,0.9335149334223031,0.5528667557691027,0.9616929752753514,0.9398830112376722,1.0050951253829892,1.678823893258551,0.0,-0.36486398243153434,-25.910776954957946,55.10094867065664,53.486465797534,31.676931738659643,55.10094867065666,53.85132977996554,57.58770869361758,96.1895236294364
39,0.19490575790405273,1775788768.6768737,0.24059209,-18.46224481635945,-1.530628365885425,0.6556509881041519,-19.27296134656871,-0.9462227476659392,0.8673771711777499,-0.8107165302092589,0.5844056182194858,0.21172618307359803,1.0215768182373532,0.0,0.0,0.0,0.0,0.9169462512449424,-0.5774673970431872,-0.18360097389993074,1.099076130182523,3.031349321479037,8.710511058943883,-2.152827144923027,0.0,-0.00636807781536902,-0.4522283696138866,1.0214938211106872,0.9659840249059581,0.6059783677323891,1.0214938211106874,0.9723521027213273,1.0582067373462758,1.7631561862747582,0.0,-0.36486398243153434,-25.910776954957946,58.52728474833389,55.3468077041716,34.720002947292485,58.527284748333905,55.71167168660315,60.63077990225044,101.02140809592565
40,0.19991707801818848,1775788768.681885,0.24560347,-18.46224481635945,-1.530628365885425,0.6556509881041519,-19.26821629452925,-0.9491966150695947,0.8663904005374959,-0.8059714781697984,0.5814317508158302,0.21073941243334404,1.0159055095985663,0.0,0.0,0.0,0.0,0.9804788788984062,-0.6116169447073666,-0.21189785725810012,1.1748680014919224,2.4178349211501735,8.663858482857629,-2.3427846747278953,0.0,-0.00636807781536902,-0.4522283696138866,1.0832870356180129,0.997284418446422,0.6638865772738758,1.0832870356180129,1.0036524962617914,1.1161149468877625,1.8510920316010386,0.0,-0.36486398243153434,-25.910776954957946,62.067775142150225,57.14018815113872,38.037898953178875,62.067775142150225,57.50505213357028,63.94867590813683,106.05976090103673
41,0.20490097999572754,1775788768.686869,0.250587152,-18.46224481635945,-1.530628365885425,0.6556509881041519,-19.263162695671454,-0.9523341626581753,0.8652507564371447,-0.8009178793120029,0.5782942032272497,0.20959976833299276,1.0098641976885405,0.0,0.0,0.0,0.0,1.0403243906632509,-0.6429127657677297,-0.24465791663158618,1.2471844925136313,1.7753770946643095,8.580656712316403,-2.5165383984785885,0.0,-0.00636807781536902,-0.4522283696138866,1.1472235410949054,1.0271801222650805,0.7268999067144983,1.1472235410949052,1.0335482000804497,1.1791282763283846,1.9428554313610207,0.0,-0.36486398243153434,-25.910776954957946,65.73106706279124,58.853085805521,41.648296783194006,65.73106706279123,59.21794978795254,67.55907373815192,111.31741642105548
42,0.20990920066833496,1775788768.6918771,0.255595455,-18.46224481635945,-1.530628365885425,0.6556509881041519,-19.257820288442193,-0.9556204031026203,0.8639371501878325,-0.7955754720827422,0.5750079627828046,0.20828616208368056,1.0034727770890741,0.0,0.0,0.0,0.0,1.0958361270293646,-0.6710120434083864,-0.28141567620715385,1.315412012457293,1.1184037605459147,8.44074353133561,-2.671682315356728,0.0,-0.00636807781536902,-0.4522283696138866,1.2133298907924595,1.0553977660151652,0.7950975933044195,1.2133298907924592,1.0617658438305337,1.247325962918306,2.0384646645908986,0.0,-0.36486398243153434,-25.910776954957946,69.51868189947702,60.46983770020456,45.55573639735242,69.518681899477,60.83470168263606,71.46651335231036,116.79542196760944
43,0.21491360664367676,1775788768.6968815,0.260599785,-18.46224481635945,-1.530628365885425,0.6556509881041519,-19.252212347848722,-0.9590386314990182,0.8624308390623849,-0.7899675314892711,0.5715897343864067,0.20677985095823304,0.9967554524683999,0.0,0.0,0.0,0.0,1.14653764613542,-0.6957206661904303,-0.3216317820809472,1.3791384348986766,0.4608111210103886,8.223614432058703,-2.806293719640555,0.0,-0.00636807781536902,-0.4522283696138866,1.2813538436735898,1.0816506154060177,0.8681960890495398,1.2813538436735898,1.088018693221387,1.3204244586634264,2.1375624202658643,0.0,-0.36486398243153434,-25.910776954957946,73.41616730536256,61.974015170493,49.74397169230282,73.41616730536256,62.33887915292454,75.65474864726076,122.47330512700357
44,0.21992254257202148,1775788768.7018905,0.265608804,-18.46224481635945,-1.530628365885425,0.6556509881041519,-19.24636379016859,-0.9625717153660936,0.8607160015922821,-0.7841189738091394,0.5680566505193313,0.20506501348813022,0.9897386438063468,0.0,0.0,0.0,0.0,1.1919164409294627,-0.7168976812625619,-0.36474382305581327,1.4379308550882985,-0.19086203602162838,7.911019218893456,-2.918470196394347,0.0,-0.00636807781536902,-0.4522283696138866,1.3506674332377067,1.1056947042640666,0.9454557799648418,1.3506674332377067,1.1120627820794358,1.397684149578728,2.239309520472505,0.0,-0.36486398243153434,-25.910776954957946,77.38754345028848,63.351639984296725,54.17062590823485,77.38754345028848,63.71650396672827,80.08140286319278,128.30298454653877
45,0.22492265701293945,1775788768.7068906,0.270608889,-18.46224481635945,-1.530628365885425,0.6556509881041519,-19.240302795274296,-0.9662016491441829,0.8587795389778621,-0.7780579789148447,0.564426716741242,0.20312855087371018,0.9824525155468862,0.0,0.0,0.0,0.0,1.2315104171662816,-0.7344923364256493,-0.4101767540642028,1.491422766834315,-0.8385454021879233,7.48920619487563,-3.0066736242971057,0.0,-0.00636807781536902,-0.4522283696138866,1.420117452046946,1.1273758905584146,1.0256002316504416,1.420117452046946,1.1337439683737838,1.4778286012643278,2.342239598791534,0.0,-0.36486398243153434,-25.910776954957946,81.36673641516208,64.59388045379976,58.76256474120986,81.36673641516208,64.9587444362313,84.67334169616778,134.20044361917013
46,0.22996091842651367,1775788768.7119288,0.275647317,-18.46224481635945,-1.530628365885425,0.6556509881041519,-19.234058754189384,-0.9699108393583209,0.8566113467844589,-0.7718139378299327,0.560717526527104,0.20096035868030704,0.9749286973641398,0.0,0.0,0.0,0.0,1.2650830747270034,-0.7486176871355953,-0.4573422084621982,1.53948872132733,-1.41221067302237,6.949869159734966,-3.0702835455272726,0.0,-0.00636807781536902,-0.4522283696138866,1.4881449430369944,1.1466884886796609,1.1068413286853582,1.4881449430369944,1.1530565664950299,1.5590696982992451,2.4443430899075493,0.0,-0.36486398243153434,-25.910776954957946,85.26442453975608,65.70041081757944,63.41733672432336,85.26442453975608,66.06527480001098,89.32811367928133,140.05054273366932
47,0.23490452766418457,1775788768.7168725,0.280590736,-18.46224481635945,-1.530628365885425,0.6556509881041519,-19.227660994450524,-0.973682878128563,0.8542041686540448,-0.7654161780910727,0.5569454877568619,0.1985531805498929,0.9671988252281699,0.0,0.0,0.0,0.0,1.2932493444407611,-0.7597766817366418,-0.505683018543242,1.5828675839280448,-1.8282985353323622,6.292201208965313,-3.111474885022407,0.0,-0.00636807781536902,-0.4522283696138866,1.5532953520857165,1.1637962478146893,1.1869664425230386,1.5532953520857165,1.1701643256300578,1.6391948121369255,2.5434171171722793,0.0,-0.36486398243153434,-25.910776954957946,88.99726801179878,66.68061321294294,68.00816758022772,88.99726801179878,67.04547719537446,93.91894453518569,145.72706635530238
48,0.2395181655883789,1775788768.721486,0.285204556,-18.46224481635945,-1.530628365885425,0.6556509881041519,-19.222447954101604,-0.9767370888126388,0.8521031218381102,-0.7602031377421525,0.5538912770727862,0.1964521337339583,0.9608838630651267,0.0,0.0,0.0,0.0,1.3129166843920224,-0.76713283110064,-0.5449054760373886,1.6152909888075764,-2.0746221121074506,5.683982284455792,-3.1315807342869815,0.0,-0.00636807781536902,-0.4522283696138866,1.6022610855982606,1.1761200286741695,1.2486484275540788,1.6022610855982604,1.1824881064895383,1.7008767971679655,2.618873915933351,0.0,-0.36486398243153434,-25.910776954957946,91.80279788282986,67.38671384383528,71.54228499449545,91.80279788282985,67.7515778262668,97.4530619494534,150.05042245987977
49,0.24490737915039062,1775788768.7268753,0.290593681,-18.46224481635945,-1.530628365885425,0.6556509881041519,-19.21449023332119,-0.981368368758311,0.8486557179451542,-0.7522454169617383,0.5492599971271139,0.19300472984100225,0.9512152950436694,0.0,0.0,0.0,0.0,1.339098480091512,-0.7763104862582068,-0.6043226772685849,1.6616403367512842,-2.3415979560980746,4.637622231785109,-3.1448289139085968,0.0,-0.00636807781536902,-0.4522283696138866,1.668129894671789,1.1929248009916067,1.3341169222247384,1.6681298946717895,1.1992928788069754,1.7863452918386251,2.722497062685075,0.0,-0.36486398243153434,-25.910776954957946,95.57680264429607,68.3495563733027,76.43926902046061,95.5768026442961,68.71442035573422,102.35004597541857,155.98759142861832
50,0.25007104873657227,1775788768.732039,0.295757239,-18.46224481635945,-1.530628365885425,0.6556509881041519,-19.209101748397256,-0.9844842256717597,0.8461587496731466,-0.7468569320378045,0.5461441402136652,0.19050776156899474,0.9446490914835383,0.0,0.0,0.0,0.0,1.3549744164697153,-0.781516631965765,-0.6441871357954974,1.6916562834249056,-2.4710052190093448,3.8583663219762334,-3.1446763176790644,0.0,-0.00636807781536902,-0.4522283696138866,1.7054556849328477,1.2034522455960301,1.3845399848027724,1.705455684932848,1.2098203234113996,1.8367683544166589,2.783156893887859,0.0,-0.36486398243153434,-25.910776954957946,97.71541289324524,68.95273451819394,79.328297696306,97.71541289324524,69.3175985006255,105.23907465126393,159.4631437425138
51,0.2546048164367676,1775788768.7365727,0.300291094,-18.46224481635945,-1.530628365885425,0.6556509881041519,-19.203651599130424,-0.9876197865387493,0.8435020547812435,-0.7414067827709729,0.5430085793466757,0.18785106667709162,0.9379927281352562,0.0,0.0,0.0,0.0,1.3699748845700912,-0.7861843450018414,-0.684176421207467,1.7213408680488205,-2.5737448545147696,3.019293350652907,-3.138764104383891,0.0,-0.00636807781536902,-0.4522283696138866,1.7362651328619378,1.2138193732669322,1.4282864592728939,1.7362651328619378,1.2201874510823014,1.8805148288867803,2.8354558802834307,0.0,-0.36486398243153434,-25.910776954957946,99.48066422871018,69.54672717940993,81.83478605202076,99.48066422871018,69.91159116184147,107.7455630069787,162.4596549357922
52,0.2602400779724121,1775788768.742208,0.30592636,-18.46224481635945,-1.530628365885425,0.6556509881041519,-19.196756746987955,-0.9915640583433053,0.8399559964545686,-0.7345119306285035,0.5390643075421196,0.18430500835041674,0.9295517414348293,0.0,0.0,0.0,0.0,1.387825357844432,-0.7914277788180852,-0.734257617556796,1.7582808086028625,-2.6767385347865766,1.8976592272137205,-3.124842171141194,0.0,-0.00636807781536902,-0.4522283696138866,1.7639493463569849,1.2270282354803355,1.4717531335259293,1.763949346356985,1.2333963132957049,1.9239815031398155,2.8869514347471825,0.0,-0.36486398243153434,-25.910776954957946,101.06685282111549,70.30353923640776,84.32524303618965,101.0668528211155,70.66840321883932,110.23601999114757,165.41013287025123
53,0.26506900787353516,1775788768.747037,0.310755217,-18.46224481635945,-1.530628365885425,0.6556509881041519,-19.188367905095816,-0.996329814827494,0.8353700832753117,-0.7261230887363652,0.5342985510579309,0.1797190951711598,0.919254390703566,0.0,0.0,0.0,0.0,1.4083096969165803,-0.7970499562734121,-0.7943713221275971,1.8026787380571905,-2.778497946165117,0.4644601012036403,-3.100706176001489,0.0,-0.00636807781536902,-0.4522283696138866,1.7782681309148456,1.2439065746977684,1.5042693571563972,1.7782681309148458,1.2502746525131379,1.9564977267702837,2.924603837616561,0.0,-0.36486398243153434,-25.910776954957946,101.88725874403801,71.2705968387568,86.18828541591901,101.88725874403802,71.63546082118836,112.09906237087695,167.56745664319288
54,0.2700643539428711,1775788768.7520323,0.315750621,-18.46224481635945,-1.530628365885425,0.6556509881041519,-19.18128495965572,-1.0003258154201147,0.8312731665495143,-0.7190401432962688,0.5303025504653103,0.17562217844536243,0.9105397697319026,0.0,0.0,0.0,0.0,1.4247909933528957,-0.8012902568703951,-0.8443727752474776,1.8398534816865397,-2.8552535565058963,-0.7826290682673286,-3.076019037806052,0.0,-0.00636807781536902,-0.4522283696138866,1.7713286321957955,1.2591801216386855,1.5118044977464602,1.7713286321957957,1.265548199454054,1.9640328673603467,2.932003150143214,0.0,-0.36486398243153434,-25.910776954957946,101.4896547555,72.1457066166663,86.62001716976735,101.48965475550001,72.51057059909782,112.53079412472528,167.99140602226842
55,0.27619004249572754,1775788768.758158,0.321876229,-18.46224481635945,-1.530628365885425,0.6556509881041519,-19.17842889756233,-1.0019300048294608,0.8295644606302409,-0.7161840812028792,0.5286983610559641,0.17391347252608902,0.9070212186480302,0.0,0.0,0.0,0.0,1.4312597238519156,-0.8028905440526001,-0.8643278293273398,1.8547776738465052,-2.8854820634249605,-1.2912538737781956,-3.0652495435284326,0.0,-0.00636807781536902,-0.4522283696138866,1.762965513400714,1.2656074322592663,1.50905283706162,1.7629655134007143,1.2719755100746353,1.9612812066755065,2.92789908831032,0.0,-0.36486398243153434,-25.910776954957946,101.0104833449753,72.5139643888452,86.46235862587393,101.0104833449753,72.87882837127673,112.37313558083187,167.75626060038283
56,0.27942442893981934,1775788768.7613924,0.325110833,-18.46224481635945,-1.530628365885425,0.6556509881041519,-19.17267831267473,-1.0051477314449107,0.826027496075343,-0.7104334963152787,0.5254806344405143,0.17037650797119108,0.8999298885620001,0.0,0.0,0.0,0.0,1.4439841849830117,-0.8059398545016068,-0.904127222363349,1.884695044237552,-2.9468403039565465,-2.3181257294583717,-3.0425631361148806,0.0,-0.00636807781536902,-0.4522283696138866,1.73526078595744,1.2789062139803438,1.4922747977253272,1.7352607859574398,1.2852742917957123,1.9445031673392137,2.9058824078453065,0.0,-0.36486398243153434,-25.910776954957946,99.42311938991543,73.27592845412866,85.50104778339987,99.42311938991541,73.64079243656016,111.41182473835781,166.49479773084946
57,0.28443026542663574,1775788768.7663982,0.330116457,-18.46224481635945,-1.530628365885425,0.6556509881041519,-19.165419492244798,-1.009186409269365,0.8213830141994266,-0.7031746758853465,0.52144195661606,0.1657320260952747,0.8909677005367209,0.0,0.0,0.0,0.0,1.4594599975108329,-0.8094827619750236,-0.9536100200319848,1.9221492909174447,-3.0276149756722814,-3.606284180022872,-3.0127044199490025,0.0,-0.00636807781536902,-0.4522283696138866,1.6769272122339152,1.2959010704391678,1.4470833565865846,1.676927212233915,1.3022691482545365,1.8993117262004713,2.848749698184946,0.0,-0.36486398243153434,-25.910776954957946,96.0808518116422,74.24966200264993,82.91176893603604,96.08085181164219,74.61452598508144,108.82254589099398,163.22133459516448
58,0.28982043266296387,1775788768.7717884,0.335506809,-18.46224481635945,-1.530628365885425,0.6556509881041519,-19.15808463330081,-1.013242079637563,0.8164920161632384,-0.6958398169413584,0.517386286247862,0.1608410280590865,0.8819021807124878,0.0,0.0,0.0,0.0,1.4743823847240236,-0.8127376727962412,-1.0027212026578713,1.9595396784516501,-3.11535779516447,-4.880489576319827,-2.982014850643157,0.0,-0.00636807781536902,-0.4522283696138866,1.5873773359100107,1.3121655983690612,1.3701816092079733,1.587377335910011,1.3185336761844297,1.8224099788218595,2.753084813931943,0.0,-0.36486398243153434,-25.910776954957946,90.950021842364,75.18155080880547,78.50562337406036,90.95002184236401,75.54641479123697,104.41640032901829,157.7401404798599
59,0.2948744297027588,1775788768.7768424,0.340560771,-18.46224481635945,-1.530628365885425,0.6556509881041519,-19.15067678098132,-1.0173133076978926,0.8113565313964941,-0.68843196462187,0.5133150581875323,0.1557055432923422,0.8727400157476227,0.0,0.0,0.0,0.0,1.4886364269200236,-0.815705341741466,-1.0513956608127284,1.9967089050922295,-3.2117070068835663,-6.120497906539388,-2.9513039504133465,0.0,-0.00636807781536902,-0.4522283696138866,1.4619978774699876,1.3257285556222094,1.257066658610069,1.4619978774699876,1.332096633437578,1.7092950282239556,2.614117198607134,0.0,-0.36486398243153434,-25.910776954957946,83.76630803611475,75.9586510171272,72.02461410496964,83.76630803611475,76.32351499955871,97.93539105992758,149.7778826327508
60,0.2995009422302246,1775788768.7814689,0.345187251,-18.46224481635945,-1.530628365885425,0.6556509881041519,-19.143199605097536,-1.0213986445591834,0.8059788574294353,-0.6809547887380845,0.5092297213262416,0.15032786932528341,0.8634887385966364,0.0,0.0,0.0,0.0,1.5020911780774144,-0.8183803224514489,-1.0995922896575454,2.0335012817571707,-3.3174975493457497,-7.307401433542215,-2.9212793987409893,0.0,-0.00636807781536902,-0.4522283696138866,1.3000432997212068,1.333824593125402,1.1071231927074754,1.3000432997212066,1.3401926709407714,1.5593515623213623,2.4326541618790443,0.0,-0.36486398243153434,-25.910776954957946,74.48699425828626,76.42251979683978,63.43348634318726,74.48699425828624,76.78738377927134,89.34426329814522,139.3808164906038
61,0.30443692207336426,1775788768.7864048,0.350123089,-18.46224481635945,-1.530628365885425,0.6556509881041519,-19.135657419654066,-1.0254966102301204,0.800361426035724,-0.673412603294615,0.5051317556553045,0.14471043793157212,0.8541567395354253,0.0,0.0,0.0,0.0,1.5146197728961703,-0.8207556497452473,-1.1472991732085025,2.0697845989091963,-3.4318210481602125,-8.423794144458578,-2.8925895043594787,0.0,-0.00636807781536902,-0.4522283696138866,1.1094094429008023,1.3332988473154308,0.9283896441049125,1.1094094429008026,1.3396669251307998,1.3806180137187987,2.220721252677094,0.0,-0.36486398243153434,-25.910776954957946,63.564478830175865,76.39239678083173,53.192808350864034,63.56447883017588,76.75726076326326,79.10358530582195,127.23795525340276
62,0.30942487716674805,1775788768.7913928,0.355111143,-18.46224481635945,-1.530628365885425,0.6556509881041519,-19.12805506442301,-1.0296057059675026,0.7945066611092455,-0.6658102480635577,0.5010226599179224,0.1388556730050936,0.8447531533550994,0.0,0.0,0.0,0.0,1.5261524911271964,-0.8228335262218437,-1.1945297752921973,2.1054922992279144,-3.5445387949622904,-9.450824075033976,-2.866118635811907,0.0,-0.00636807781536902,-0.4522283696138866,0.908333161527678,1.3215943285651048,0.7392285373837384,0.9083331615276782,1.3279624063804736,1.191456906997625,2.0020296816788288,0.0,-0.36486398243153434,-25.910776954957946,52.043656547310825,75.72177725520632,42.35467528771701,52.04365654731084,76.08664123763783,68.26545224267495,114.70785122011657
63,0.3146331310272217,1775788768.796601,0.360319448,-18.46224481635945,-1.530628365885425,0.6556509881041519,-19.120397323844287,-1.0337245141484857,0.7884169173592905,-0.6581525074848358,0.4969038517369393,0.13276592925513864,0.8352873475341066,0.0,0.0,0.0,0.0,1.5368339223868412,-0.8246534365176704,-1.2412848529481821,2.140724148861295,-3.639891250743191,-10.386883015012481,-2.8424090153784607,0.0,-0.00636807781536902,-0.4522283696138866,0.7184729203962772,1.2977719645692052,0.5613648034168717,0.7184729203962772,1.3041400423845744,1.013593173030758,1.8012095124965766,0.0,-0.36486398243153434,-25.910776954957946,41.16546603314544,74.35685634021686,32.16383400297788,41.16546603314544,74.72172032264841,58.0746109579358,103.20170308487035
64,0.3194921016693115,1775788768.80146,0.365178465,-18.46224481635945,-1.530628365885425,0.6556509881041519,-19.112687713357225,-1.037851901292934,0.7820946577860614,-0.6504428969977738,0.492776464592491,0.12644366968190945,0.8257678898538977,0.0,0.0,0.0,0.0,1.5469249098894868,-0.826270216397854,-1.2875316957693248,2.175646344182203,-3.6990209776571445,-11.239672255541938,-2.8218143016825126,0.0,-0.00636807781536902,-0.4522283696138866,0.554370381981415,1.262576279698518,0.40930702402318364,0.554370381981415,1.2689443575138872,0.8615353936370704,1.630886120295937,0.0,-0.36486398243153434,-25.910776954957946,31.763083174590378,72.34029214005405,23.451565001588218,31.763083174590378,72.70515612248559,49.362341956546175,93.44289155942226
65,0.32443857192993164,1775788768.8064065,0.370124892,-18.46224481635945,-1.530628365885425,0.6556509881041519,-19.104928676202157,-1.0419869483488908,0.7755425477403711,-0.6426838598427054,0.4886414175365341,0.11989155963621922,0.8162027718076169,0.0,0.0,0.0,0.0,1.5566588080566526,-0.8277265536769545,-1.3332071911075507,2.2103753768948775,-3.711913219624095,-12.006709097590372,-2.8049615977825133,0.0,-0.00636807781536902,-0.4522283696138866,0.42020145856732266,1.2176955233203437,0.2871208426587707,0.4202014585673228,1.2240636011357129,0.739349212272657,1.4904825470617338,0.0,-0.36486398243153434,-25.910776954957946,24.075770121148917,69.7688142182298,16.45081249458733,24.075770121148924,70.13367820066135,42.36158944954526,85.39835938454644
66,0.32945871353149414,1775788768.8114266,0.375144885,-18.46224481635945,-1.530628365885425,0.6556509881041519,-19.09712116017061,-1.0461289863586687,0.768763771758396,-0.6348763438111575,0.48449937952675626,0.11311278365424415,0.8065991089251505,0.0,0.0,0.0,0.0,1.5663715083581233,-0.8290742134091802,-1.3781687597562906,2.2450462988331323,-3.674766488504931,-12.68646165581476,-2.7925894656791845,0.0,-0.00636807781536902,-0.4522283696138866,0.31335885129010344,1.1649940853324257,0.1920547977837499,0.3133588512901033,1.1713621631477942,0.6442831673976368,1.373092817958081,0.0,-0.36486398243153434,-25.910776954957946,17.95413965199052,66.74924424725167,11.003929348247345,17.954139651990513,67.11410822968318,36.91470630320531,78.6724233487231
67,0.334425687789917,1775788768.8163936,0.380111895,-18.46224481635945,-1.530628365885425,0.6556509881041519,-19.089264459504886,-1.0502775749596502,0.7617623996044577,-0.6270196431454345,0.4803507909257747,0.10611141150030579,0.7969630774909415,0.0,0.0,0.0,0.0,1.5763847476803827,-0.8303521180782456,-1.422203903053413,2.279723109190398,-3.5830695069463268,-13.278226979298449,-2.7853668680064874,0.0,-0.00636807781536902,-0.4522283696138866,0.22886246473908453,1.1061129552862037,0.11895548550251163,0.22886246473908445,1.1124810331015729,0.5711838551163981,1.2713154892169063,0.0,-0.36486398243153434,-25.910776954957946,13.112853318511165,63.37560400264221,6.815647269223567,13.11285331851116,63.74046798507376,32.72642422418151,72.84101196173825
68,0.33943676948547363,1775788768.8214047,0.38512314,-18.46224481635945,-1.530628365885425,0.6556509881041519,-19.08135627486051,-1.05443243745059,0.7545437764120965,-0.6191114585010595,0.47619592843483494,0.09889278830794457,0.787300034221099,0.0,0.0,0.0,0.0,1.5870194471270929,-0.8315873640345329,-1.4650097518069027,2.31439448721924,-3.4347104752722344,-13.782756708911363,-2.7838845332896303,0.0,-0.00636807781536902,-0.4522283696138866,0.16182230081187882,1.0423894018130377,0.06273145767933232,0.16182230081187887,1.0487574796284065,0.514959827293219,1.1795178387131071,0.0,-0.36486398243153434,-25.910776954957946,9.271734867617091,59.72451333305359,3.5942477677292795,9.271734867617095,60.0893773154851,29.505024722687228,67.58139401865358
69,0.3444247245788574,1775788768.8263927,0.39011102,-18.46224481635945,-1.530628365885425,0.6556509881041519,-19.073392756059526,-1.0585933942269936,0.7471149961425633,-0.611147939700075,0.47203497165843133,0.09146400803841137,0.7776146111247352,0.0,0.0,0.0,0.0,1.5985567035130503,-0.8327892512443174,-1.5061970394610307,2.3489467837768814,-3.230423317687504,-14.201377521701868,-2.7886337635564713,0.0,-0.00636807781536902,-0.4522283696138866,0.10825566468415822,0.9748895644158921,0.019180288660040724,0.10825566468415815,0.9812576422312613,0.4714086582739272,1.09398901844081,0.0,-0.36486398243153434,-25.910776954957946,6.202592694785702,55.85705753237782,1.0989495900629664,6.2025926947856975,56.22192151480937,27.009726545020904,62.680953590318005
70,0.3494377136230469,1775788768.8314056,0.39512392,-18.46224481635945,-1.530628365885425,0.6556509881041519,-19.06536884027035,-1.0627602569179146,0.7394852832593398,-0.6031240239108975,0.4678681089675103,0.08383429515518792,0.7679110265203086,0.0,0.0,0.0,0.0,1.6112110595343148,-0.8339465395405351,-1.5452958988981984,2.3831507137251964,-2.973496288303388,-14.53676853551485,-2.7999193173028014,0.0,-0.00636807781536902,-0.4522283696138866,0.0651575808954158,0.9044795062981204,-0.014931339015583788,0.0651575808954159,0.9108475841134895,0.4372970305983026,1.012480876265629,0.0,-0.36486398243153434,-25.910776954957946,3.733254388589569,51.822858366958656,-0.8555027080719724,3.7332543885895744,52.1877223493902,25.05527424688596,58.010881047727864
71,0.3544328212738037,1775788768.8364007,0.400119109,-18.46224481635945,-1.530628365885425,0.6556509881041519,-19.05727858476281,-1.0669327314565142,0.7316663949264649,-0.5950337684033578,0.4636956344289107,0.076015406822313,0.7581933585854551,0.0,0.0,0.0,0.0,1.625096973569572,-0.8350262216317786,-1.5817800815394785,2.416658269319985,-2.6692719082108813,-14.790882153192092,-2.8179270810961006,0.0,-0.00636807781536902,-0.4522283696138866,0.03032962520875138,0.8318726740288257,-0.04203082156468427,0.030329625208751487,0.8382407518441948,0.4101975480492026,0.9337180905622436,0.0,-0.36486398243153434,-25.910776954957946,1.7377595186750425,47.6627933141138,-2.4081886851238554,1.7377595186750487,48.027657296545335,23.502588269834103,53.498105844230544
72,0.359433650970459,1775788768.8414016,0.405119985,-18.46224481635945,-1.530628365885425,0.6556509881041519,-19.049115833266708,-1.0711103013231589,0.7236727570379011,-0.5868710169072564,0.45951806456226607,0.06802176893374923,0.7484660334268246,0.0,0.0,0.0,0.0,1.640200462489039,-0.8359746500075023,-1.6150998014899016,2.44901174790509,-2.3247549129134772,-14.966210425591816,-2.8425705840777793,0.0,-0.00636807781536902,-0.4522283696138866,0.0021801931479388916,0.7576822971849372,-0.06393317765464723,0.002180193147939047,0.764050375000306,0.38829519195923945,0.8570594406917954,0.0,-0.36486398243153434,-25.910776954957946,0.1249158659002396,43.41199784047387,-3.6631012504713896,0.1249158659002485,43.7768618229054,22.24767570448656,49.105888743482765
73,0.3644251823425293,1775788768.846393,0.410111517,-18.46224481635945,-1.530628365885425,0.6556509881041519,-19.040874798811977,-1.0752921442572623,0.7155215655060551,-0.5786299824525258,0.4553362216281627,0.05987057740190316,0.738734199396548,0.0,0.0,0.0,0.0,1.656367925559178,-0.8367225914382036,-1.6447207451366632,2.479670488054245,-1.948132462380413,-15.064476598125541,-2.8735305334711625,0.0,-0.00636807781536902,-0.4522283696138866,-0.020444164054407726,0.6824415004550545,-0.0820050183605038,-0.020444164054407743,0.6888095782704236,0.370223351253383,0.7822671722463165,0.0,-0.36486398243153434,-25.910776954957946,-1.1713643159906282,39.10101774064987,-4.698541450949694,-1.1713643159906293,39.46588172308141,21.212235504008262,44.82060742134734
74,0.3694274425506592,1775788768.8513954,0.415113655,-18.46224481635945,-1.530628365885425,0.6556509881041519,-19.0325508658457,-1.0794770622133623,0.7072325177851603,-0.5703060494862484,0.4511513036720627,0.051581529681008376,0.7290042133553452,0.0,0.0,0.0,0.0,1.673302982384272,-0.8371914068377901,-1.670164986042025,2.508043740276452,-1.5484287929721408,-15.086580029451556,-2.9101542123099113,0.0,-0.00636807781536902,-0.4522283696138866,-0.03838588993184345,0.6066368990023843,-0.09728877431182065,-0.038385889931843664,0.613004976817753,0.3549395953020662,0.7093875488492789,0.0,-0.36486398243153434,-25.910776954957946,-2.199349485948349,34.7577340097406,-5.574236162068103,-2.1993494859483613,35.12259799217212,20.336540792889856,40.6449125881942
75,0.3744218349456787,1775788768.8563898,0.420108139,-18.46224481635945,-1.530628365885425,0.6556509881041519,-19.024141255480565,-1.0836634581456723,0.698827422388112,-0.5618964391211136,0.4469649077397526,0.04317643428396012,0.7192839783599174,0.0,0.0,0.0,0.0,1.6905481607368105,-0.8373005822908649,-1.6911028786680673,2.5335457949511504,-1.1410220706423886,-15.042923663203991,-2.9482734983887267,0.0,-0.00636807781536902,-0.4522283696138866,-0.052275499466141226,0.5306970046491326,-0.11058215050855462,-0.052275499466141184,0.5370650824645016,0.341646219105332,0.638665616481743,0.0,-0.36486398243153434,-25.910776954957946,-2.9951654913482804,30.406698566629927,-6.33589051362063,-2.995165491348278,30.771562549061457,19.574886441337316,36.59284434452474
