sample_idx,t_rel_s,stamp_s,t_in_traj_s,x_des_m,y_des_m,z_des_m,x_act_m,y_act_m,z_act_m,ex_m,ey_m,ez_m,e_pos_norm_m,vx_des_mps,vy_des_mps,vz_des_mps,speed_des_mps,vx_act_mps,vy_act_mps,vz_act_mps,speed_act_mps,wx_act_radps,wy_act_radps,wz_act_radps,roll_des_rad,pitch_des_rad,yaw_des_rad,roll_act_rad,pitch_act_rad,yaw_act_rad,e_roll_rad,e_pitch_rad,e_yaw_rad,e_ang_norm_rad,roll_des_deg,pitch_des_deg,yaw_des_deg,roll_act_deg,pitch_act_deg,yaw_act_deg,e_roll_deg,e_pitch_deg,e_yaw_deg,e_ang_norm_deg
0,8.463859558105469e-05,1775831872.0823114,0.042228906,-19.33476506458485,0.8638308768824167,0.8360062179218184,-19.31,0.92,0.8668379496518492,0.024765064584851615,0.056169123117583375,0.030831731730030842,0.06869406449732539,-1.0764322531747081,-2.501238779555456,-1.3237354190582498,3.0277346792108726,0.0,0.0,0.0007690555700405906,0.0007690555700405906,0.0,0.0,0.0,0.0,0.4524866040310053,-1.9771978757260176,0.0,0.0,0.0,0.0,-0.45248660403100516,1.9771978757260174,2.028313478386166,0.0,25.925572697183867,-113.28509354133264,0.0,0.0,0.0,0.0,-25.92557269718386,113.28509354133263,116.21380184102684
1,0.0050809383392333984,1775831872.0873077,0.047225113,-19.34047944060976,0.8505649976361134,0.8289753473033332,-19.31,0.92,0.8668417467979768,0.030479440609759934,0.06943500236388667,0.03786639949464354,0.08475895270615826,-1.1746040674984746,-2.7490690342360926,-1.4390778631812038,3.317833685807338,0.0,0.0,0.0007498798611156614,0.0007498798611156614,0.0,0.0,0.0,0.0,0.44863964581922156,-1.9745909858318067,0.0,0.0,0.0,0.0,-0.44863964581922167,1.9745909858318065,2.0249165644858116,0.0,25.705158227685462,-113.13572975273905,0.0,0.0,0.0,0.0,-25.70515822768547,113.13572975273904,116.0191730111672
2,0.010079622268676758,1775831872.0923064,0.052223716,-19.346670848470787,0.8360809275408647,0.8213878740029453,-19.31,0.92,0.8668454492376734,0.03667084847078783,0.08391907245913532,0.04545757523472804,0.10224261829682399,-1.2662007880278379,-2.986104113004511,-1.5450881378705925,3.5926841724667633,0.0,0.0,0.0007311788039659582,0.0007311788039659582,0.0,0.0,0.0,0.0,0.44456490335065335,-1.9718459575616252,0.0,0.0,0.0,0.0,-0.4445649033506536,1.9718459575616247,2.021339762049739,0.0,25.471692681633787,-112.97845121821356,0.0,0.0,0.0,0.0,-25.4716926816338,112.97845121821354,115.81423732742813
3,0.015076875686645508,1775831872.0973036,0.057221166,-19.35330197892849,0.8204430344182837,0.8132958869658165,-19.31,0.92,0.8668490593725914,0.04330197892848986,0.09955696558171634,0.05355317240677493,0.12105615659598726,-1.3511549111343337,-3.21217165035026,-1.6416874744223684,3.852116829597934,0.0,0.0,0.0007129482772584537,0.0007129482772584537,0.0,0.0,0.0,0.0,0.4402636713232842,-1.9689647953876739,0.0,0.0,0.0,0.0,-0.44026367132328437,1.9689647953876737,2.0175862969803995,0.0,25.225250239759035,-112.81337278555341,0.0,0.0,0.0,0.0,-25.225250239759045,112.8133727855534,115.5991796204052
4,0.02008366584777832,1775831872.1023104,0.062227913,-19.360354574956034,0.8036705087120471,0.8047282938840727,-19.31,0.92,0.8668525794680906,0.050354574956035236,0.11632949128795289,0.062124285584017835,0.1411650120307489,-1.429627886291396,-3.427717677081541,-1.7290549103603172,4.096671240175419,0.0,0.0,0.0006951686104280591,0.0006951686104280591,0.0,0.0,0.0,0.0,0.4357201560666274,-1.9659384403969244,0.0,0.0,0.0,0.0,-0.4357201560666275,1.9659384403969247,2.0136449552572615,0.0,24.9649259913993,-112.63997541727511,0.0,0.0,0.0,0.0,-24.96492599139931,112.63997541727512,115.37335737405057
5,0.025094270706176758,1775831872.107321,0.067238509,-19.367789276720963,0.785832122967201,0.7957398051334335,-19.31,0.92,0.8668560118067845,0.05778927672096401,0.1341678770327991,0.07111620667335106,0.1624750275673995,-1.5015081614011547,-3.6324645311329804,-1.8070582899350898,4.326058828993955,0.0,0.0,0.000677836408082672,0.000677836408082672,0.0,0.0,0.0,0.0,0.4309285936849612,-1.9627648931012316,0.0,0.0,0.0,0.0,-0.4309285936849614,1.962764893101232,2.009513741790782,0.0,24.69038968965618,-112.45814455114676,0.0,0.0,0.0,0.0,-24.690389689656186,112.45814455114679,115.13665627815368
6,0.03007817268371582,1775831872.112305,0.072222431,-19.37552520923238,0.7670981390513859,0.7864348042660829,-19.31,0.92,0.8668593585435204,0.06552520923237992,0.15290186094861413,0.08042455427743744,0.18477186219016406,-1.5664032494606237,-3.8252397578481667,-1.8752867782732159,4.539028403271942,0.0,0.0,0.0006609331722094173,0.0006609331722094173,0.0,0.0,0.0,0.0,0.425907279366848,-1.9594581764661048,0.0,0.0,0.0,0.0,-0.4259072793668479,1.9594581764661045,2.005211548923839,0.0,24.402689571619682,-112.26868364390829,0.0,0.0,0.0,0.0,-24.402689571619675,112.26868364390828,114.89015878422656
7,0.03507542610168457,1775831872.1173022,0.077219489,-19.383589739805913,0.7473773989714612,0.7767872821063588,-19.31,0.92,0.8668626218504212,0.07358973980591443,0.17262260102853888,0.09007533974406234,0.20815277807554852,-1.624858413669816,-4.007627521777506,-1.9343234984167008,4.737388585952088,0.0,0.0,0.0006444557660343834,0.0006444557660343834,0.0,0.0,0.0,0.0,0.4206020200924962,-1.955984810982304,0.0,0.0,0.0,0.0,-0.42060202009249625,1.9559848109823044,2.000695539081189,0.0,24.098720605976684,-112.0696744609801,0.0,0.0,0.0,0.0,-24.098720605976688,112.06967446098011,114.63141048000318
8,0.04007530212402344,1775831872.122302,0.082219405,-19.391934677336558,0.72676048808186,0.7668624542107196,-19.31,0.92,0.8668658037774767,0.08193467733655879,0.19323951191814004,0.10000334956675705,0.23249832309326018,-1.676721663452163,-4.179200343134295,-1.9840020014405708,4.920708789032713,0.0,0.0,0.0006283861850176485,0.0006283861850176485,0.0,0.0,0.0,0.0,0.4150048339472747,-1.9523422172597642,0.0,0.0,0.0,0.0,-0.4150048339472745,1.9523422172597638,1.9959632124601834,0.0,23.778025462706395,-111.86096921419771,0.0,0.0,0.0,0.0,-23.77802546270638,111.8609692141977,114.36026813734216
9,0.045075178146362305,1775831872.127302,0.087219405,-19.400522505064036,0.7053126659907436,0.756712552102411,-19.31,0.92,0.8668689063884267,0.0905225050640368,0.21468733400925644,0.11015635428601578,0.25771961061715276,-1.7219583763741215,-4.339853393247721,-2.024286434908992,5.088929523525092,0.0,0.0,0.0006127210485766598,0.0006127210485766598,0.0,0.0,0.0,0.0,0.40909848473787197,-1.948522040757754,0.0,0.0,0.0,0.0,-0.4090984847378718,1.9485220407577541,1.9910046995257409,0.0,23.439616580677185,-111.64208922363747,0.0,0.0,0.0,0.0,-23.43961658067718,111.64208922363748,114.07616627353757
10,0.050100088119506836,1775831872.1323268,0.000457893,-19.31000329866176,0.9199927582764449,0.8668487214429292,-19.31,0.92,0.8668719316302683,3.2986617597430268e-06,7.2417235551514025e-06,2.321018733908442e-05,2.453643262110082e-05,-0.3037848626115396,-0.6768077764082503,-0.3811777864491235,0.8340566610493833,0.0,0.0,0.0005974432288146855,0.0005974432288146855,0.0,0.0,0.0,0.0,0.47463818337773617,-1.992693121963042,0.0,0.0,0.0,0.0,-0.4746381833777362,1.9926931219630415,2.0484402074356307,0.0,27.194764703300706,-114.17290575323011,0.0,0.0,0.0,0.0,-27.19476470330071,114.17290575323008,117.36697847096451
11,0.05513501167297363,1775831872.1373618,0.005492885,-19.310467978712285,0.9189689488512264,0.8662649213045504,-19.31,0.92,0.8668748814626808,0.00046797871228676513,0.001031051148773665,0.0006099601581304182,0.0012861267204469233,-0.37287965353608116,-0.8340335445409007,-0.46712270137830175,1.0260871344986295,0.0,0.0,0.0005825494107436821,0.0005825494107436821,0.0,0.0,0.0,0.0,0.472649183650576,-1.9912192634426285,0.0,0.0,0.0,0.0,-0.4726491836505762,1.9912192634426287,2.04654621396893,0.0,27.080803413481757,-114.08845988041102,0.0,0.0,0.0,0.0,-27.080803413481767,114.08845988041104,117.2584606388972
12,0.06105184555053711,1775831872.1432786,0.011409608,-19.31198510914302,0.9156075149239715,0.8643567707397909,-19.31,0.92,0.866876615922068,0.001985109143021191,0.004392485076028518,0.002519845182277103,0.00543913625454306,-0.45121138049136805,-1.0140742895130501,-0.5640596566261881,1.2450307910929659,0.0,0.0,0.0005737758941083867,0.0005737758941083867,0.0,0.0,0.0,0.0,0.47018224357497124,-1.9894419398343963,0.0,0.0,0.0,0.0,-0.4701822435749712,1.9894419398343963,2.044248168433872,0.0,26.93945815883792,-113.98662673883037,0.0,0.0,0.0,0.0,-26.939458158837915,113.98662673883037,117.1267923286095
13,0.06513524055480957,1775831872.147362,0.01549312,-19.31361702600603,0.9119720921974604,0.8623081092082928,-19.31,0.92,0.8668794487532097,0.0036170260060295334,0.008027907802539591,0.0045713395449168415,0.009921054684321143,-0.5034688911204259,-1.1353584010211148,-0.6284043006290244,1.3919093318691083,0.0,0.0,0.0005594145270929852,0.0005594145270929852,0.0,0.0,0.0,0.0,0.4684112974906539,-1.988185674592828,0.0,0.0,0.0,0.0,-0.468411297490654,1.9881856745928275,2.0426187652797605,0.0,26.837990422461317,-113.91464804253951,0.0,0.0,0.0,0.0,-26.837990422461324,113.91464804253948,117.0334344047536
14,0.07158517837524414,1775831872.153812,0.021943049,-19.317118291634014,0.904122710234098,0.8579248544406661,-19.31,0.92,0.8668811142945481,0.007118291634014895,0.01587728976590208,0.008956259853881932,0.01956969587570442,-0.6098496691611112,-1.3829470089480547,-0.7591997411313196,1.6914027596844432,0.0,0.0,0.0005509695138881868,0.0005509695138881868,0.0,0.0,0.0,0.0,0.4654870096992873,-1.9861225561915747,0.0,0.0,0.0,0.0,-0.46548700969928714,1.9861225561915745,2.039941412004702,0.0,26.670441073934377,-113.79644006551192,0.0,0.0,0.0,0.0,-26.67044107393437,113.79644006551192,116.88003336182724
15,0.07560229301452637,1775831872.157829,0.025960062,-19.319843461386824,0.8979745819768309,0.8545232066373114,-19.31,0.92,0.866883295996434,0.00984346138682568,0.022025418023169152,0.012360089359122584,0.027106910191587088,-0.7109049084487397,-1.6186680638691389,-0.8833014545552854,1.976282760504139,0.0,0.0,0.000539919746354223,0.000539919746354223,0.0,0.0,0.0,0.0,0.4633539824156359,-1.9846254574785644,0.0,0.0,0.0,0.0,-0.4633539824156361,1.9846254574785647,2.0379978212678322,0.0,26.5482276129949,-113.71066262774197,0.0,0.0,0.0,0.0,-26.548227612994907,113.71066262774198,116.76867381550387
16,0.07969927787780762,1775831872.161926,0.030056988,-19.32303201134178,0.8907435864696058,0.8505531072634256,-19.31,0.92,0.8668859617063963,0.013032011341781669,0.02925641353039421,0.016332854442970723,0.03595181756919986,-0.8095642734337717,-1.8518165445229637,-1.0036255507086924,2.256520124755072,0.0,0.0,0.0005264234763164936,0.0005264234763164936,0.0,0.0,0.0,0.0,0.4609140295891131,-1.9829323057771788,0.0,0.0,0.0,0.0,-0.4609140295891132,1.9829323057771786,2.035795243133963,0.0,26.408428613824125,-113.61365218117717,0.0,0.0,0.0,0.0,-26.40842861382413,113.61365218117716,116.64247538438536
17,0.08470344543457031,1775831872.1669302,0.03506125,-19.327460917751054,0.8806386175340102,0.845055069590822,-19.31,0.92,0.8668885608032753,0.017460917751055405,0.03936138246598986,0.02183349121245326,0.04827943057728964,-0.9240365613893962,-2.1266503689531837,-1.1420393400981386,2.584712597734,0.0,0.0,0.0005132686601980468,0.0005132686601980468,0.0,0.0,0.0,0.0,0.45765298804830534,-1.98068872328915,0.0,0.0,0.0,0.0,-0.45765298804830534,1.9806887232891501,2.032873354647147,0.0,26.221584696719002,-113.48510437362366,0.0,0.0,0.0,0.0,-26.221584696719002,113.48510437362367,116.47506350588294
18,0.08968663215637207,1775831872.1719134,0.040044442,-19.33242395317445,0.8692366558732599,0.8389152248031093,-19.31,0.92,0.866891094934561,0.022423953174453004,0.050763344126740106,0.02797587013145164,0.06214821069436954,-1.0314299758586996,-2.3894546600583846,-1.2705183193882887,2.8961281338151887,0.0,0.0,0.0005004390576500336,0.0005004390576500336,0.0,0.0,0.0,0.0,0.4541464901181361,-1.9782937892981758,0.0,0.0,0.0,0.0,-0.454146490118136,1.978293789298176,2.029752534488468,0.0,26.020677164448948,-113.34788476372842,0.0,0.0,0.0,0.0,-26.02067716444894,113.34788476372843,116.29625368217128
19,0.09468197822570801,1775831872.1769087,0.045039799,-19.33791973862007,0.8565196316344542,0.8321411851591278,-19.31,0.92,0.866893565731379,0.02791973862007069,0.06348036836554583,0.03475238057225116,0.07756930403115035,-1.132478453599717,-2.6420113166893056,-1.3899444397912466,3.1929103950923157,0.0,0.0,0.00048793051319021745,0.00048793051319021745,0.0,0.0,0.0,0.0,0.4503960190524457,-1.975748192300349,0.0,0.0,0.0,0.0,-0.45039601905244586,1.9757481923003493,2.026434675324223,0.0,25.805791001198955,-113.20203279941177,0.0,0.0,0.0,0.0,-25.805791001198962,113.20203279941178,116.10615435504124
20,0.0997157096862793,1775831872.1819425,0.050073497,-19.34395150678031,0.8424565134553891,0.8247355051176652,-19.31,0.92,0.8668959747559267,0.033951506780312,0.07754348654461096,0.04216046963826148,0.09456850595344415,-1.2276109953032412,-2.885478117997154,-1.5008010291696547,3.4764085568854686,0.0,0.0,0.00047573271813326214,0.00047573271813326214,0.0,0.0,0.0,0.0,0.44638790015230045,-1.9730434682122564,0.0,0.0,0.0,0.0,-0.44638790015230034,1.9730434682122562,2.0229094603707374,0.0,25.576142704434012,-113.0470635244167,0.0,0.0,0.0,0.0,-25.57614270443401,113.04706352441669,115.90417441633011
21,0.1047208309173584,1775831872.1869476,0.005051742,-19.31039632623183,0.9191270897782489,0.8663901453333419,-19.31,0.92,0.8668983235746297,0.00039632623183294413,0.0008729102217511775,0.0005081782412877933,0.0010850308116339116,-0.3669154225646997,-0.8204057104385714,-0.45991598840350983,1.0095618720144033,0.0,0.0,0.0004638430190232844,0.0004638430190232844,0.0,0.0,0.0,0.0,0.47300116143356236,-1.9913497937407696,0.0,0.0,0.0,0.0,-0.4730011614335625,1.9913497937407696,2.046754528454476,0.0,27.100970254929248,-114.09593871559309,0.0,0.0,0.0,0.0,-27.100970254929255,114.09593871559309,117.27039617973044
22,0.10968947410583496,1775831872.1919162,0.010020403,-19.31153729742742,0.9166018753140608,0.8649537437340772,-19.31,0.92,0.8669006136768281,0.0015372974274221463,0.003398124685939252,0.0019468699427509506,0.004207236306120157,-0.43309753743711893,-0.9722599889274631,-0.5418923283323422,1.1943660487927368,0.0,0.0,0.00045224867295413966,0.00045224867295413966,0.0,0.0,0.0,0.0,0.4709208305284617,-1.9898637458258233,0.0,0.0,0.0,0.0,-0.47092083052846156,1.989863745825823,2.0448286372157427,0.0,26.981776074076347,-114.01079444191245,0.0,0.0,0.0,0.0,-26.98177607407634,114.01079444191244,117.1600507399498
23,0.11468100547790527,1775831872.1969078,0.015011905,-19.313400617821387,0.9124551430020468,0.8626126704043061,-19.31,0.92,0.8669028465517948,0.003400617821387897,0.007544856997953264,0.004290176147488722,0.009321731602185641,-0.49738727807742905,-1.1211920961389836,-0.6211313350058063,1.3748708870886375,0.0,0.0,0.00044094716296088016,0.00044094716296088016,0.0,0.0,0.0,0.0,0.46875317245823916,-1.9883350032313358,0.0,0.0,0.0,0.0,-0.4687531724582392,1.9883350032313363,2.0428425347453048,0.0,26.857578415225124,-113.92320394328645,0.0,0.0,0.0,0.0,-26.857578415225127,113.92320394328647,117.04625545071319
24,0.11970949172973633,1775831872.2019362,0.020040393,-19.31597113458615,0.9067010970274866,0.8593913984636167,-19.31,0.92,0.8669050236139607,0.005971134586150839,0.01329890297251346,0.007513625150344039,0.016400299735618754,-0.5604919956729404,-1.2688373826974713,-0.6985057490579955,1.5530646678136348,0.0,0.0,0.0004299258503634911,0.0004299258503634911,0.0,0.0,0.0,0.0,0.4664961647926139,-1.9867572514105694,0.0,0.0,0.0,0.0,-0.466496164792614,1.9867572514105696,2.040789809803719,0.0,26.728261401656123,-113.83280542283745,0.0,0.0,0.0,0.0,-26.72826140165613,113.83280542283745,116.92864297505909
25,0.12468862533569336,1775831872.2069154,0.025019474,-19.319169098949537,0.8994988485593063,0.8553952774395098,-19.31,0.92,0.8669071462752413,0.009169098949538323,0.020501151440693755,0.01151186883573152,0.025236733347083,-0.6876262643355168,-1.5641058520164839,-0.854994111549187,1.910568482546494,0.0,0.0,0.0004191821323737249,0.0004191821323737249,0.0,0.0,0.0,0.0,0.4639764573460157,-1.9849923198612383,0.0,0.0,0.0,0.0,-0.4639764573460159,1.984992319861238,2.0384966673702114,0.0,26.583892799358363,-113.73168229393129,0.0,0.0,0.0,0.0,-26.58389279935837,113.73168229393127,116.79725559179676
26,0.1296837329864502,1775831872.2119105,0.030014573,-19.322996945239204,0.890823316313379,0.8506267265798418,-19.31,0.92,0.8669092158779547,0.01299694523920536,0.029176683686621074,0.016282489298112823,0.03585134466436652,-0.8085656592392354,-1.8494403534732085,-1.0026234779596355,2.2537661557739215,0.0,0.0,0.00040870486624764043,0.00040870486624764043,0.0,0.0,0.0,0.0,0.46102440817192847,-1.982950550839967,0.0,0.0,0.0,0.0,-0.46102440817192836,1.9829505508399672,2.0358380073097186,0.0,26.41475284076808,-113.61469754627188,0.0,0.0,0.0,0.0,-26.414752840768074,113.6146975462719,116.64492559117052
27,0.13469219207763672,1775831872.216919,0.035023088,-19.327424996398022,0.8807208471232024,0.8451285285631048,-19.31,0.92,0.8669112337673616,0.01742499639802375,0.03927915287679762,0.021782705204256736,0.04817643195801795,-0.9231887274546048,-2.124595914546482,-1.1412340748523737,2.5823633439566573,0.0,0.0,0.00039849235982772384,0.00039849235982772384,0.0,0.0,0.0,0.0,0.45775345514276033,-1.9807064739365965,0.0,0.0,0.0,0.0,-0.4577534551427602,1.9807064739365963,2.0329132695689407,0.0,26.227341037211215,-113.48612141080596,0.0,0.0,0.0,0.0,-26.22734103721121,113.48612141080596,116.47735046244131
28,0.13968634605407715,1775831872.221913,0.040017251,-19.33239543473262,0.8693024004408936,0.8389782972533619,-19.31,0.92,0.8669132012227243,0.022395434732622732,0.050697599559106465,0.02793490396936238,0.062065779280503476,-1.0308618412634198,-2.388050095901362,-1.2700600611069592,2.894565935529285,0.0,0.0,0.000388533377041251,0.000388533377041251,0.0,0.0,0.0,0.0,0.45423378803000264,-1.978307258398635,0.0,0.0,0.0,0.0,-0.45423378803000247,1.978307258398635,2.029785196226637,0.0,26.025678966359205,-113.34865648633857,0.0,0.0,0.0,0.0,-26.025678966359195,113.34865648633857,116.29812506191993
29,0.14468097686767578,1775831872.2269077,0.045011828,-19.337887575382226,0.8565943267007771,0.8322075098536836,-19.31,0.92,0.8669151195222894,0.02788757538222697,0.06340567329922298,0.034707609668605754,0.07747654119883957,-1.1319310595550471,-2.6406275037732523,-1.3895216110017845,3.1913871348851055,0.0,0.0,0.0003788258296037077,0.0003788258296037077,0.0,0.0,0.0,0.0,0.4504796509390475,-1.9757628339066022,0.0,0.0,0.0,0.0,-0.4504796509390476,1.975762833906602,2.026467540267254,0.0,25.810582755333954,-113.20287170165537,0.0,0.0,0.0,0.0,-25.81058275533396,113.20287170165535,116.10803737757085
30,0.14969110488891602,1775831872.2319179,0.05002192,-19.343887303011698,0.8426067771796162,0.824839818192235,-19.31,0.92,0.8669169898813556,0.03388730301169929,0.07739322282038386,0.04207717168912062,0.09438510804829352,-1.2266702948203976,-2.883039608258416,-1.4999350174859536,3.4736785187553254,0.0,0.0,0.0003693592234200518,0.0003693592234200518,0.0,0.0,0.0,0.0,0.44648766110276267,-1.9730718830495553,0.0,0.0,0.0,0.0,-0.4464876611027626,1.9730718830495553,2.0229591906901465,0.0,25.581858585855713,-113.04869157466948,0.0,0.0,0.0,0.0,-25.58185858585571,113.04869157466948,115.90702375374609
31,0.15468764305114746,1775831872.2369144,0.005063997,-19.310398237571196,0.9191228723470769,0.8664037707456701,-19.31,0.92,0.8669188135140811,0.0003982375711970576,0.0008771276529231375,0.0005150427684109671,0.001092343872563863,-0.3670813417698467,-0.8207846758707129,-0.46021196313788004,1.0100649714919152,0.0,0.0,0.00036013121463647935,0.00036013121463647935,0.0,0.0,0.0,0.0,0.4730754348051785,-1.9913461712586078,0.0,0.0,0.0,0.0,-0.47307543480517866,1.9913461712586074,2.0467681697745896,0.0,27.10522580565306,-114.09573116265386,0.0,0.0,0.0,0.0,-27.105225805653067,114.09573116265383,117.27117776979993
32,0.15968799591064453,1775831872.2419147,0.01006435,-19.311550614728365,0.9165723274356044,0.8649525862743899,-19.31,0.92,0.8669205915728515,0.0015506147283659288,0.0034276725643956896,0.001968005298461639,0.004245749651040361,-0.4336731744468978,-0.9735870742934708,-0.5426946650729366,1.1960191106185538,0.0,0.0,0.00035113156286098874,0.00035113156286098874,0.0,0.0,0.0,0.0,0.47096992970507423,-1.9898504449289427,0.0,0.0,0.0,0.0,-0.470969929705074,1.9898504449289423,2.0448270019418056,0.0,26.984589249673814,-114.01003235665746,0.0,0.0,0.0,0.0,-26.9845892496738,114.01003235665743,117.15995704565485
33,0.16470623016357422,1775831872.246933,0.015082603,-19.313432012821696,0.9123850823428632,0.8625884142448309,-19.31,0.92,0.8669223252092416,0.003432012821697583,0.007614917657136844,0.004333910964410714,0.009410019510113169,-0.4982820443413683,-1.1232754609875542,-0.6223233154633254,1.3774320549265149,0.0,0.0,0.00034235848430207887,0.00034235848430207887,0.0,0.0,0.0,0.0,0.46878158182645296,-1.9883130862433314,0.0,0.0,0.0,0.0,-0.46878158182645313,1.9883130862433314,2.0428277216608826,0.0,26.859206152122407,-113.92194819237415,0.0,0.0,0.0,0.0,-26.859206152122418,113.92194819237415,117.04540672349424
34,0.1696915626525879,1775831872.2519183,0.020067887,-19.31598704056029,0.9066653879626114,0.8593861731696575,-19.31,0.92,0.8669240155183979,0.0059870405602922006,0.013334612037388616,0.007537842348740442,0.016446142408866528,-0.5612120638306629,-1.270497566625209,-0.6994884750598924,1.5551228807175537,0.0,0.0,0.00033380257744663496,0.00033380257744663496,0.0,0.0,0.0,0.0,0.4665372211775132,-1.9867484948853447,0.0,0.0,0.0,0.0,-0.4665372211775134,1.9867484948853447,2.0407906704689776,0.0,26.730613759232916,-113.83230371089887,0.0,0.0,0.0,0.0,-26.730613759232927,113.83230371089887,116.92869228754599
35,0.17469358444213867,1775831872.2569203,0.025069954,-19.319204734154646,0.8994183479866226,0.8553650206981733,-19.31,0.92,0.866925663597191,0.009204734154646843,0.02058165201337747,0.011560642899017703,0.025337324142381247,-0.6888815513475423,-1.5670439429116088,-0.8566279578521797,1.9141567252910494,0.0,0.0,0.0003254628213341515,0.0003254628213341515,0.0,0.0,0.0,0.0,0.4639928612951891,-1.9849728626859633,0.0,0.0,0.0,0.0,-0.46399286129518913,1.9849728626859635,2.038481454645248,0.0,26.584832676413342,-113.73056747990678,0.0,0.0,0.0,0.0,-26.584832676413345,113.7305674799068,116.79638396686146
36,0.17969489097595215,1775831872.2619216,0.03007134,-19.323043886278608,0.8907165853946675,0.8505820664500346,-19.31,0.92,0.8669272704902126,0.013043886278609307,0.02928341460533257,0.01634520404017792,0.035983705135966,-0.8099020673866697,-1.8526204003508961,-1.0043440884541315,2.257620595796884,0.0,0.0,0.0003173299433120432,0.0003173299433120432,0.0,0.0,0.0,0.0,0.46102732716383915,-1.982926129033168,0.0,0.0,0.0,0.0,-0.4610273271638392,1.9829261290331681,2.035814880973783,0.0,26.414920086684997,-113.61329827981422,0.0,0.0,0.0,0.0,-26.414920086685,113.61329827981423,116.6436005497258
37,0.18468165397644043,1775831872.2669084,0.03505814,-19.327457989140996,0.8806453217423154,0.845100866077602,-19.31,0.92,0.8669288372409371,0.017457989140996943,0.03935467825768468,0.021827971163335014,0.048270409266137695,-0.923967481883192,-2.1264829656617077,-1.14226918930142,2.584651738949428,0.0,0.0,0.00030940255687492114,0.00030940255687492114,0.0,0.0,0.0,0.0,0.4577637180123394,-1.9806901702217512,0.0,0.0,0.0,0.0,-0.4577637180123393,1.9806901702217514,2.0328996954944807,0.0,26.227929056323788,-113.48518727675496,0.0,0.0,0.0,0.0,-26.22792905632378,113.48518727675497,116.47657272526396
38,0.18969345092773438,1775831872.2719202,0.04006985,-19.332450615531293,0.8691751878718679,0.8389228768548107,-19.31,0.92,0.8669303648430261,0.02245061553129446,0.05082481212813217,0.028007487988215396,0.06222227132630213,-1.0319606789251703,-2.390766830543676,-1.2714665408127437,2.8978157369442723,0.0,0.0,0.0003016721092072168,0.0003016721092072168,0.0,0.0,0.0,0.0,0.45422631928554574,-1.9782811995456335,0.0,0.0,0.0,0.0,-0.4542263192855458,1.9782811995456333,2.029758126873102,0.0,26.025251038823562,-113.34716342404263,0.0,0.0,0.0,0.0,-26.025251038823566,113.34716342404262,116.29657410220823
39,0.1946854591369629,1775831872.2769122,0.045061783,-19.337945028282537,0.856460897369799,0.8321490489549603,-19.31,0.92,0.8669318542880732,0.027945028282537976,0.06353910263020102,0.03478280533311284,0.07764010378409014,-1.1329085361501792,-2.6430986940672088,-1.390769692691324,3.194321961852068,0.0,0.0,0.00029413638112842793,0.00029413638112842793,0.0,0.0,0.0,0.0,0.4504693109432916,-1.9757366816015147,0.0,0.0,0.0,0.0,-0.45046931094329157,1.9757366816015143,2.026439743769226,0.0,25.809990317216958,-113.20137328494933,0.0,0.0,0.0,0.0,-25.809990317216954,113.2013732849493,116.10644475554862
40,0.19970321655273438,1775831872.28193,0.050079652,-19.343959171850102,0.8424385731635812,0.8247634651835756,-19.31,0.92,0.8669333065171888,0.03395917185010333,0.07756142683641887,0.042169841333613234,0.09459014644109673,-1.2277232077658515,-2.885769042706484,-1.501253762490681,3.4768851148869433,0.0,0.0,0.00028678741261916533,0.00028678741261916533,0.0,0.0,0.0,0.0,0.44646665901652105,-1.9730400763268905,0.0,0.0,0.0,0.0,-0.44646665901652094,1.9730400763268907,2.022923533009935,0.0,25.580655254953097,-113.04686918370064,0.0,0.0,0.0,0.0,-25.58065525495309,113.04686918370065,115.90498071916274
41,0.20470070838928223,1775831872.2869275,0.005053219,-19.310396556350618,0.9191265820167966,0.8664290832068711,-19.31,0.92,0.8669347224718703,0.0003965563506191927,0.000873417983203395,0.0005056392649992469,0.0010843371149732342,-0.3669354202212037,-0.820451385358958,-0.4601609186688807,1.0097178563443023,0.0,0.0,0.0002796233982689626,0.0002796233982689626,0.0,0.0,0.0,0.0,0.4731946058331037,-1.9913493571617757,0.0,0.0,0.0,0.0,-0.4731946058331036,1.9913493571617753,2.046798816996473,0.0,27.112053802593408,-114.09591370145932,0.0,0.0,0.0,0.0,-27.1120538025934,114.0959137014593,117.27293372626765
42,0.20971107482910156,1775831872.2919378,0.010063485,-19.311550352069183,0.9165729102271502,0.8649754752552606,-19.31,0.92,0.8669361030452218,0.001550352069184413,0.0034270897728498895,0.0019606277899612,0.00424176816673953,-0.43366184594571894,-0.9735609562516051,-0.5428123737619063,1.196047158466431,0.0,0.0,0.000272636412877373,0.000272636412877373,0.0,0.0,0.0,0.0,0.47106842984792113,-1.989850706754962,0.0,0.0,0.0,0.0,-0.4710684298479211,1.9898507067549618,2.044849945783946,0.0,26.990232892140376,-114.01004735818333,0.0,0.0,0.0,0.0,-26.990232892140373,114.01004735818331,117.1612716309753
43,0.2146904468536377,1775831872.2969172,0.015042806,-19.313414323169216,0.9124245590481508,0.8626325255533,-19.31,0.92,0.8669374491308551,0.0034143231692169707,0.007575440951849255,0.004304923577555186,0.009358273095363114,-0.49777842087770324,-1.1221027921722573,-0.6218373999986369,1.376074047618565,0.0,0.0,0.0002658254200765015,0.0002658254200765015,0.0,0.0,0.0,0.0,0.46888555118850467,-1.9883254245750037,0.0,0.0,0.0,0.0,-0.46888555118850483,1.9883254245750042,2.0428635916587083,0.0,26.865163157766638,-113.92265512670521,0.0,0.0,0.0,0.0,-26.86516315776665,113.92265512670524,117.04746192298079
44,0.21969819068908691,1775831872.301925,0.020050655,-19.315977069096924,0.9066877741340048,0.8594198921440803,-19.31,0.92,0.8669387615794033,0.005977069096925192,0.01331222586599523,0.0075188694353229835,0.016415666604866364,-0.5607607810035552,-1.2694570767969646,-0.6990654156017433,1.5539196821689498,0.0,0.0,0.00025918297828667535,0.00025918297828667535,0.0,0.0,0.0,0.0,0.46662234344951237,-1.9867539846117068,0.0,0.0,0.0,0.0,-0.4666223434495125,1.986753984611707,2.0408154759254473,0.0,26.735490906161033,-113.8326182490501,0.0,0.0,0.0,0.0,-26.73549090616104,113.83261824905011,116.9301135355106
45,0.22469139099121094,1775831872.3069181,0.025043754,-19.319186230952543,0.8994601476997615,0.8554086652277579,-19.31,0.92,0.8669400412408967,0.009186230952543895,0.02053985230023858,0.011531376013138805,0.02528329496694378,-0.688230119824773,-1.565519161485365,-0.8559667899428718,1.9123781237759876,0.0,0.0,0.0002527078302790824,0.0002527078302790824,0.0,0.0,0.0,0.0,0.4640716823067843,-1.9849829646584807,0.0,0.0,0.0,0.0,-0.4640716823067841,1.9849829646584807,2.0385092338038158,0.0,26.5893487877147,-113.73114628029678,0.0,0.0,0.0,0.0,-26.589348787714687,113.73114628029678,116.79797559540582
46,0.22968673706054688,1775831872.3119135,0.0300392,-19.3230173001651,0.8907770358370365,0.8506349941041133,-19.31,0.92,0.8669412889242331,0.013017300165103052,0.02922296416296355,0.016306294820119804,0.03590719967943629,-0.809145532741784,-1.8508201133692392,-1.0035647804458758,2.25552518357909,0.0,0.0,0.0002463931189971708,0.0002463931189971708,0.0,0.0,0.0,0.0,0.46110300766044576,-1.982939959083256,0.0,0.0,0.0,0.0,-0.46110300766044565,1.9829399590832555,2.0358454914365707,0.0,26.41925625973201,-113.61409068331471,0.0,0.0,0.0,0.0,-26.419256259732002,113.61409068331469,116.64535440005248
47,0.23471426963806152,1775831872.316941,0.035066741,-19.3274660890144,0.8806267793472577,0.845109968663623,-19.31,0.92,0.8669425054389325,0.01746608901440183,0.03937322065274229,0.021832536775309497,0.048290521141045706,-0.9241585215503887,-2.1269459250261713,-1.142641142812492,2.585265309825565,0.0,0.0,0.00024023771333369688,0.00024023771333369688,0.0,0.0,0.0,0.0,0.45780717943244364,-1.9806861684412638,0.0,0.0,0.0,0.0,-0.45780717943244387,1.980686168441264,2.032905583492363,0.0,26.230419212267407,-113.48495799162248,0.0,0.0,0.0,0.0,-26.23041921226742,113.4849579916225,116.47691008269238
48,0.2396841049194336,1775831872.3219109,0.040036548,-19.33241567220461,0.869255746550108,0.8389844680025655,-19.31,0.92,0.8669436915547521,0.02241567220461249,0.050744253449892085,0.027959223552186607,0.06212213615300643,-1.0312650571181694,-2.3890469249765154,-1.2707831863590593,2.895849225098843,0.0,0.0,0.00023423482373116373,0.00023423482373116373,0.0,0.0,0.0,0.0,0.4542952950156758,-1.9782977000427324,0.0,0.0,0.0,0.0,-0.454295295015676,1.9782977000427326,2.029789645521857,0.0,26.029203057048846,-113.34810883288627,0.0,0.0,0.0,0.0,-26.02920305704886,113.34810883288628,116.29837998775784
49,0.24467897415161133,1775831872.3269057,0.0450313,-19.337909964187553,0.856542331855118,0.8322098974199961,-19.31,0.92,0.8669448480402175,0.02790996418755398,0.06345766814488207,0.03473495062022147,0.07753939993271647,-1.1323121496271684,-2.6415908807110453,-1.3902150967555955,3.1926213681700846,0.0,0.0,0.00022838302057660148,0.00022838302057660148,0.0,0.0,0.0,0.0,0.4505339652498104,-1.975752641614767,0.0,0.0,0.0,0.0,-0.4505339652498104,1.9757526416147666,2.0264696777133,0.0,25.813694736107827,-113.20228772634965,0.0,0.0,0.0,0.0,-25.813694736107827,113.20228772634962,116.10815984420825
50,0.2496788501739502,1775831872.3319056,0.050031147,-19.343898785346116,0.8425799046023258,0.8248544394737546,-19.31,0.92,0.866945975625623,0.03389878534611768,0.07742009539767425,0.04209153615186845,0.09441766908238729,-1.2268386356469205,-2.8834759370908065,-1.500377751291959,3.4742912823005527,0.0,0.0,0.00022267610090228966,0.00022267610090228966,0.0,0.0,0.0,0.0,0.4465445091066185,-1.9730668007691214,0.0,0.0,0.0,0.0,-0.44654450910661847,1.9730668007691214,2.0229667814649273,0.0,25.585115736550396,-113.0484003814503,0.0,0.0,0.0,0.0,-25.585115736550392,113.0484003814503,115.90745867310426
51,0.2546825408935547,1775831872.3369093,0.00500838,-19.31038959969874,0.9191419316392154,0.8664475244781132,-19.31,0.92,0.866947075042671,0.0003895996987424155,0.000858068360784614,0.0004995505645577492,0.0010665927074519784,-0.3663282422778842,-0.8190646373084643,-0.45946125389704806,1.008051538867085,0.0,0.0,0.000217113300639337,0.000217113300639337,0.0,0.0,0.0,0.0,0.47326117422909353,-1.991362609528653,0.0,0.0,0.0,0.0,-0.4732611742290933,1.991362609528653,2.046827101066787,0.0,27.11586789073258,-114.09667300614994,0.0,0.0,0.0,0.0,-27.115867890732567,114.09667300614994,117.2745542841241
52,0.25968217849731445,1775831872.341909,0.01000797,-19.311533539954215,0.9166102119751269,0.865006040253402,-19.31,0.92,0.8669481469878508,0.0015335399542166783,0.0033897880248731083,0.001942106734448834,0.004196925805008177,-0.4329346535988106,-0.9718844935450756,-0.5419686810374507,1.1940359853478304,0.0,0.0,0.00021168848233677265,0.00021168848233677265,0.0,0.0,0.0,0.0,0.47113333333664403,-1.9898675082628938,0.0,0.0,0.0,0.0,-0.4711333333366441,1.9898675082628934,2.0448812479509106,0.0,26.993951588119874,-114.01101001367728,0.0,0.0,0.0,0.0,-26.993951588119877,114.01101001367725,117.163065113032
53,0.26468372344970703,1775831872.3469105,0.015009514,-19.31339955845,0.9124575069794297,0.8626601941596572,-19.31,0.92,0.8669491921566019,0.0033995584500026155,0.007542493020570307,0.00428899799694471,0.009318889549626163,-0.497357009441614,-1.121121624201806,-0.6213748360751444,1.3749124983070793,0.0,0.0,0.00020640044144660708,0.00020640044144660708,0.0,0.0,0.0,0.0,0.4689363714784927,-1.98833574433125,0.0,0.0,0.0,0.0,-0.46893637147849265,1.9883357443312502,2.042885300911611,0.0,26.868074945896584,-113.92324640518372,0.0,0.0,0.0,0.0,-26.86807494589658,113.92324640518373,117.04870577154848
54,0.26969051361083984,1775831872.3519173,0.020016217,-19.31595716451893,0.9067324589729419,0.8594536634911089,-19.31,0.92,0.8669502112093181,0.005957164518932245,0.013267541027058183,0.00749654771820929,0.016361958370002237,-0.5598586603941413,-1.2673772783319937,-0.6980067639995202,1.5514188112304221,0.0,0.0,0.00020124308688044594,0.00020124308688044594,0.0,0.0,0.0,0.0,0.46667028197113547,-1.986764940361058,0.0,0.0,0.0,0.0,-0.46667028197113547,1.9867649403610583,2.040837102838661,0.0,26.738237581126135,-113.83324596724934,0.0,0.0,0.0,0.0,-26.738237581126135,113.83324596724935,116.93135266636163
55,0.27468276023864746,1775831872.3569095,0.025008587,-19.31916142182802,0.8995161906388054,0.8554481977853976,-19.31,0.92,0.8669512048047958,0.009161421828022043,0.02048380936119465,0.011503007019398215,0.0252158138148474,-0.6873554485664178,-1.5634720492600338,-0.8549517312225917,1.909933198887285,0.0,0.0,0.00019621543503811262,0.00019621543503811262,0.0,0.0,0.0,0.0,0.46411809693862055,-1.9849965126506137,0.0,0.0,0.0,0.0,-0.4641180969386207,1.9849965126506142,2.038532992899803,0.0,26.592008150226572,-113.73192252306688,0.0,0.0,0.0,0.0,-26.59200815022658,113.73192252306691,116.79933689133091
56,0.27968907356262207,1775831872.3619158,0.030014828,-19.322997155930885,0.8908228372768001,0.8506683324212703,-19.31,0.92,0.8669521735705341,0.01299715593088635,0.029177162723199923,0.016283841149263845,0.03585242487534587,-0.8085716643566166,-1.8494546415395139,-1.0029257502185336,2.253914520997611,0.0,0.0,0.0001913123114076215,0.0001913123114076215,0.0,0.0,0.0,0.0,0.46114145788843475,-1.9829504411916858,0.0,0.0,0.0,0.0,-0.46114145788843475,1.9829504411916856,2.035864410123074,0.0,26.421459295517096,-113.61469126388815,0.0,0.0,0.0,0.0,-26.421459295517096,113.61469126388813,116.64643836094304
57,0.2846851348876953,1775831872.366912,0.035010852,-19.327413485674615,0.8807471960498718,0.8451831701191491,-19.31,0.92,0.8669531181352879,0.017413485674616425,0.0392528039501282,0.02176994801613874,0.04814501778909895,-0.9229168021008151,-2.1239370537661704,-1.1412065332044725,2.581711909448745,0.0,0.0,0.00018653298365222106,0.00018653298365222106,0.0,0.0,0.0,0.0,0.45786587559530584,-1.980712163405148,0.0,0.0,0.0,0.0,-0.457865875595306,1.9807121634051477,2.03294412965427,0.0,26.233782254673024,-113.48644739334165,0.0,0.0,0.0,0.0,-26.233782254673034,113.48644739334162,116.4791186150861
58,0.289722204208374,1775831872.371949,0.040047962,-19.33242764614718,0.8692281421447099,0.8389773551246164,-19.31,0.92,0.8669540390971251,0.0224276461471824,0.05077185785529015,0.027976683972508742,0.06215686372299234,-1.0315035091657878,-2.3896364637324643,-1.2711268057339826,2.8965712962874934,0.0,0.0,0.00018187212371145536,0.00018187212371145536,0.0,0.0,0.0,0.0,0.45430557386745885,-1.978292045348569,0.0,0.0,0.0,0.0,-0.45430557386745907,1.978292045348569,2.029786434858718,0.0,26.029791991874255,-113.34778484277626,0.0,0.0,0.0,0.0,-26.02979199187427,113.34778484277626,116.29819603031055
59,0.2946808338165283,1775831872.3769076,0.045006547,-19.337881504594897,0.8566084249860351,0.8322523010611151,-19.31,0.92,0.8669549370538919,0.027881504594898132,0.06339157501396497,0.03470263599277679,0.07746059014798197,-1.1318276868119705,-2.640366197812794,-1.3897069679335046,3.191214976761901,0.0,0.0,0.00017732904813000817,0.00017732904813000817,0.0,0.0,0.0,0.0,0.4505702646000216,-1.975765597797195,0.0,0.0,0.0,0.0,-0.4505702646000218,1.9757655977971949,2.026490380135233,0.0,25.815774535674,-113.20303006092138,0.0,0.0,0.0,0.0,-25.81577453567401,113.20303006092136,116.10934600561069
60,0.2996833324432373,1775831872.38191,0.050009105,-19.34387135824761,0.8426440927155596,0.824895129937965,-19.31,0.92,0.8669558125742871,0.03387135824761245,0.07735590728444042,0.04206068263632212,0.09434143482675285,-1.226436455743851,-2.882433547420251,-1.4999738407545202,3.473109710075266,0.0,0.0,0.00017289836124972842,0.00017289836124972842,0.0,0.0,0.0,0.0,0.44657846033176907,-1.9730789408496103,0.0,0.0,0.0,0.0,-0.44657846033176885,1.9730789408496108,2.022986116624757,0.0,25.58706099846082,-113.04909595682527,0.0,0.0,0.0,0.0,-25.587060998460807,113.0490959568253,115.90856649615871
61,0.30469179153442383,1775831872.3869185,0.004994801,-19.310387504921543,0.9191465535488924,0.8664641541296173,-19.31,0.92,0.8669566662237127,0.00038750492154449034,0.0008534464511076312,0.0004925120940953986,0.0010588196597908666,-0.36614433003986463,-0.8186446180876107,-0.45931132728775703,1.007575097210621,0.0,0.0,0.00016857882455457193,0.00016857882455457193,0.0,0.0,0.0,0.0,0.4733361413613816,-1.9913666223104587,0.0,0.0,0.0,0.0,-0.47333614136138147,1.9913666223104585,2.046848340051369,0.0,27.120163191014885,-114.09690292161152,0.0,0.0,0.0,0.0,-27.12016319101488,114.09690292161152,117.27577118830179
62,0.30971527099609375,1775831872.391942,0.010018279,-19.311536655201067,0.9166033002223227,0.8650157221058126,-19.31,0.92,0.8669574985401292,0.001536655201068271,0.0033966997776773145,0.0019417764343165889,0.004203495486795547,-0.43306971203342215,-0.9721958425132123,-0.5422149596753135,1.1944501639567837,0.0,0.0,0.00016436617537289054,0.00016436617537289054,0.0,0.0,0.0,0.0,0.47118809623541164,-1.9898643886001175,0.0,0.0,0.0,0.0,-0.4711880962354118,1.9898643886001173,2.044890830106309,0.0,26.99708927109316,-114.01083127016669,0.0,0.0,0.0,0.0,-26.99708927109317,114.01083127016668,117.16361413009497
63,0.3146810531616211,1775831872.3969078,0.014983975,-19.313388252799616,0.9124827350194362,0.862687602315426,-19.31,0.92,0.8669583100633316,0.0033882527996169642,0.00751726498056382,0.004270707747905611,0.009285928843693794,-0.4970336693979306,-1.1203688400127556,-0.6210575955856059,1.3740383339708078,0.0,0.0,0.000160259732591503,0.000160259732591503,0.0,0.0,0.0,0.0,0.4689998682254673,-1.9883436597123985,0.0,0.0,0.0,0.0,-0.46899986822546724,1.988343659712399,2.0429075812463964,0.0,26.87171304151104,-113.92369992311677,0.0,0.0,0.0,0.0,-26.871713041511036,113.9236999231168,117.04998234069784
64,0.31968235969543457,1775831872.401909,0.019985189,-19.315939257472422,0.9067726578407985,0.8594888926937476,-19.31,0.92,0.8669591013063668,0.00593925747242352,0.013227342159201516,0.007470208612619156,0.016310774863150367,-0.5592527609057316,-1.2659719220634615,-0.6973415095797988,1.549752799325354,0.0,0.0,0.00015625501472041456,0.00015625501472041456,0.0,0.0,0.0,0.0,0.46673119842965644,-1.986774795368858,0.0,0.0,0.0,0.0,-0.4667311984296565,1.9867747953688575,2.0408606270641187,0.0,26.74172783710227,-113.83381061760333,0.0,0.0,0.0,0.0,-26.74172783710227,113.8338106176033,116.93270050519668
65,0.32468390464782715,1775831872.4069107,0.024986892,-19.319146132085507,0.8995507283803829,0.855479679285777,-19.31,0.92,0.8669598727837392,0.009146132085508185,0.020449271619617182,0.011480193497962254,0.02517179541965765,-0.686815688470066,-1.5622088884301721,-0.8543727849762373,1.908445769920355,0.0,0.0,0.00015235187100687343,0.00015235187100687343,0.0,0.0,0.0,0.0,0.46416900576872183,-1.985004864060301,0.0,0.0,0.0,0.0,-0.464169005768722,1.9850048640603006,2.0385527160854524,0.0,26.594925011331323,-113.73240102359496,0.0,0.0,0.0,0.0,-26.594925011331334,113.73240102359493,116.8004669466272
66,0.32970190048217773,1775831872.4119287,0.030004786,-19.32298885996702,0.8908416991716352,0.8506906286496255,-19.31,0.92,0.8669606249867847,0.012988859967020261,0.02915830082836479,0.016269996337159198,0.03582777932347265,-0.8083351674449625,-1.848891950415513,-1.0027227063675122,2.253277615631182,0.0,0.0,0.0001485460496536664,0.0001485460496536664,0.0,0.0,0.0,0.0,0.4611812817891586,-1.9829547588004617,0.0,0.0,0.0,0.0,-0.4611812817891585,1.982954758800462,2.035877636333306,0.0,26.423741036952322,-113.61493864464859,0.0,0.0,0.0,0.0,-26.423741036952315,113.6149386446486,116.64719616696831
67,0.3346827030181885,1775831872.4169095,0.034985716,-19.32738985002519,0.8808012984635227,0.8452240253327656,-19.31,0.92,0.8669613584052832,0.017389850025193,0.03919870153647731,0.021737333072517573,0.048077611579092606,-0.922358070550011,-2.1225833731878083,-1.1406199650878273,2.58013923872318,0.0,0.0,0.00014483640241332127,0.00014483640241332127,0.0,0.0,0.0,0.0,0.45791280322574235,-1.9807238480745404,0.0,0.0,0.0,0.0,-0.45791280322574224,1.9807238480745406,2.032966083752819,0.0,26.236471009839587,-113.48711687558283,0.0,0.0,0.0,0.0,-26.23647100983958,113.48711687558284,116.48037649227597
68,0.33968281745910645,1775831872.4219096,0.039985742,-19.33236240681608,0.8693785376366823,0.8390690700980362,-19.31,0.92,0.8669620735036029,0.02236240681608237,0.05062146236331777,0.027893003405566663,0.0619728112109796,-1.0302032402885966,-2.3864220793321764,-1.269666951324461,2.8928157950880284,0.0,0.0,0.00014121873110540297,0.00014121873110540297,0.0,0.0,0.0,0.0,0.454377978344813,-1.9783228610774444,0.0,0.0,0.0,0.0,-0.4543779783448132,1.9783228610774444,2.0298326753371483,0.0,26.0339404628445,-113.34955045398344,0.0,0.0,0.0,0.0,-26.033940462844512,113.34955045398344,116.30084541456726
69,0.34468817710876465,1775831872.426915,0.044991092,-19.337863741396113,0.8566496760985958,0.8322848384655456,-19.31,0.92,0.8669627707453156,0.02786374139611425,0.06335032390140427,0.03467793227977001,0.07740937029974264,-1.1315251209945922,-2.639601408315007,-1.389439441851928,3.1903583900236336,0.0,0.0,0.00013769223455202108,0.00013769223455202108,0.0,0.0,0.0,0.0,0.4506069992549496,-1.9757736855192496,0.0,0.0,0.0,0.0,-0.4506069992549495,1.9757736855192496,2.026506433290521,0.0,25.817879276363243,-113.20349345326098,0.0,0.0,0.0,0.0,-25.81787927636324,113.20349345326098,116.11026578365657
70,0.34968113899230957,1775831872.431908,0.049984037,-19.343840176640406,0.8427170648617929,0.8249435852479088,-19.31,0.92,0.866963450570825,0.03384017664040684,0.07728293513820716,0.04201986532291624,0.09425220793374706,-1.2259789066947138,-2.881247796999756,-1.4995331606771192,3.4717737321643853,0.0,0.0,0.00013425292401864585,0.00013425292401864585,0.0,0.0,0.0,0.0,0.44662199061755403,-1.9730927443429678,0.0,0.0,0.0,0.0,-0.44662199061755414,1.973092744342968,2.023009189371628,0.0,25.5895551001173,-113.0498868387372,0.0,0.0,0.0,0.0,-25.589555100117305,113.04988683873721,115.90988846717622
71,0.35466527938842773,1775831872.436892,0.005026942,-19.31039247218529,0.9191355936833504,0.8664637141136861,-19.31,0.92,0.8669641134186291,0.00039247218528970507,0.0008644063166496352,0.0005003993049430555,0.0010731412585849819,-0.36657961727017113,-0.8196387448906645,-0.4598844969366945,1.0088022791640616,0.0,0.0,0.0001308996613273575,0.0001308996613273575,0.0,0.0,0.0,0.0,0.47335145375575066,-1.9913571237860206,0.0,0.0,0.0,0.0,-0.47335145375575083,1.9913571237860204,2.046842640074223,0.0,27.121040526586473,-114.09635869624962,0.0,0.0,0.0,0.0,-27.121040526586484,114.09635869624961,117.27544460366799
72,0.3596794605255127,1775831872.4419062,0.010041092,-19.311543559894943,0.916587980591974,0.8650126970256513,-19.31,0.92,0.8669647597047783,0.0015435598949444795,0.0034120194080260458,0.0019520626791269535,0.004223150754267211,-0.4333685522601358,-0.9728847780825527,-0.5426173230607338,1.1953019086399805,0.0,0.0,0.00012762910051027874,0.00012762910051027874,0.0,0.0,0.0,0.0,0.471202854241137,-1.9898574844884274,0.0,0.0,0.0,0.0,-0.47120285424113684,1.989857484488427,2.0448875124122607,0.0,26.997934842535255,-114.01043569370556,0.0,0.0,0.0,0.0,-26.997934842535244,114.01043569370553,117.16342404022828
73,0.36468076705932617,1775831872.4469075,0.015042443,-19.31341416201731,0.9124249186705942,0.8626605714553662,-19.31,0.92,0.8669653898483992,0.003414162017310929,0.007575081329405875,0.004304818393032983,0.009357874802782797,-0.49777382653744934,-1.1220920948577218,-0.6220009717777931,1.3761375878234139,0.0,0.0,0.00012444133455783273,0.00012444133455783273,0.0,0.0,0.0,0.0,0.4689954083169083,-1.9883255371054565,0.0,0.0,0.0,0.0,-0.46899540831690834,1.9883255371054567,2.0428889187931993,0.0,26.87145750757359,-113.92266157422522,0.0,0.0,0.0,0.0,-26.871457507573595,113.92266157422523,117.0489130608943
74,0.36968564987182617,1775831872.4519124,0.02004734,-19.315975151732072,0.9066920786094895,0.859449284678708,-19.31,0.92,0.8669660042495773,0.005975151732073414,0.013307921390510513,0.007516719570869301,0.016410493078039937,-0.5606739565984675,-1.2692568980488539,-0.6991290945605633,1.5537534713439747,0.0,0.0,0.00012133270591104648,0.00012133270591104648,0.0,0.0,0.0,0.0,0.46672212110577704,-1.9867550401064045,0.0,0.0,0.0,0.0,-0.4667221211057768,1.986755040106404,2.0408393194266115,0.0,26.741207744754707,-113.83267872444158,0.0,0.0,0.0,0.0,-26.741207744754693,113.83267872444155,116.93147966749612
75,0.37468791007995605,1775831872.4569147,0.025049394,-19.31919021264298,0.8994511529678971,0.8554298178020373,-19.31,0.92,0.8669666033066695,0.00919021264298081,0.020548847032102913,0.011536785504632219,0.025294516056881995,-0.6883703670189867,-1.5658474222080414,-0.8563133346157659,1.9128524352040843,0.0,0.0,0.00011830240221518118,0.00011830240221518118,0.0,0.0,0.0,0.0,0.4641501654551616,-1.9849807906472774,0.0,0.0,0.0,0.0,-0.46415016545516163,1.9849807906472776,2.0385249852113034,0.0,26.593845540879617,-113.73102171863023,0.0,0.0,0.0,0.0,-26.59384554087962,113.73102171863025,116.79887808457624
76,0.37970447540283203,1775831872.4619312,0.030066143,-19.32303958568757,0.8907263640812266,0.8506325015596151,-19.31,0.92,0.866967187398412,0.013039585687572242,0.02927363591877341,0.016334685838796936,0.035969410841166595,-0.809779755188611,-1.8523293266631629,-1.0045132660405491,2.257413140739015,0.0,0.0,0.00011534724827344601,0.00011534724827344601,0.0,0.0,0.0,0.0,0.46115666005261047,-1.9829283658762384,0.0,0.0,0.0,0.0,-0.4611566600526107,1.9829283658762389,2.0358463520873795,0.0,26.42233031536383,-113.6134264414816,0.0,0.0,0.0,0.0,-26.42233031536384,113.61342644148162,116.64540371171147
77,0.3846919536590576,1775831872.4669187,0.03505342,-19.327453544844243,0.8806554956232603,0.8451498534042503,-19.31,0.92,0.8669677569046473,0.017453544844244107,0.03934450437673975,0.02181790350039703,0.048255954714770385,-0.9238626360618338,-2.1262288921425534,-1.1424658243574886,2.5844921419725204,0.0,0.0,0.00011246698717509399,0.00011246698717509399,0.0,0.0,0.0,0.0,0.4578789592793451,-1.9806923660911064,0.0,0.0,0.0,0.0,-0.45787895927934485,1.9806923660911062,2.0329277878080965,0.0,26.234531894548955,-113.48531309080137,0.0,0.0,0.0,0.0,-26.234531894548944,113.48531309080136,116.4781822962709
78,0.38968992233276367,1775831872.4719167,0.040051594,-19.3324314568949,0.8692193568539908,0.8389883855651846,-19.31,0.92,0.8669683121873786,0.02243145689489978,0.050780643146009274,0.02797992662219395,0.062166874382853156,-1.0315793787260221,-2.3898240463942932,-1.27134002412172,2.896846638030908,0.0,0.0,0.00010965836597045126,0.00010965836597045126,0.0,0.0,0.0,0.0,0.45434106690271303,-1.978290245834609,0.0,0.0,0.0,0.0,-0.45434106690271303,1.978290245834609,2.0297926253286698,0.0,26.03182559299643,-113.34768173822118,0.0,0.0,0.0,0.0,-26.03182559299643,113.34768173822118,116.29855071811198
79,0.3946874141693115,1775831872.4769142,0.045049029,-19.337930355353596,0.8564949749177639,0.8322072948479146,-19.31,0.92,0.866968853605869,0.02793035535359678,0.0635050250822361,0.03476155875795439,0.07759741573117203,-1.1326590397064076,-2.642467878668345,-1.3908072363531756,3.193727878000094,0.0,0.0,0.0001069200058841045,0.0001069200058841045,0.0,0.0,0.0,0.0,0.45057233515087863,-1.975743359848717,0.0,0.0,0.0,0.0,-0.4505723351508788,1.9757433598487175,2.026469159200212,0.0,25.815893169499375,-113.20175592032857,0.0,0.0,0.0,0.0,-25.815893169499383,113.20175592032858,116.10813013559668
80,0.3996853828430176,1775831872.4819121,0.050046899,-19.34391839116025,0.8425340194096228,0.8248519667726789,-19.31,0.92,0.8669693814994724,0.033918391160252526,0.07746598059037724,0.042117414726793534,0.09447386956718415,-1.2271259688509952,-2.8842207359049885,-1.5008963829734436,3.475234862462618,0.0,0.0,0.00010424908748705739,0.00010424908748705739,0.0,0.0,0.0,0.0,0.4465799684232125,-1.973058123411873,0.0,0.0,0.0,0.0,-0.44657996842321257,1.9730581234118727,2.022966145677791,0.0,25.58714740573565,-113.04790320550264,0.0,0.0,0.0,0.0,-25.587147405735653,113.04790320550264,115.90742224518469
81,0.4046916961669922,1775831872.4869184,0.005058232,-19.310397337874164,0.919124857564237,0.8664660032375766,-19.31,0.92,0.8669698962094082,0.00039733787416551536,0.0008751424357630322,0.000503892971831621,0.0010852003484061947,-0.3670032916710441,-0.8206064055869275,-0.46045782831837173,1.0100038121944637,0.0,0.0,0.00010164542334154988,0.00010164542334154988,0.0,0.0,0.0,0.0,0.4733799164947603,-1.9913478753734193,0.0,0.0,0.0,0.0,-0.4733799164947605,1.9913478753734193,2.046840224857528,0.0,27.122671321405107,-114.09582880124037,0.0,0.0,0.0,0.0,-27.12267132140512,114.09582880124037,117.27530622194477
82,0.40970349311828613,1775831872.4919302,0.010069998,-19.3115523302866,0.9165685209191167,0.8650098527525083,-19.31,0.92,0.866970398060959,0.0015523302866000677,0.0034314790808833706,0.0019605453084506896,0.004245999989133778,-0.4337471420429506,-0.9737576088406688,-0.5431329945544585,1.1963836816754139,0.0,0.0,9.910633507557796e-05,9.910633507557796e-05,0.0,0.0,0.0,0.0,0.4712259232637346,-1.9898487353165413,0.0,0.0,0.0,0.0,-0.47122592326373436,1.9898487353165413,2.0448843146243254,0.0,26.999256600167588,-114.00993440308226,0.0,0.0,0.0,0.0,-26.999256600167573,114.00993440308226,117.1632408204758
83,0.41467952728271484,1775831872.4969063,0.01504618,-19.31341582121189,0.9124212160472689,0.8626664511533494,-19.31,0.92,0.866970887380653,0.0034158212118917675,0.00757878395273115,0.0043044362273035874,0.00936130183194135,-0.49782112363554876,-1.1222022202878217,-0.6221075042063723,1.3762926437159209,0.0,0.0,9.663163678094025e-05,9.663163678094025e-05,0.0,0.0,0.0,0.0,0.4690250974845548,-1.9883243786199478,0.0,0.0,0.0,0.0,-0.4690250974845549,1.9883243786199483,2.0428946073365606,0.0,26.873158571576994,-113.92259519789495,0.0,0.0,0.0,0.0,-26.873158571577,113.92259519789498,117.04923899042046
84,0.4197094440460205,1775831872.5019362,0.020075968,-19.315991719387405,0.9066548837225282,0.8594362580274165,-19.31,0.92,0.8669713644790631,0.005991719387406391,0.013345116277471814,0.007535106451646567,0.016455110419389792,-0.5614236672027316,-1.2709854628806996,-0.7001043508342824,1.5558748931088648,0.0,0.0,9.421821296417823e-05,9.421821296417823e-05,0.0,0.0,0.0,0.0,0.4667370177351974,-1.9867459186928402,0.0,0.0,0.0,0.0,-0.4667370177351975,1.98674591869284,2.040833846536019,0.0,26.742061258749462,-113.83215610594115,0.0,0.0,0.0,0.0,-26.74206125874947,113.83215610594114,116.93116609396344
85,0.42467355728149414,1775831872.5069003,0.025040203,-19.31918372444651,0.8994658099224568,0.8554453888754159,-19.31,0.92,0.86697182966462,0.009183724446511832,0.020534190077543202,0.011526440789204173,0.02527553350806195,-0.6881418144727647,-1.565312478145278,-0.8560830723569085,1.9122292064078574,0.0,0.0,9.186554225536434e-05,9.186554225536434e-05,0.0,0.0,0.0,0.0,0.4641786665495511,-1.984984333265189,0.0,0.0,0.0,0.0,-0.4641786665495511,1.9849843332651886,2.0385349243483577,0.0,26.59547853329964,-113.731224695685,0.0,0.0,0.0,0.0,-26.59547853329964,113.73122469568497,116.79944755518146
86,0.42972517013549805,1775831872.511952,0.030091725,-19.323060761290655,0.8906782143311984,0.85061336908586,-19.31,0.92,0.8669722832316689,0.013060761290656586,0.029321785668801614,0.01635891414580881,0.036027276782024435,-0.8103817623868358,-1.853762009947368,-1.005295604004902,2.259152815053661,0.0,0.0,8.957136491035466e-05,8.957136491035466e-05,0.0,0.0,0.0,0.0,0.4611607182246072,-1.982917353104206,0.0,0.0,0.0,0.0,-0.46116071822460736,1.982917353104206,2.0358365448324247,0.0,26.422562831491778,-113.6127954561234,0.0,0.0,0.0,0.0,-26.42256283149179,113.6127954561234,116.64484179739394
87,0.4346919059753418,1775831872.5169187,0.035058415,-19.327458248093034,0.8806447289474513,0.8451509804057689,-19.31,0.92,0.8669727254756625,0.017458248093035422,0.03935527105254877,0.02182174506989365,0.04826817112749338,-0.9239735903030956,-2.126497768373867,-1.142650958971367,2.584834843566376,0.0,0.0,8.733533805993221e-05,8.733533805993221e-05,0.0,0.0,0.0,0.0,0.45789347019963667,-1.980690042280087,0.0,0.0,0.0,0.0,-0.4578934701996369,1.980690042280087,2.0329287920728945,0.0,26.235363309038515,-113.48517994623757,0.0,0.0,0.0,0.0,-26.235363309038526,113.48517994623757,116.47823983640534
88,0.43970632553100586,1775831872.521933,0.040072825,-19.33245373828461,0.8691679884582522,0.838967552835377,-19.31,0.92,0.8669731566768573,0.022453738284610836,0.05083201154174788,0.02800560384148021,0.06222843085648327,-1.0320228072805195,-2.3909204529662333,-1.2719197539770384,2.8981634784318904,0.0,0.0,8.515458811975208e-05,8.515458811975208e-05,0.0,0.0,0.0,0.0,0.4543417610579241,-1.9782797251788047,0.0,0.0,0.0,0.0,-0.4543417610579241,1.9782797251788047,2.0297825269951315,0.0,26.031865365160353,-113.34707894904588,0.0,0.0,0.0,0.0,-26.031865365160353,113.34707894904588,116.29797212622012
89,0.44470667839050293,1775831872.5269334,0.045073277,-19.337958254361457,0.8564301795371296,0.8321793881328002,-19.31,0.92,0.8669735771130019,0.027958254361458046,0.06356982046287041,0.0347941889802017,0.07767510313743752,-1.1331333472652363,-2.643667128728478,-1.3914169019233593,3.195153840609555,0.0,0.0,8.302842492273333e-05,8.302842492273333e-05,0.0,0.0,0.0,0.0,0.4505684016600685,-1.9757306623470259,0.0,0.0,0.0,0.0,-0.4505684016600684,1.9757306623470257,2.0264559049514808,0.0,25.8156677970772,-113.20102840707129,0.0,0.0,0.0,0.0,-25.815667797077193,113.20102840707128,116.10737072308375
90,0.4497072696685791,1775831872.531934,0.050073918,-19.343952031046587,0.8424552864023104,0.824816894028524,-19.31,0.92,0.866973987047806,0.033952031046588615,0.07754471359768966,0.042157093019282055,0.09456819502862807,-1.2276186709192063,-2.885498017680094,-1.5015193337875796,3.4767379425207023,0.0,0.0,8.095447128873263e-05,8.095447128873263e-05,0.0,0.0,0.0,0.0,0.44657161178394017,-1.9730432362149808,0.0,0.0,0.0,0.0,-0.44657161178394,1.9730432362149806,2.0229497809943253,0.0,25.58666860557443,-113.04705023195194,0.0,0.0,0.0,0.0,-25.58666860557442,113.04705023195193,115.90648461788903
91,0.4547152519226074,1775831872.536942,0.005028659,-19.310392738417953,0.9191350062517178,0.866475323723336,-19.31,0.92,0.8669743867447763,0.00039273841795406383,0.0008649937482821946,0.0004990630214403158,0.001073089720793876,-0.36660286812175713,-0.8196918477704855,-0.45998035032111134,1.0088975720547768,0.0,0.0,7.893246431204118e-05,7.893246431204118e-05,0.0,0.0,0.0,0.0,0.47340982222791994,-1.9913566163262337,0.0,0.0,0.0,0.0,-0.4734098222279197,1.9913566163262342,2.0468556454152154,0.0,27.1243847936984,-114.09632962094555,0.0,0.0,0.0,0.0,-27.124384793698386,114.09632962094558,117.27618975481799
92,0.459688663482666,1775831872.5419154,0.010002241,-19.31153181004982,0.9166140500540364,0.8650391136392593,-19.31,0.92,0.8669747764553178,0.0015318100498227238,0.00338594994596364,0.0019356628160585032,0.004190213550975726,-0.4328595937853092,-0.9717114615135833,-0.5420561892254475,1.1939076616918334,0.0,0.0,7.6960325668878e-05,7.6960325668878e-05,0.0,0.0,0.0,0.0,0.4712703458325146,-1.98986924188103,0.0,0.0,0.0,0.0,-0.4712703458325147,1.9898692418810295,2.0449145064391523,0.0,27.001801825873812,-114.01110934267977,0.0,0.0,0.0,0.0,-27.001801825873816,114.01110934267975,117.16497068404124
93,0.46468639373779297,1775831872.5469131,0.014999932,-19.31339531456833,0.9124669770952827,0.8626955259695297,-19.31,0.92,0.8669751564306183,0.0033953145683298658,0.007533022904717357,0.0042796304610885905,0.009305365763063088,-0.497235701960538,-1.1208391975699687,-0.6214079734961326,1.3746533088884814,0.0,0.0,7.503751201396945e-05,7.503751201396945e-05,0.0,0.0,0.0,0.0,0.4690589227435834,-1.9883387142246187,0.0,0.0,0.0,0.0,-0.4690589227435833,1.9883387142246187,2.0429163261107344,0.0,26.87509661616027,-113.92341656753936,0.0,0.0,0.0,0.0,-26.875096616160263,113.92341656753936,117.05048338451682
94,0.46970510482788086,1775831872.5519319,0.020018601,-19.315958541429428,0.9067293679343369,0.8594810234714128,-19.31,0.92,0.866975526909315,0.005958541429428976,0.013270632065663146,0.007494503437902256,0.016364029857255734,-0.5599211205937316,-1.2675212708529031,-0.6982680825138449,1.5516765605012728,0.0,0.0,7.316216993538223e-05,7.316216993538223e-05,0.0,0.0,0.0,0.0,0.4667751755240898,-1.986764182603462,0.0,0.0,0.0,0.0,-0.46677517552408965,1.986764182603462,2.0408603533219876,0.0,26.74424753900855,-113.83320255093719,0.0,0.0,0.0,0.0,-26.74424753900854,113.83320255093719,116.93268482092789
95,0.47469019889831543,1775831872.556917,0.02500367,-19.3191579555027,0.899524020746126,0.8554806742017764,-19.31,0.92,0.8669758881314672,0.009157955502701043,0.02047597925387401,0.011495213929690773,0.025204638832641263,-0.6872331271486233,-1.563185781879817,-0.8549898278128938,1.909671899930774,0.0,0.0,7.133408994101848e-05,7.133408994101848e-05,0.0,0.0,0.0,0.0,0.46420890334269727,-1.9849984058687045,0.0,0.0,0.0,0.0,-0.46420890334269727,1.984998405868705,2.0385555124263677,0.0,26.597210973932928,-113.73203099647318,0.0,0.0,0.0,0.0,-26.597210973932928,113.73203099647321,116.80062716515971
96,0.4796943664550781,1775831872.5619211,0.030007788,-19.322991339750374,0.8908360611052856,0.8507027623194675,-19.31,0.92,0.8669762403254287,0.01299133975037492,0.02916393889471447,0.01627347800596124,0.03583484793849159,-0.8084058696815611,-1.8490601684115928,-1.0029158178711364,2.253526945540709,0.0,0.0,6.955128791621799e-05,6.955128791621799e-05,0.0,0.0,0.0,0.0,0.4612219929291493,-1.9829534681571455,0.0,0.0,0.0,0.0,-0.4612219929291492,1.9829534681571452,2.035885601805265,0.0,26.426073613452953,-113.61486469623371,0.0,0.0,0.0,0.0,-26.42607361345295,113.6148646962337,116.64765255489338
97,0.4846773147583008,1775831872.566904,0.034990879,-19.327394703703135,0.8807901884633597,0.8452326838842119,-19.31,0.92,0.8669765837196892,0.017394703703136116,0.03920981153664038,0.02174389983547731,0.04809139442472036,-0.9224728491369125,-2.122861445238652,-1.1408669379012053,2.580518212117788,0.0,0.0,6.781346225838692e-05,6.781346225838692e-05,0.0,0.0,0.0,0.0,0.4579471226932892,-1.980721448343639,0.0,0.0,0.0,0.0,-0.4579471226932892,1.9807214483436386,2.0329714762169155,0.0,26.238437370485155,-113.48697938113023,0.0,0.0,0.0,0.0,-26.238437370485155,113.4869793811302,116.48068545770988
98,0.4896883964538574,1775831872.5719151,0.040002005,-19.332379451195724,0.8693392467234335,0.839062135263391,-19.31,0.92,0.8669769185319895,0.022379451195725153,0.050660753276566495,0.02791478326859853,0.06202085845345754,-1.030543202305623,-2.3872624151139643,-1.2701816585486305,2.8938560047361435,0.0,0.0,6.611894723722799e-05,6.611894723722799e-05,0.0,0.0,0.0,0.0,0.45440034403047297,-1.978314808655366,0.0,0.0,0.0,0.0,-0.45440034403047314,1.978314808655366,2.0298298339516365,0.0,26.035221922238733,-113.34908908418349,0.0,0.0,0.0,0.0,-26.03522192223874,113.34908908418349,116.30068261516946
