sample_idx,t_rel_s,stamp_s,t_in_traj_s,x_des_m,y_des_m,z_des_m,x_act_m,y_act_m,z_act_m,ex_m,ey_m,ez_m,e_pos_norm_m,vx_des_mps,vy_des_mps,vz_des_mps,speed_des_mps,vx_act_mps,vy_act_mps,vz_act_mps,speed_act_mps,wx_act_radps,wy_act_radps,wz_act_radps,roll_des_rad,pitch_des_rad,yaw_des_rad,roll_act_rad,pitch_act_rad,yaw_act_rad,e_roll_rad,e_pitch_rad,e_yaw_rad,e_ang_norm_rad,roll_des_deg,pitch_des_deg,yaw_des_deg,roll_act_deg,pitch_act_deg,yaw_act_deg,e_roll_deg,e_pitch_deg,e_yaw_deg,e_ang_norm_deg
0,0.0,1775825889.0242012,0.036550275,-19.218451496091337,-0.9288383560617517,0.8343937045192458,-19.31,-0.92,0.8237548406682066,-0.09154850390866187,0.008838356061751651,-0.010638863851039182,0.09258742101295148,4.657199510722255,-0.4356998325252937,0.5437483582897336,4.709034285697754,0.0,0.0,0.0013890175293422226,0.0013890175293422226,0.0,0.0,0.0,0.0,-0.11572733273627661,-0.09328252560605557,0.0,0.0,0.0,0.0,0.11572733273627644,0.09328252560605543,0.14864200323494442,0.0,-6.630687740094818,-5.344695019548016,0.0,0.0,0.0,0.0,6.630687740094809,5.344695019548008,8.516559443732245
1,0.0049974918365478516,1775825889.0291986,0.041547663,-19.193456394074744,-0.9311822827168603,0.837310113046429,-19.31,-0.92,0.8237616985800035,-0.11654360592525492,0.011182282716860281,-0.013548414466425518,0.11786015044693841,5.178661665536043,-0.47958397059165425,0.6056692523417672,5.235969124639032,0.0,0.0,0.0013542886074870036,0.0013542886074870036,0.0,0.0,0.0,0.0,-0.11593425082133746,-0.09234431842048736,0.0,0.0,0.0,0.0,0.11593425082133724,0.09234431842048751,0.1482168130073276,0.0,-6.642543273073734,-5.29093970750611,0.0,0.0,0.0,0.0,6.642543273073722,5.290939707506119,8.492197838199594
2,0.009996414184570312,1775825889.0341976,0.046546528,-19.165922825729147,-0.9337359615612179,0.8405288999923723,-19.31,-0.92,0.8237683849979385,-0.14407717427085132,0.013735961561217813,-0.016760514994433873,0.14569771325852426,5.669857955509539,-0.5193421843633723,0.6643820089896225,5.7322254835258555,0.0,0.0,0.0013204302086578194,0.0013204302086578194,0.0,0.0,0.0,0.0,-0.11616405731124707,-0.09134215116424173,0.0,0.0,0.0,0.0,0.11616405731124724,0.0913421511642416,0.1477750885309222,0.0,-6.655710215050271,-5.2335197533570295,0.0,0.0,0.0,0.0,6.655710215050281,5.233519753357022,8.466888889993939
3,0.014994144439697266,1775825889.0391953,0.051544445,-19.136015766120536,-0.9364775033637263,0.8440324280348243,-19.31,-0.92,0.8237749043232776,-0.17398423387946238,0.01647750336372622,-0.020257523711546654,0.17593291057289126,6.130545267671473,-0.5549545297460824,0.7198576339359831,6.197560392782849,0.0,0.0,0.001287433892537179,0.001287433892537179,0.0,0.0,0.0,0.0,-0.11641454421948079,-0.09027681506772169,0.0,0.0,0.0,0.0,0.11641454421948083,0.09027681506772156,0.1473168335411845,0.0,-6.670062057715343,-5.17248049126349,0.0,0.0,0.0,0.0,6.670062057715346,5.1724804912634825,8.440632813141157
4,0.019997596740722656,1775825889.0441988,0.056547876,-19.103845605054772,-0.9393899867356388,0.8478094628028123,-19.31,-0.92,0.8237812606499579,-0.20615439494522647,0.019389986735638742,-0.024028202152854394,0.2084537374084214,6.5612775474759735,-0.5864613783660987,0.772163431461259,6.632536194263354,0.0,0.0,0.0012552386529906209,0.0012552386529906209,0.0,0.0,0.0,0.0,-0.11668514397431624,-0.0891452978374163,0.0,0.0,0.0,0.0,0.1166851439743164,0.08914529783741632,0.14684109421694122,0.0,-6.6855662816046895,-5.107649329520659,0.0,0.0,0.0,0.0,6.685566281604698,5.10764932952066,8.413374957713613
5,0.02499699592590332,1775825889.0491982,0.061547139,-19.06962591054836,-0.9424471332646663,0.8518366597283873,-19.31,-0.92,0.8237874580801436,-0.24037408945163818,0.022447133264666297,-0.02804920164824365,0.2430438939463604,6.961209005398048,-0.6138000898381928,0.8211968823999493,7.036301989453242,0.0,0.0,0.0012238608833198077,0.0012238608833198077,0.0,0.0,0.0,0.0,-0.11697517292850902,-0.08794690140755178,0.0,0.0,0.0,0.0,0.1169751729285089,0.08794690140755179,0.14634838075238207,0.0,-6.7021837166165295,-5.038986271905876,0.0,0.0,0.0,0.0,6.702183716616522,5.038986271905877,8.385144555685104
6,0.029878616333007812,1775825889.0540798,0.06642872,-19.03435466939721,-0.9455543707076535,0.855997937872217,-19.31,-0.92,0.8237923042660991,-0.2756453306027886,0.02555437070765343,-0.032205633606117945,0.27869441505232273,7.322362826706728,-0.6365001277667702,0.8659617289932084,7.400812083458447,0.0,0.0,0.001199317929641963,0.001199317929641963,0.0,0.0,0.0,0.0,-0.11727767028861744,-0.08670756021829996,0.0,0.0,0.0,0.0,0.11727767028861757,0.08670756021829984,0.14585010437889917,0.0,-6.719515538664591,-4.9679772523850225,0.0,0.0,0.0,0.0,6.719515538664599,4.967977252385015,8.356595422453449
7,0.03495216369628906,1775825889.0591533,0.071502332,-18.995904555607027,-0.9488907978299833,0.8605463297605049,-19.31,-0.92,0.8237958750410561,-0.3140954443929722,0.028890797829983272,-0.03675045471944882,0.3175550697276898,7.666975640773542,-0.6559096092385029,0.9092262975343044,7.74851117001416,0.0,0.0,0.0011812449974859982,0.0011812449974859982,0.0,0.0,0.0,0.0,-0.1176130304363791,-0.0853421835729703,0.0,0.0,0.0,0.0,0.11761303043637916,0.08534218357297041,0.14531384388774263,0.0,-6.738730259748218,-4.889746933161902,0.0,0.0,0.0,0.0,6.738730259748221,4.889746933161908,8.325869959590566
8,0.04007744789123535,1775825889.0642786,0.076627679,-18.955368380679765,-0.9523501754142691,0.8653553572077316,-19.31,-0.92,0.8238028559100042,-0.3546316193202337,0.0323501754142691,-0.04155250129772736,0.3585201941803596,7.983280282943637,-0.6711873365550096,0.949556873591678,8.067522220172291,0.0,0.0,0.001145873192517224,0.001145873192517224,0.0,0.0,0.0,0.0,-0.11797465042924765,-0.08387687341195531,0.0,0.0,0.0,0.0,0.1179746504292476,0.08387687341195527,0.14475271340209253,0.0,-6.759449559127137,-4.805790845258108,0.0,0.0,0.0,0.0,6.759449559127133,4.805790845258106,8.29371955100669
9,0.045418500900268555,1775825889.0696197,0.081968748,-18.911490768627104,-0.9560262735272352,0.8705772251958184,-19.31,-0.92,0.8238085131278032,-0.39850923137289485,0.0360262735272352,-0.04676871206801514,0.4028583030076152,8.278866806839423,-0.6824778691799287,0.9879754842523706,8.365495036445342,0.0,0.0,0.001117127405954151,0.001117127405954151,0.0,0.0,0.0,0.0,-0.118377539463911,-0.08225016569346032,0.0,0.0,0.0,0.0,0.11837753946391105,0.08225016569346044,0.14414690980430872,0.0,-6.782533400425446,-4.71258735848699,0.0,0.0,0.0,0.0,6.782533400425449,4.7125873584869975,8.259009561639838
10,0.0519413948059082,1775825889.0761425,0.088491616,-18.85590750421312,-0.960577920415804,0.8772175289734323,-19.31,-0.92,0.8238118390999294,-0.4540924957868775,0.04057792041580399,-0.053405689873502915,0.4590193133911594,8.592746184174603,-0.6898568370643342,1.0298981547263273,8.681697970466393,0.0,0.0,0.0011002355202392987,0.0011002355202392987,0.0,0.0,0.0,0.0,-0.11890867079711256,-0.0801118035498616,0.0,0.0,0.0,0.0,0.11890867079711276,0.0801118035498618,0.14337772860088066,0.0,-6.812964984185053,-4.590068232588235,0.0,0.0,0.0,0.0,6.812964984185063,4.590068232588248,8.214938725002616
11,0.05692124366760254,1775825889.0811224,0.093471396,-18.812190967304463,-0.9640721689364424,0.882460875735986,-19.31,-0.92,0.8238161956945047,-0.49780903269553534,0.04407216893644239,-0.05864468004148127,0.5031852418396178,8.797501897668257,-0.6907457667937432,1.0582048765769345,8.887798766546824,0.0,0.0,0.001078138888367095,0.001078138888367095,0.0,0.0,0.0,0.0,-0.11934576374462338,-0.0783553751660765,0.0,0.0,0.0,0.0,0.11934576374462358,0.0783553751660766,0.14276896070646491,0.0,-6.8380085653323555,-4.489432299180366,0.0,0.0,0.0,0.0,6.838008565332367,4.489432299180371,8.180058893949528
12,0.06019926071166992,1775825889.0844004,0.096749478,-18.782888472645787,-0.9663704627628825,0.8859860348475992,-19.31,-0.92,0.8238215186097334,-0.5271115273542115,0.04637046276288248,-0.062164516237865786,0.5327862696857169,8.915808914106991,-0.6890887879845069,1.0750907403878904,9.006792550662162,0.0,0.0,0.001051142860708865,0.001051142860708865,0.0,0.0,0.0,0.0,-0.11964972010092552,-0.07713507555218224,0.0,0.0,0.0,0.0,0.11964972010092545,0.07713507555218246,0.14235826425139744,0.0,-6.855423981704643,-4.419514281562781,0.0,0.0,0.0,0.0,6.8554239817046385,4.419514281562793,8.156527720413177
13,0.0650644302368164,1775825889.0892656,0.101614756,-18.738735517579954,-0.969764426282185,0.891314517852579,-19.31,-0.92,0.8238267082465931,-0.5712644824200446,0.049764426282184915,-0.06748780960598588,0.5773856695859798,9.067279205834742,-0.6833479157296622,1.0975943250699502,9.158997208915446,0.0,0.0,0.0010248165533103654,0.0010248165533103654,0.0,0.0,0.0,0.0,-0.12012653082325109,-0.07522196474490167,0.0,0.0,0.0,0.0,0.12012653082325109,0.07522196474490173,0.14173470777375854,0.0,-6.882743223720482,-4.3099011065647375,0.0,0.0,0.0,0.0,6.882743223720482,4.309901106564741,8.120800565956424
14,0.07006525993347168,1775825889.0942664,0.106615525,-18.692659372299346,-0.973213672644768,0.8968976003010212,-19.31,-0.92,0.8238317678063296,-0.6173406277006528,0.05321367264476795,-0.07306583249469156,0.6239228810071985,9.19293254151272,-0.6733606291632109,1.1175389768581787,9.285058783578476,0.0,0.0,0.0009991209292934836,0.0009991209292934836,0.0,0.0,0.0,0.0,-0.12065135003692871,-0.07311706530817591,0.0,0.0,0.0,0.0,0.12065135003692884,0.07311706530817608,0.14107747341448107,0.0,-6.912813149671584,-4.189299252540888,0.0,0.0,0.0,0.0,6.912813149671591,4.189299252540897,8.083143811018841
15,0.07506966590881348,1775825889.0992708,0.111619799,-18.645998155053128,-0.9766049659433567,0.9025763524240431,-19.31,-0.92,0.8238367005636917,-0.6640018449468705,0.05660496594335662,-0.07873965186035137,0.6710458293122652,9.28819426741496,-0.6592193262782458,1.1342648379747797,9.38038802992951,0.0,0.0,0.0009740851618668427,0.0009740851618668427,0.0,0.0,0.0,0.0,-0.12121537620814174,-0.0708550819440739,0.0,0.0,0.0,0.0,0.12121537620814182,0.07085508194407408,0.14040516395981598,0.0,-6.945129468817014,-4.059697152449039,0.0,0.0,0.0,0.0,6.945129468817019,4.059697152449049,8.04462331673979
16,0.08111977577209473,1775825889.105321,0.117670016,-18.589063764884997,-0.9805947816016758,0.9095414797840417,-19.31,-0.92,0.8238405576141912,-0.7209362351150013,0.06059478160167575,-0.08570092216985048,0.7285364992365927,9.362651114393914,-0.6365826612822949,1.1501681547344653,9.454488889340986,0.0,0.0,0.0009545109055922604,0.0009545109055922604,0.0,0.0,0.0,0.0,-0.12195521222704661,-0.06788722751496158,0.0,0.0,0.0,0.0,0.12195521222704642,0.06788722751496179,0.1395770376853303,0.0,-6.987518950232024,-3.8896516194516946,0.0,0.0,0.0,0.0,6.987518950232013,3.889651619451706,7.997175176307867
17,0.08529853820800781,1775825889.1094997,0.121848682,-18.5495407149968,-0.9832619408878509,0.9144015904680585,-19.31,-0.92,0.8238452701818787,-0.760459285003197,0.06326194088785086,-0.09055632028617977,0.7684405275987497,9.388055229899093,-0.6174080234118416,1.1583921812771927,9.479380048961701,0.0,0.0,0.0009306164013707707,0.0009306164013707707,0.0,0.0,0.0,0.0,-0.12250746323994338,-0.06567070600338039,0.0,0.0,0.0,0.0,0.12250746323994344,0.06567070600338054,0.1389989934368898,0.0,-7.019160602502834,-3.7626542916381345,0.0,0.0,0.0,0.0,7.019160602502837,3.762654291638143,7.964055680500414
18,0.09246516227722168,1775825889.1166663,0.129015299,-18.48166230851973,-0.987628924397677,0.9228007315377058,-19.31,-0.92,0.8238489551235546,-0.828337691480268,0.06762892439767698,-0.0989517764141512,0.8369638323115058,9.382127418759369,-0.5777880815965809,1.1672469717500469,9.472096888341623,0.0,0.0,0.0009119174807523219,0.0009119174807523219,0.0,0.0,0.0,0.0,-0.12354408858588352,-0.06150623180259411,0.0,0.0,0.0,0.0,0.1235440885858834,0.06150623180259407,0.13800781997796732,0.0,-7.078554859761493,-3.524047496041964,0.0,0.0,0.0,0.0,7.078554859761486,3.5240474960419617,7.907265624538773
19,0.09574508666992188,1775825889.1199462,0.132295207,-18.450658643715535,-0.9895263346768612,0.9266608285523998,-19.31,-0.92,0.823851670169523,-0.8593413562844638,0.0695263346768612,-0.10280915838287685,0.868257565980174,9.358555930685688,-0.5568174514753,1.1690871757465473,9.447718222223541,0.0,0.0,0.0008981487993804216,0.0008981487993804216,0.0,0.0,0.0,0.0,-0.12406080085797132,-0.059428163480945,0.0,0.0,0.0,0.0,0.12406080085797111,0.05942816348094482,0.1375601283956913,0.0,-7.108160292174739,-3.4049829516716357,0.0,0.0,0.0,0.0,7.108160292174727,3.404982951671625,7.881614786350823
20,0.10225653648376465,1775825889.1264577,0.138806697,-18.389442678322553,-0.9930750310252587,0.9343308480953941,-19.31,-0.92,0.8238569778940369,-0.9205573216774461,0.0730750310252587,-0.11047387020135724,0.9300377511964565,9.272947414600631,-0.5099043584926967,1.1686238594406346,9.360194332043129,0.0,0.0,0.0008712308040048215,0.0008712308040048215,0.0,0.0,0.0,0.0,-0.12517703414469905,-0.05493305739510849,0.0,0.0,0.0,0.0,0.12517703414469894,0.05493305739510834,0.13670014876377198,0.0,-7.172115748456254,-3.147432344489632,0.0,0.0,0.0,0.0,7.172115748456248,3.147432344489624,7.832341582974633
21,0.10753321647644043,1775825889.1317344,0.144083432,-18.34035152283443,-0.9957120677297888,0.9405327879773646,-19.31,-0.92,0.8238612792881335,-0.9696484771655705,0.07571206772978878,-0.11667150868923115,0.9795727269627567,9.165705318695318,-0.46673509879559544,1.1642320793300245,9.251131388978783,0.0,0.0,0.0008494154711318887,0.0008494154711318887,0.0,0.0,0.0,0.0,-0.1261821120197515,-0.050877950819355915,0.0,0.0,0.0,0.0,0.1261821120197517,0.05087795081935598,0.13605326630897904,0.0,-7.229702468778736,-2.9150918522232625,0.0,0.0,0.0,0.0,7.229702468778749,2.915091852223266,7.7952779484739345
22,0.10990691184997559,1775825889.134108,0.146457108,-18.318471458089896,-0.9968215118541799,0.9433131403587521,-19.31,-0.92,0.8238629695305024,-0.9915285419101032,0.07682151185417985,-0.11945017082824971,1.0016480107387202,9.106408802835647,-0.44581180668765175,1.1610839678551483,9.190949103969347,0.0,0.0,0.0008408415097007828,0.0008408415097007828,0.0,0.0,0.0,0.0,-0.12666751196606466,-0.04891677636241153,0.0,0.0,0.0,0.0,0.12666751196606452,0.04891677636241143,0.1357847914803542,0.0,-7.257513837078357,-2.802724832951488,0.0,0.0,0.0,0.0,7.257513837078349,2.8027248329514824,7.779895473888232
23,0.11594820022583008,1775825889.1401494,0.152498349,-18.263494056356585,-0.9994109572597234,0.9503477934075069,-19.31,-0.92,0.8238687520877304,-1.0465059436434139,0.07941095725972336,-0.1264790413197765,1.0571081960268152,8.924545729534211,-0.3883492769044485,1.149789317578912,9.006683469193204,0.0,0.0,0.0008114823360727717,0.0008114823360727717,0.0,0.0,0.0,0.0,-0.12800887940317748,-0.043487304502349805,0.0,0.0,0.0,0.0,0.1280088794031773,0.04348730450234983,0.1351940045228977,0.0,-7.3343685300012025,-2.4916390103849064,0.0,0.0,0.0,0.0,7.334368530001191,2.491639010384908,7.746045874634601
24,0.12065839767456055,1775825889.1448596,0.157208509,-18.22147163422628,-1.0011782147930122,0.955776719880856,-19.31,-0.92,0.8238727584087941,-1.088528365773719,0.08117821479301213,-0.13190396147206185,1.099491955724555,8.751924573622375,-0.3393531394609907,1.137713487677381,8.832085613018041,0.0,0.0,0.0007911373776886068,0.0007911373776886068,0.0,0.0,0.0,0.0,-0.129174887780445,-0.03875527263181311,0.0,0.0,0.0,0.0,0.12917488778044506,0.03875527263181322,0.13486334857868815,0.0,-7.401175888895529,-2.2205135556817575,0.0,0.0,0.0,0.0,7.401175888895532,2.220513555681764,7.72710068456048
25,0.12512660026550293,1775825889.1493278,0.161676837,-18.182415067389506,-1.0026336997991152,0.9608683144428689,-19.31,-0.92,0.8238758910600615,-1.1275849326104925,0.08263369979911517,-0.13699242338280737,1.1388779709244505,8.563199231409872,-0.28947562113454134,1.1236095837455307,8.641451018708295,0.0,0.0,0.0007752411473667761,0.0007752411473667761,0.0,0.0,0.0,0.0,-0.13039476735516314,-0.03379174331935057,0.0,0.0,0.0,0.0,0.1303947673551633,0.03379174331935042,0.13470217990132166,0.0,-7.471069840041092,-1.936124274588183,0.0,0.0,0.0,0.0,7.4710698400411015,1.9361242745881742,7.717866399557675
26,0.1306324005126953,1775825889.1548336,0.167182607,-18.13553642573564,-1.0041088859589515,0.9670462436603069,-19.31,-0.92,0.8238804724374997,-1.174463574264358,0.0841088859589515,-0.14316577122280716,1.1861430900278804,8.297225810679802,-0.2234692096656028,1.1026853445982425,8.373160073130776,0.0,0.0,0.0007520099137582532,0.0007520099137582532,0.0,0.0,0.0,0.0,-0.13207651389991296,-0.026926493795268583,0.0,0.0,0.0,0.0,0.13207651389991293,0.02692649379526868,0.1347933291823469,0.0,-7.5674268192659655,-1.542774451554088,0.0,0.0,0.0,0.0,7.567426819265964,1.5427744515540935,7.723088868666073
27,0.1356348991394043,1775825889.159836,0.172185075,-18.09429556342416,-1.0051228616550139,0.9725507636013702,-19.31,-0.92,0.8238841852451285,-1.2157044365758374,0.08512286165501382,-0.14866657835624164,1.2277153294663488,8.023564890168004,-0.15914266379957473,1.0802797307754275,8.097525809214945,0.0,0.0,0.0007331881499694707,0.0007331881499694707,0.0,0.0,0.0,0.0,-0.13380755313606274,-0.019831808154460614,0.0,0.0,0.0,0.0,0.13380755313606274,0.019831808154460617,0.1352692200426083,0.0,-7.666608061668898,-1.1362789073637234,0.0,0.0,0.0,0.0,7.666608061668898,1.1362789073637236,7.750355406467902
28,0.14062929153442383,1775825889.1648304,0.17717953,-18.054562397884702,-1.0058038615702287,0.9779265972576351,-19.31,-0.92,0.8238878050593741,-1.2554376021152969,0.08580386157022868,-0.154038792198261,1.2677593718712035,7.719947136418174,-0.09078363651994219,1.0546861983807059,7.792187653977906,0.0,0.0,0.0007148189476104996,0.0007148189476104996,0.0,0.0,0.0,0.0,-0.1357684660892558,-0.011759076905732717,0.0,0.0,0.0,0.0,0.13576846608925575,0.011759076905732524,0.13627674883817972,0.0,-7.778960097879395,-0.67374547766824,0.0,0.0,0.0,0.0,7.778960097879391,0.673745477668229,7.808082554192043
29,0.14637994766235352,1775825889.170581,0.182930086,-18.010795649707745,-1.0061510283718331,0.9839469821284104,-19.31,-0.92,0.8238913342240323,-1.2992043502922535,0.08615102837183308,-0.1600556479043781,1.311858130261779,7.332749752463922,-0.006957959535991435,1.0212284909447622,7.403524496898618,0.0,0.0,0.0006969203674803857,0.0006969203674803857,0.0,0.0,0.0,0.0,-0.13837936407779036,-0.0009488878909804653,0.0,0.0,0.0,0.0,0.13837936407779017,0.0009488878909804654,0.13838261737228144,0.0,-7.928553533361621,-0.05436727138425044,0.0,0.0,0.0,0.0,7.92855353336161,0.054367271384250446,7.928739933405473
30,0.1500391960144043,1775825889.1742404,0.186589317,-17.98415057700874,-1.0061147663591339,0.9876729025099967,-19.31,-0.92,0.8238940937858438,-1.3258494229912579,0.08611476635913384,-0.16377880872415296,1.3386993477321345,7.065404423115144,0.04923451002052384,0.9977152363083224,7.135670913930503,0.0,0.0,0.0006829065039109897,0.0006829065039109897,0.0,0.0,0.0,0.0,-0.14028043753340955,0.006968279546011464,0.0,0.0,0.0,0.0,0.14028043753340969,-0.006968279546011313,0.14045340179004642,0.0,-8.037477018912952,0.39925300845379424,0.0,0.0,0.0,0.0,8.03747701891296,-0.3992530084537856,8.047387140824862
31,0.15562844276428223,1775825889.1798296,0.192178746,-17.945416813672615,-1.005651866309987,0.9931898558990999,-19.31,-0.92,0.8238981294252274,-1.3645831863273834,0.08565186630998689,-0.16929172647387247,1.3777094045052762,6.625567828714733,0.13934955191614315,0.9584612324932855,6.695985012282468,0.0,0.0,0.0006624056139988295,0.0006624056139988295,0.0,0.0,0.0,0.0,-0.14363305201245685,0.02102899161698491,0.0,0.0,0.0,0.0,0.1436330520124569,-0.021028991616984793,0.14516429353956284,0.0,-8.229567678896814,1.204872467069224,0.0,0.0,0.0,0.0,8.229567678896816,-1.2048724670692172,8.317301355815154
32,0.1606307029724121,1775825889.1848319,0.197180845,-17.912921480155823,-1.0047991210460263,0.9979321683436249,-19.31,-0.92,0.8239013997249325,-1.3970785198441753,0.08479912104602627,-0.17403076861869238,1.4104275911815478,6.19969635535558,0.22438362321388083,0.9199112050035739,6.271588278424133,0.0,0.0,0.0006457907985711876,0.0006457907985711876,0.0,0.0,0.0,0.0,-0.14721026450197994,0.03617688886158393,0.0,0.0,0.0,0.0,0.14721026450197972,-0.0361768888615841,0.15159033367087177,0.0,-8.434526856967972,2.072783047682597,0.0,0.0,0.0,0.0,8.43452685696796,-2.0727830476826066,8.685486334320847
33,0.1657726764678955,1775825889.1899738,0.202322951,-17.88181803911607,-1.0034681267998753,1.002597633205717,-19.31,-0.92,0.8239045880512877,-1.4281819608839292,0.08346812679987525,-0.1786930451544292,1.4417357060058922,5.730150087649213,0.31611827571841905,0.876914162640408,5.805474075376515,0.0,0.0,0.0006296063556615499,0.0006296063556615499,0.0,0.0,0.0,0.0,-0.151629904340534,0.0551116738206325,0.0,0.0,0.0,0.0,0.1516299043405338,-0.05511167382063231,0.16133482104502797,0.0,-8.687753566685,3.157666311823871,0.0,0.0,0.0,0.0,8.68775356668499,-3.1576663118238604,9.243804334378517
34,0.16987895965576172,1775825889.19408,0.206429228,-17.858765441097617,-1.0020594998999826,1.0061590514298242,-19.31,-0.92,0.8239070810811006,-1.4512345589023816,0.08205949989998251,-0.18225197034872365,1.46493388491509,5.33207075654403,0.3925193437711002,0.8401264240394561,5.412103324623048,0.0,0.0,0.0006169554295671767,0.0006169554295671767,0.0,0.0,0.0,0.0,-0.15586132335765848,0.07348225843076137,0.0,0.0,0.0,0.0,0.15586132335765868,-0.0734822584307615,0.17231481196602297,0.0,-8.930196017717629,4.210223277172238,0.0,0.0,0.0,0.0,8.93019601771764,-4.210223277172246,9.87291147324349
35,0.17793917655944824,1775825889.2021403,0.214489441,-17.818470123397336,-0.998354833544735,1.0126891404906078,-19.31,-0.92,0.823910727085144,-1.4915298766026623,0.07835483354473494,-0.18877841340546375,1.5054694092229375,4.490982326735263,0.550609494118848,0.7615839644078113,4.588257099259522,0.0,0.0,0.0005984710811837296,0.0005984710811837296,0.0,0.0,0.0,0.0,-0.16675724966485042,0.1219945277199505,0.0,0.0,0.0,0.0,0.16675724966485062,-0.12199452771995034,0.2066171462134715,0.0,-9.554486609005291,6.989771562044893,0.0,0.0,0.0,0.0,9.554486609005302,-6.989771562044885,11.838290453069355
36,0.18003273010253906,1775825889.204234,0.216582865,-17.809139940364247,-0.9971805997324408,1.0142787909473403,-19.31,-0.92,0.8239125088991905,-1.5008600596357518,0.07718059973244074,-0.19036628204814976,1.5148521660299816,4.259592332667152,0.5934297427325544,0.7398122278924366,4.363898238114127,0.0,0.0,0.0005894266729146383,0.0005894266729146383,0.0,0.0,0.0,0.0,-0.17035287650120817,0.1384251141502595,0.0,0.0,0.0,0.0,0.17035287650120834,-0.1384251141502597,0.21950310877012283,0.0,-9.760500851432566,7.93117481942652,0.0,0.0,0.0,0.0,9.760500851432576,-7.931174819426532,12.576601722529084
37,0.18502259254455566,1775825889.2092237,0.2215728,-17.78889699387632,-0.9940142874150342,1.0178795295006384,-19.31,-0.92,0.8239154189152645,-1.5211030061236777,0.07401428741503413,-0.19396411058537388,1.5352050502050922,3.748948574086289,0.6872402644190047,0.6915972238116718,3.8736573560611083,0.0,0.0,0.0005746409306415704,0.0005746409306415704,0.0,0.0,0.0,0.0,-0.17950095057637422,0.18130249049047564,0.0,0.0,0.0,0.0,0.17950095057637405,-0.18130249049047542,0.2551297401634525,0.0,-10.284646886612624,10.387867520314996,0.0,0.0,0.0,0.0,10.284646886612615,-10.387867520314984,14.61785733963516
38,0.19002604484558105,1775825889.2142272,0.226576321,-17.771546256670646,-0.9903029427640188,1.0212105531947717,-19.31,-0.92,0.8239182559259801,-1.5384537433293524,0.07030294276401872,-0.1972922972687916,1.552645057534714,3.470272444518273,0.7387056832458748,0.6653505200740375,3.6098709450900563,0.0,0.0,0.0005602276558698531,0.0005602276558698531,0.0,0.0,0.0,0.0,-0.1853740748602588,0.2097362895404579,0.0,0.0,0.0,0.0,0.1853740748602588,-0.20973628954045775,0.27991580659279597,0.0,-10.621152120635006,12.01700420140207,0.0,0.0,0.0,0.0,10.621152120635006,-12.017004201402061,16.037994336767433
39,0.19504022598266602,1775825889.2192414,0.23159043,-17.757272476358054,-0.986024085141364,1.024251613937769,-19.31,-0.92,0.8239210218134921,-1.5527275236419449,0.06602408514136393,-0.20033059212427695,1.5669889242221413,3.180813938205169,0.7916668065495108,0.6379672093688318,3.3393585914517225,0.0,0.0,0.0005461852097696514,0.0005461852097696514,0.0,0.0,0.0,0.0,-0.19222647656258457,0.24393191596436842,0.0,0.0,0.0,0.0,0.19222647656258474,-0.24393191596436825,0.31057011755433517,0.0,-11.013765817706533,13.976269273298179,0.0,0.0,0.0,0.0,11.013765817706542,-13.976269273298168,17.794356978745245
40,0.20009565353393555,1775825889.2242968,0.236645754,-17.74619256626131,-0.9811216946574992,1.027000156183176,-19.31,-0.92,0.8239237183684829,-1.5638074337386882,0.06112169465749917,-0.2030764378146932,1.5781221723839036,2.8786465487221298,0.846468687519305,0.6092632246248929,3.0617506215073766,0.0,0.0,0.0005324987125472662,0.0005324987125472662,0.0,0.0,0.0,0.0,-0.2003290246045286,0.28599003309159937,0.0,0.0,0.0,0.0,0.20032902460452862,-0.2859900330915992,0.34917333392848865,0.0,-11.478007623811914,16.386021878955393,0.0,0.0,0.0,0.0,11.478007623811916,-16.386021878955386,20.006158352614552
41,0.20502734184265137,1775825889.2292285,0.241577596,-17.739972361729208,-0.9768853494032056,1.0289073694198083,-19.31,-0.92,0.8239263473886976,-1.5700276382707905,0.056885349403205554,-0.20498102203111068,1.5843736766633683,2.5738649915324223,0.9012918671819271,0.5802002718631103,2.7881428191458393,0.0,0.0,0.0005191640339234975,0.0005191640339234975,0.0,0.0,0.0,0.0,-0.2096275387974525,0.33682679998288684,0.0,0.0,0.0,0.0,0.20962753879745266,-0.3368267999828869,0.3967316450813941,0.0,-12.010773242808948,19.298754065916565,0.0,0.0,0.0,0.0,12.010773242808957,-19.29875406591657,22.731048862445988
42,0.21002793312072754,1775825889.234229,0.246578186,-17.739972361729208,-0.9768853494032056,1.0289073694198083,-19.31,-0.92,0.8239289105665446,-1.5700276382707905,0.056885349403205554,-0.2049784588532637,1.584373345049941,2.254756162338089,0.9582505573750868,0.549663210773218,2.510836340263693,0.0,0.0,0.0005061656413254561,0.0005061656413254561,0.0,0.0,0.0,0.0,-0.22070377718758175,0.40186282943906315,0.0,0.0,0.0,0.0,0.22070377718758172,-0.40186282943906315,0.4584799787882076,0.0,-12.645394955444132,23.025044070043972,0.0,0.0,0.0,0.0,12.64539495544413,-23.025044070043972,26.268967775811806
43,0.2151176929473877,1775825889.2393188,0.251667971,-17.739972361729208,-0.9768853494032056,1.0289073694198083,-19.31,-0.92,0.823931409601285,-1.5700276382707905,0.056885349403205554,-0.20497595981852335,1.5843730217390113,1.919533787802641,1.017643164658004,0.5174761122961562,2.2333806437524832,0.0,0.0,0.0004934999525919931,0.0004934999525919931,0.0,0.0,0.0,0.0,-0.23382571232134808,0.487476623724742,0.0,0.0,0.0,0.0,0.23382571232134808,-0.4874766237247421,0.5406550863726888,0.0,-13.397226457653376,27.930353150714613,0.0,0.0,0.0,0.0,13.397226457653376,-27.93035315071462,30.977254621436057
44,0.22002530097961426,1775825889.2442265,0.256575496,-17.739972361729208,-0.9768853494032056,1.0289073694198083,-19.31,-0.92,0.8239338460598774,-1.5700276382707905,0.056885349403205554,-0.2049735233599309,1.5843727065275597,1.5863596157504545,1.07626354923015,0.48538566113737525,1.9774931853038522,0.0,0.0,0.0004811362267928377,0.0004811362267928377,0.0,0.0,0.0,0.0,-0.24798906050404526,0.59611507213511,0.0,0.0,0.0,0.0,0.24798906050404534,-0.5961150721351101,0.6456405759835162,0.0,-14.20872653229621,34.15487773747842,0.0,0.0,0.0,0.0,14.208726532296215,-34.15487773747843,36.99248008625102
45,0.22503018379211426,1775825889.2492313,0.261580357,-17.739972361729208,-0.9768853494032056,1.0289073694198083,-19.31,-0.92,0.8239362214928678,-1.5700276382707905,0.056885349403205554,-0.2049711479269405,1.5843723992147074,0.0,0.0,0.0,0.0,0.0,0.0,0.0004690864454597416,0.0004690864454597416,0.0,0.0,0.0,0.0,-0.24798906050404526,0.59611507213511,0.0,0.0,0.0,0.0,0.24798906050404534,-0.5961150721351101,0.6456405759835162,0.0,-14.20872653229621,34.15487773747842,0.0,0.0,0.0,0.0,14.208726532296215,-34.15487773747843,36.99248008625102
46,0.23003005981445312,1775825889.2542312,0.266580264,-17.739972361729208,-0.9768853494032056,1.0289073694198083,-19.31,-0.92,0.8239385374263694,-1.5700276382707905,0.056885349403205554,-0.20496883199343896,1.5843720996027528,0.0,0.0,0.0,0.0,0.0,0.0,0.0004573388178019504,0.0004573388178019504,0.0,0.0,0.0,0.0,-0.24798906050404526,0.59611507213511,0.0,0.0,0.0,0.0,0.24798906050404534,-0.5961150721351101,0.6456405759835162,0.0,-14.20872653229621,34.15487773747842,0.0,0.0,0.0,0.0,14.208726532296215,-34.15487773747843,36.99248008625102
47,0.23502516746520996,1775825889.2592263,0.271575362,-17.739972361729208,-0.9768853494032056,1.0289073694198083,-19.31,-0.92,0.82394079538123,-1.5700276382707905,0.056885349403205554,-0.20496657403857832,1.5843718074946904,0.0,0.0,0.0,0.0,0.0,0.0,0.00044588987955762377,0.00044588987955762377,0.0,0.0,0.0,0.0,-0.24798906050404526,0.59611507213511,0.0,0.0,0.0,0.0,0.24798906050404534,-0.5961150721351101,0.6456405759835162,0.0,-14.20872653229621,34.15487773747842,0.0,0.0,0.0,0.0,14.208726532296215,-34.15487773747843,36.99248008625102
48,0.24008464813232422,1775825889.2642858,0.276634765,-17.739972361729208,-0.9768853494032056,1.0289073694198083,-19.31,-0.92,0.8239429967837594,-1.5700276382707905,0.056885349403205554,-0.20496437263604894,1.5843715227057604,0.0,0.0,0.0,0.0,0.0,0.0,0.0004347207683567446,0.0004347207683567446,0.0,0.0,0.0,0.0,-0.24798906050404526,0.59611507213511,0.0,0.0,0.0,0.0,0.24798906050404534,-0.5961150721351101,0.6456405759835162,0.0,-14.20872653229621,34.15487773747842,0.0,0.0,0.0,0.0,14.208726532296215,-34.15487773747843,36.99248008625102
49,0.24503350257873535,1775825889.2692347,0.281583819,-17.739972361729208,-0.9768853494032056,1.0289073694198083,-19.31,-0.92,0.8239451430685071,-1.5700276382707905,0.056885349403205554,-0.20496222635130124,1.5843712450501501,0.0,0.0,0.0,0.0,0.0,0.0,0.0004238377411588362,0.0004238377411588362,0.0,0.0,0.0,0.0,-0.24798906050404526,0.59611507213511,0.0,0.0,0.0,0.0,0.24798906050404534,-0.5961150721351101,0.6456405759835162,0.0,-14.20872653229621,34.15487773747842,0.0,0.0,0.0,0.0,14.208726532296215,-34.15487773747843,36.99248008625102
50,0.25003480911254883,1775825889.274236,0.286585039,-17.739972361729208,-0.9768853494032056,1.0289073694198083,-19.31,-0.92,0.8239472356163671,-1.5700276382707905,0.056885349403205554,-0.20496013380344125,1.584370974349002,0.0,0.0,0.0,0.0,0.0,0.0,0.0004132292006124462,0.0004132292006124462,0.0,0.0,0.0,0.0,-0.24798906050404526,0.59611507213511,0.0,0.0,0.0,0.0,0.24798906050404534,-0.5961150721351101,0.6456405759835162,0.0,-14.20872653229621,34.15487773747842,0.0,0.0,0.0,0.0,14.208726532296215,-34.15487773747843,36.99248008625102
51,0.25617480278015137,1775825889.280376,0.292724945,-17.739972361729208,-0.9768853494032056,1.0289073694198083,-19.31,-0.92,0.8239492758147973,-1.5700276382707905,0.056885349403205554,-0.20495809360501105,1.5843707104226212,0.0,0.0,0.0,0.0,0.0,0.0,0.0004028923994511789,0.0004028923994511789,0.0,0.0,0.0,0.0,-0.24798906050404526,0.59611507213511,0.0,0.0,0.0,0.0,0.24798906050404534,-0.5961150721351101,0.6456405759835162,0.0,-14.20872653229621,34.15487773747842,0.0,0.0,0.0,0.0,14.208726532296215,-34.15487773747843,36.99248008625102
52,0.2600388526916504,1775825889.28424,0.296589096,-17.739972361729208,-0.9768853494032056,1.0289073694198083,-19.31,-0.92,0.8239512649436377,-1.5700276382707905,0.056885349403205554,-0.20495610447617063,1.5843704531052476,0.0,0.0,0.0,0.0,0.0,0.0,0.0003928021711798613,0.0003928021711798613,0.0,0.0,0.0,0.0,-0.24798906050404526,0.59611507213511,0.0,0.0,0.0,0.0,0.24798906050404534,-0.5961150721351101,0.6456405759835162,0.0,-14.20872653229621,34.15487773747842,0.0,0.0,0.0,0.0,14.208726532296215,-34.15487773747843,36.99248008625102
53,0.26509642601013184,1775825889.2892976,0.30164675,-17.739972361729208,-0.9768853494032056,1.0289073694198083,-19.31,-0.92,0.8239532042682051,-1.5700276382707905,0.056885349403205554,-0.20495416515160325,1.5843702022330108,0.0,0.0,0.0,0.0,0.0,0.0,0.00038296800555108896,0.00038296800555108896,0.0,0.0,0.0,0.0,-0.24798906050404526,0.59611507213511,0.0,0.0,0.0,0.0,0.24798906050404534,-0.5961150721351101,0.6456405759835162,0.0,-14.20872653229621,34.15487773747842,0.0,0.0,0.0,0.0,14.208726532296215,-34.15487773747843,36.99248008625102
54,0.270031213760376,1775825889.2942324,0.306581524,-17.739972361729208,-0.9768853494032056,1.0289073694198083,-19.31,-0.92,0.823955095018955,-1.5700276382707905,0.056885349403205554,-0.20495227440085328,1.5843699576465604,0.0,0.0,0.0,0.0,0.0,0.0,0.0003733749308931388,0.0003733749308931388,0.0,0.0,0.0,0.0,-0.24798906050404526,0.59611507213511,0.0,0.0,0.0,0.0,0.24798906050404534,-0.5961150721351101,0.6456405759835162,0.0,-14.20872653229621,34.15487773747842,0.0,0.0,0.0,0.0,14.208726532296215,-34.15487773747843,36.99248008625102
55,0.27542734146118164,1775825889.2996285,0.311977619,-17.739972361729208,-0.9768853494032056,1.0289073694198083,-19.31,-0.92,0.823956938429135,-1.5700276382707905,0.056885349403205554,-0.20495043099067334,1.5843697191861954,0.0,0.0,0.0,0.0,0.0,0.0,0.0003640274264015224,0.0003640274264015224,0.0,0.0,0.0,0.0,-0.24798906050404526,0.59611507213511,0.0,0.0,0.0,0.0,0.24798906050404534,-0.5961150721351101,0.6456405759835162,0.0,-14.20872653229621,34.15487773747842,0.0,0.0,0.0,0.0,14.208726532296215,-34.15487773747843,36.99248008625102
56,0.28005528450012207,1775825889.3042564,0.316605581,-17.739972361729208,-0.9768853494032056,1.0289073694198083,-19.31,-0.92,0.823958735657267,-1.5700276382707905,0.056885349403205554,-0.20494863376254135,1.584369486701891,0.0,0.0,0.0,0.0,0.0,0.0,0.00035490190976720555,0.00035490190976720555,0.0,0.0,0.0,0.0,-0.24798906050404526,0.59611507213511,0.0,0.0,0.0,0.0,0.24798906050404534,-0.5961150721351101,0.6456405759835162,0.0,-14.20872653229621,34.15487773747842,0.0,0.0,0.0,0.0,14.208726532296215,-34.15487773747843,36.99248008625102
57,0.28554248809814453,1775825889.3097436,0.322092682,-17.739972361729208,-0.9768853494032056,1.0289073694198083,-19.31,-0.92,0.8239604878264658,-1.5700276382707905,0.056885349403205554,-0.2049468815933425,1.584369260048211,0.0,0.0,0.0,0.0,0.0,0.0,0.000346001087348407,0.000346001087348407,0.0,0.0,0.0,0.0,-0.24798906050404526,0.59611507213511,0.0,0.0,0.0,0.0,0.24798906050404534,-0.5961150721351101,0.6456405759835162,0.0,-14.20872653229621,34.15487773747842,0.0,0.0,0.0,0.0,14.208726532296215,-34.15487773747843,36.99248008625102
58,0.2904961109161377,1775825889.3146973,0.327046407,-17.739972361729208,-0.9768853494032056,1.0289073694198083,-19.31,-0.92,0.8239621960057224,-1.5700276382707905,0.056885349403205554,-0.2049451734140859,1.5843690390867307,0.0,0.0,0.0,0.0,0.0,0.0,0.0003373067856526713,0.0003373067856526713,0.0,0.0,0.0,0.0,-0.24798906050404526,0.59611507213511,0.0,0.0,0.0,0.0,0.24798906050404534,-0.5961150721351101,0.6456405759835162,0.0,-14.20872653229621,34.15487773747842,0.0,0.0,0.0,0.0,14.208726532296215,-34.15487773747843,36.99248008625102
59,0.295734167098999,1775825889.3199353,0.332284452,-17.739972361729208,-0.9768853494032056,1.0289073694198083,-19.31,-0.92,0.8239638612578879,-1.5700276382707905,0.056885349403205554,-0.20494350816192042,1.5843688236798261,0.0,0.0,0.0,0.0,0.0,0.0,0.00032882806896693235,0.00032882806896693235,0.0,0.0,0.0,0.0,-0.24798906050404526,0.59611507213511,0.0,0.0,0.0,0.0,0.24798906050404534,-0.5961150721351101,0.6456405759835162,0.0,-14.20872653229621,34.15487773747842,0.0,0.0,0.0,0.0,14.208726532296215,-34.15487773747843,36.99248008625102
60,0.3000211715698242,1775825889.3242223,0.336571279,-17.739972361729208,-0.9768853494032056,1.0289073694198083,-19.31,-0.92,0.8239654846127382,-1.5700276382707905,0.056885349403205554,-0.2049418848070701,1.5843686136941604,0.0,0.0,0.0,0.0,0.0,0.0,0.0003205495388954561,0.0003205495388954561,0.0,0.0,0.0,0.0,-0.24798906050404526,0.59611507213511,0.0,0.0,0.0,0.0,0.24798906050404534,-0.5961150721351101,0.6456405759835162,0.0,-14.20872653229621,34.15487773747842,0.0,0.0,0.0,0.0,14.208726532296215,-34.15487773747843,36.99248008625102
61,0.3052635192871094,1775825889.3294647,0.341813828,-17.739972361729208,-0.9768853494032056,1.0289073694198083,-19.31,-0.92,0.8239670671152666,-1.5700276382707905,0.056885349403205554,-0.20494030230454174,1.5843684089944352,0.0,0.0,0.0,0.0,0.0,0.0,0.00031248534556206246,0.00031248534556206246,0.0,0.0,0.0,0.0,-0.24798906050404526,0.59611507213511,0.0,0.0,0.0,0.0,0.24798906050404534,-0.5961150721351101,0.6456405759835162,0.0,-14.20872653229621,34.15487773747842,0.0,0.0,0.0,0.0,14.208726532296215,-34.15487773747843,36.99248008625102
62,0.3104732036590576,1775825889.3346744,0.347023512,-17.739972361729208,-0.9768853494032056,1.0289073694198083,-19.31,-0.92,0.8239686097974437,-1.5700276382707905,0.056885349403205554,-0.20493875962236463,1.5843682094470446,0.0,0.0,0.0,0.0,0.0,0.0,0.0003046230990708157,0.0003046230990708157,0.0,0.0,0.0,0.0,-0.24798906050404526,0.59611507213511,0.0,0.0,0.0,0.0,0.24798906050404534,-0.5961150721351101,0.6456405759835162,0.0,-14.20872653229621,34.15487773747842,0.0,0.0,0.0,0.0,14.208726532296215,-34.15487773747843,36.99248008625102
63,0.3168344497680664,1775825889.3410356,0.353384754,-17.739972361729208,-0.9768853494032056,1.0289073694198083,-19.31,-0.92,0.8239701136893206,-1.5700276382707905,0.056885349403205554,-0.2049372557304877,1.5843680149186377,0.0,0.0,0.0,0.0,0.0,0.0,0.0002969655575398042,0.0002969655575398042,0.0,0.0,0.0,0.0,-0.24798906050404526,0.59611507213511,0.0,0.0,0.0,0.0,0.24798906050404534,-0.5961150721351101,0.6456405759835162,0.0,-14.20872653229621,34.15487773747842,0.0,0.0,0.0,0.0,14.208726532296215,-34.15487773747843,36.99248008625102
64,0.32002711296081543,1775825889.3442283,0.35657727,-17.739972361729208,-0.9768853494032056,1.0289073694198083,-19.31,-0.92,0.8239715797491908,-1.5700276382707905,0.056885349403205554,-0.20493578967061754,1.5843678252851514,0.0,0.0,0.0,0.0,0.0,0.0,0.00028948585229713697,0.00028948585229713697,0.0,0.0,0.0,0.0,-0.24798906050404526,0.59611507213511,0.0,0.0,0.0,0.0,0.24798906050404534,-0.5961150721351101,0.6456405759835162,0.0,-14.20872653229621,34.15487773747842,0.0,0.0,0.0,0.0,14.208726532296215,-34.15487773747843,36.99248008625102
65,0.32512712478637695,1775825889.3493283,0.361677385,-17.739972361729208,-0.9768853494032056,1.0289073694198083,-19.31,-0.92,0.8239730088126567,-1.5700276382707905,0.056885349403205554,-0.20493436060715164,1.5843676404384,0.0,0.0,0.0,0.0,0.0,0.0,0.000282169034508167,0.000282169034508167,0.0,0.0,0.0,0.0,-0.24798906050404526,0.59611507213511,0.0,0.0,0.0,0.0,0.24798906050404534,-0.5961150721351101,0.6456405759835162,0.0,-14.20872653229621,34.15487773747842,0.0,0.0,0.0,0.0,14.208726532296215,-34.15487773747843,36.99248008625102
66,0.3300309181213379,1775825889.354232,0.366581251,-17.739972361729208,-0.9768853494032056,1.0289073694198083,-19.31,-0.92,0.8239744017481223,-1.5700276382707905,0.056885349403205554,-0.204932967671686,1.584367460265959,0.0,0.0,0.0,0.0,0.0,0.0,0.00027503729281322403,0.00027503729281322403,0.0,0.0,0.0,0.0,-0.24798906050404526,0.59611507213511,0.0,0.0,0.0,0.0,0.24798906050404534,-0.5961150721351101,0.6456405759835162,0.0,-14.20872653229621,34.15487773747842,0.0,0.0,0.0,0.0,14.208726532296215,-34.15487773747843,36.99248008625102
67,0.3352999687194824,1775825889.3595011,0.371850213,-17.739972361729208,-0.9768853494032056,1.0289073694198083,-19.31,-0.92,0.8239754907216805,-1.5700276382707905,0.056885349403205554,-0.2049318786981278,1.5843673194110086,0.0,0.0,0.0,0.0,0.0,0.0,0.00026946869205943323,0.00026946869205943323,0.0,0.0,0.0,0.0,-0.24798906050404526,0.59611507213511,0.0,0.0,0.0,0.0,0.24798906050404534,-0.5961150721351101,0.6456405759835162,0.0,-14.20872653229621,34.15487773747842,0.0,0.0,0.0,0.0,14.208726532296215,-34.15487773747843,36.99248008625102
68,0.3400239944458008,1775825889.3642251,0.376574231,-17.739972361729208,-0.9768853494032056,1.0289073694198083,-19.31,-0.92,0.8239770829852883,-1.5700276382707905,0.056885349403205554,-0.20493028643452005,1.5843671134585617,0.0,0.0,0.0,0.0,0.0,0.0,0.00026132947403016243,0.00026132947403016243,0.0,0.0,0.0,0.0,-0.24798906050404526,0.59611507213511,0.0,0.0,0.0,0.0,0.24798906050404534,-0.5961150721351101,0.6456405759835162,0.0,-14.20872653229621,34.15487773747842,0.0,0.0,0.0,0.0,14.208726532296215,-34.15487773747843,36.99248008625102
69,0.34502196311950684,1775825889.369223,0.381572247,-17.739972361729208,-0.9768853494032056,1.0289073694198083,-19.31,-0.92,0.8239783730896258,-1.5700276382707905,0.056885349403205554,-0.20492899633018247,1.5843669465902703,0.0,0.0,0.0,0.0,0.0,0.0,0.0002547395835163006,0.0002547395835163006,0.0,0.0,0.0,0.0,-0.24798906050404526,0.59611507213511,0.0,0.0,0.0,0.0,0.24798906050404534,-0.5961150721351101,0.6456405759835162,0.0,-14.20872653229621,34.15487773747842,0.0,0.0,0.0,0.0,14.208726532296215,-34.15487773747843,36.99248008625102
70,0.3500237464904785,1775825889.374225,0.014023029,-19.299011433608545,-0.9195645319677124,0.8260510117618105,-19.31,-0.92,0.8239796306601749,-0.010988566391453958,-0.00043546803228766695,-0.0020713811016356276,0.011190569396360006,1.824045420444748,0.07692455966420082,0.34461137409234416,1.8579063708590924,0.0,0.0,0.00024831771598410736,0.00024831771598410736,0.0,0.0,0.0,0.0,-0.1865640955224009,0.0421475273864611,0.0,0.0,0.0,0.0,0.18656409552240083,-0.0421475273864611,0.19126572040719683,0.0,-10.689335282109111,2.414875436156274,0.0,0.0,0.0,0.0,10.689335282109107,-2.414875436156274,10.9587185448616
71,0.35501885414123535,1775825889.37922,0.019018162,-19.289993573093955,-0.9191948441141145,0.8277546328788978,-19.31,-0.92,0.8239808565487322,-0.020006426906043373,-0.000805155885885589,-0.0037737763301656235,0.020375151075208025,2.069742714265648,0.08867119882021268,0.39100661250120106,2.1082181233865747,0.0,0.0,0.00024206408962883485,0.00024206408962883485,0.0,0.0,0.0,0.0,-0.18654791744108146,0.04281547103421433,0.0,0.0,0.0,0.0,0.18654791744108135,-0.04281547103421435,0.19139824989138784,0.0,-10.688408346328888,2.4531457881251066,0.0,0.0,0.0,0.0,10.688408346328881,-2.453145788125108,10.96631192496679
72,0.3600637912750244,1775825889.384265,0.024063047,-19.278302978643737,-0.9187042386319145,0.8299628913849033,-19.31,-0.92,0.8239820515698478,-0.031697021356261956,-0.001295761368085513,-0.005980839815055483,0.03228235749253301,2.5234735770164995,0.10997203856017712,0.47668094110285275,2.5704547190674707,0.0,0.0,0.00023597246841217118,0.00023597246841217118,0.0,0.0,0.0,0.0,-0.18652587206708487,0.04355207034554521,0.0,0.0,0.0,0.0,0.18652587206708482,-0.043552070345545424,0.19154290324042242,0.0,-10.687145239441096,2.4953498198566093,0.0,0.0,0.0,0.0,10.687145239441092,-2.4953498198566217,10.974599951358904
73,0.36502742767333984,1775825889.3892286,0.029026774,-19.26435156762113,-0.9181048049669012,0.8325980466874657,-19.31,-0.92,0.8239832165401055,-0.04564843237886862,-0.0018951950330988732,-0.008614830147360197,0.04649286441304181,3.004355635761158,0.13346970088379262,0.5674915994122787,3.0603943638994218,0.0,0.0,0.00023004042019246883,0.00023004042019246883,0.0,0.0,0.0,0.0,-0.18651032184558342,0.044396208338496564,0.0,0.0,0.0,0.0,0.18651032184558325,-0.04439620833849656,0.19172147367934098,0.0,-10.686254277378568,2.543715364179366,0.0,0.0,0.0,0.0,10.68625427737856,-2.5437153641793655,10.984831283854737
74,0.3703629970550537,1775825889.3945642,0.034362286,-19.246742065932736,-0.9173294080780742,0.8359240785566371,-19.31,-0.92,0.8239843522168935,-0.06325793406726277,-0.002670591921925869,-0.011939726339743606,0.0644302362927499,3.5025610089681973,0.15911039853328815,0.6615871062604612,3.568045296746641,0.0,0.0,0.00022425646698581055,0.00022425646698581055,0.0,0.0,0.0,0.0,-0.18649929872173746,0.04539566524379739,0.0,0.0,0.0,0.0,0.18649929872173754,-0.045395665243797456,0.1919446661062162,0.0,-10.685622698905146,2.6009800266583096,0.0,0.0,0.0,0.0,10.68562269890515,-2.6009800266583136,10.997619267933969
75,0.3750178813934326,1775825889.399219,0.039017152,-19.22924644993981,-0.9165403954858267,0.8392286114254045,-19.31,-0.92,0.8239854593571259,-0.08075355006018725,-0.0034596045141733756,-0.015243152068278643,0.08225240662554698,3.9213898946748307,0.1818043020219595,0.7407026995738002,3.9948707112305257,0.0,0.0,0.0002186230938183534,0.0002186230938183534,0.0,0.0,0.0,0.0,-0.18649257550277398,0.04632903501323233,0.0,0.0,0.0,0.0,0.18649257550277376,-0.04632903501323238,0.19216102675338484,0.0,-10.685237486833795,2.6544581751720306,0.0,0.0,0.0,0.0,10.685237486833783,-2.6544581751720333,11.010015819869452
76,0.3800230026245117,1775825889.4042242,0.044022241,-19.208299565671688,-0.9155733374187331,0.8431850847897346,-19.31,-0.92,0.82398653868673,-0.10170043432831122,-0.004426662581266894,-0.019198546103004643,0.10359130203180537,4.355282022946306,0.2065426760664069,0.8226764686969424,4.437109188264766,0.0,0.0,0.00021313380713494228,0.00021313380713494228,0.0,0.0,0.0,0.0,-0.1864872578623455,0.04738798688215377,0.0,0.0,0.0,0.0,0.18648725786234532,-0.04738798688215384,0.19241392529066098,0.0,-10.684932808480275,2.7151316479687195,0.0,0.0,0.0,0.0,10.684932808480266,-2.715131647968724,11.024505838700406
77,0.38503432273864746,1775825889.4092355,0.049033594,-19.18519349012159,-0.9144801423783568,0.8475495201246569,-19.31,-0.92,0.8239875909335526,-0.12480650987840747,-0.005519857621643198,-0.023561929191104336,0.12713102785472494,4.77264019741872,0.23166191136385067,0.9015402963845701,4.862564817171996,0.0,0.0,0.0002077870801836046,0.0002077870801836046,0.0,0.0,0.0,0.0,-0.1864832525174005,0.0485015043628204,0.0,0.0,0.0,0.0,0.18648325251740072,-0.0485015043628203,0.19268730989591742,0.0,-10.684703319119434,2.778931500024958,0.0,0.0,0.0,0.0,10.684703319119446,-2.7789315000249526,11.04016962276545
78,0.3900318145751953,1775825889.414233,0.054031084,-19.160111034968793,-0.9132637399313815,0.8522874516779757,-19.31,-0.92,0.8239886167832581,-0.14988896503120586,-0.006736260068618494,-0.028298834894717628,0.15268563486535533,5.171827004995856,0.2570603267233241,0.976984745175888,5.269570549246485,0.0,0.0,0.00020257641512748132,0.00020257641512748132,0.0,0.0,0.0,0.0,-0.18648013306110064,0.049663098138356634,0.0,0.0,0.0,0.0,0.18648013306110078,-0.04966309813835679,0.1929799558067778,0.0,-10.684524587439077,2.845485920871851,0.0,0.0,0.0,0.0,10.684524587439084,-2.8454859208718597,11.056936998349512
79,0.3950352668762207,1775825889.4192364,0.059034665,-19.133042002319982,-0.9119178221201709,0.8574008712787412,-19.31,-0.92,0.8239896169217504,-0.17695799768001663,-0.008082177879829122,-0.03341125435699077,0.18026582166320246,5.5544760146396746,0.2828385197323146,1.049318517283973,5.659794234437047,0.0,0.0,0.00019749980434157803,0.00019749980434157803,0.0,0.0,0.0,0.0,-0.18647758517683155,0.05087688530348104,0.0,0.0,0.0,0.0,0.18647758517683144,-0.05087688530348089,0.19329342262882607,0.0,-10.684378604423769,2.9150308026606284,0.0,0.0,0.0,0.0,10.684378604423763,-2.9150308026606195,11.074897324270255
80,0.4001176357269287,1775825889.4243188,0.064116989,-19.103631012881376,-0.9104177758199815,0.8629569852765338,-19.31,-0.92,0.8239905919745913,-0.20636898711862273,-0.009582224180018528,-0.038966393301942404,0.21023405450013105,5.925707967208015,0.30937970936909526,1.1195100058546097,6.038462831748693,0.0,0.0,0.0001925392541289368,0.0001925392541289368,0.0,0.0,0.0,0.0,-0.18647536421317681,0.05216238491647742,0.0,0.0,0.0,0.0,0.18647536421317668,-0.0521623849164774,0.1936336124194651,0.0,-10.684251352579901,2.9886845050510216,0.0,0.0,0.0,0.0,10.684251352579892,-2.9886845050510202,11.094388763507313
81,0.4050900936126709,1775825889.4292912,0.069089433,-19.07307251457957,-0.9088187397733316,0.8687302122380796,-19.31,-0.92,0.8239915424906809,-0.23692748542042708,-0.011181260226668432,-0.04473866974739871,0.2413735745657962,6.271904646585646,0.335695589950824,1.1849841644975654,6.3916873277003345,0.0,0.0,0.00018768627347921711,0.00018768627347921711,0.0,0.0,0.0,0.0,-0.18647338450502599,0.05347268385777733,0.0,0.0,0.0,0.0,0.18647338450502593,-0.05347268385777726,0.19398879103626848,0.0,-10.68413792365819,3.063759104287966,0.0,0.0,0.0,0.0,10.684137923658188,-3.063759104287962,11.114738999223439
82,0.41022682189941406,1775825889.434428,0.074226062,-19.039742251354642,-0.9070285788797505,0.8750274897810283,-19.31,-0.92,0.8239924690400233,-0.27025774864535634,-0.012971421120249516,-0.051035020741004966,0.2753399386408922,6.611866632120832,0.3632423581447219,1.2492969187543637,6.7386547739821605,0.0,0.0,0.00018295522664053568,0.00018295522664053568,0.0,0.0,0.0,0.0,-0.18647140190290604,0.05488277295495082,0.0,0.0,0.0,0.0,0.18647140190290612,-0.05488277295495081,0.19438030377293844,0.0,-10.684024328924263,3.14455125829342,0.0,0.0,0.0,0.0,10.684024328924268,-3.144551258293419,11.137171026660244
83,0.41502904891967773,1775825889.4392302,0.07902846,-19.00704110681317,-0.9052260964094334,0.881206316848761,-19.31,-0.92,0.82399337225203,-0.30295889318682967,-0.014773903590566628,-0.0572129445967311,0.3086675885442475,6.9134694639862975,0.3893294282206416,1.3063701712197726,7.046576506176767,0.0,0.0,0.0001783490333022927,0.0001783490333022927,0.0,0.0,0.0,0.0,-0.18646950041118707,0.056255205391485694,0.0,0.0,0.0,0.0,0.18646950041118693,-0.05625520539148576,0.19477043594251128,0.0,-10.683915381473987,3.2231858445737243,0.0,0.0,0.0,0.0,10.68391538147398,-3.2231858445737283,11.159523953429051
84,0.42002201080322266,1775825889.4442232,0.084021318,-18.971548343243533,-0.9032184565781276,0.8879130870222527,-19.31,-0.92,0.8239942527280347,-0.33845165675646527,-0.016781543421872436,-0.06391883429421796,0.3448430969852058,7.210395419828506,0.4167920057209645,1.3625769127638796,7.349839013850164,0.0,0.0,0.00017386202151936048,0.00017386202151936048,0.0,0.0,0.0,0.0,-0.18646737853277395,0.057740067694195756,0.0,0.0,0.0,0.0,0.18646737853277395,-0.05774006769419593,0.19520245560498242,0.0,-10.683793806796276,3.3082621876770877,0.0,0.0,0.0,0.0,10.683793806796276,-3.3082621876770975,11.184276856755314
85,0.4253866672515869,1775825889.4495878,0.089385905,-18.931810417580664,-0.9009075190199552,0.8954226231584175,-19.31,-0.92,0.8239951110683744,-0.37818958241933487,-0.01909248098004479,-0.07142751209004305,0.385348897187805,7.510525115131815,0.4466865467468577,1.4194123145150086,7.656516681537842,0.0,0.0,0.00016949234391228944,0.00016949234391228944,0.0,0.0,0.0,0.0,-0.18646483133832775,0.05940476530900434,0.0,0.0,0.0,0.0,0.18646483133832792,-0.059404765309004404,0.19569890001594023,0.0,-10.68364786330491,3.4036423351711145,0.0,0.0,0.0,0.0,10.68364786330492,-3.403642335171118,11.212721026266054
86,0.43004655838012695,1775825889.4542477,0.094045845,-18.896024293294133,-0.8987691721423439,0.9021859082303623,-19.31,-0.92,0.8239959478300886,-0.41397570670586603,-0.021230827857656176,-0.0781899604002737,0.42182970936331526,7.7553399964983765,0.4729800194038124,1.4657926249465711,7.9068044480302175,0.0,0.0,0.00016523159912851698,0.00016523159912851698,0.0,0.0,0.0,0.0,-0.18646231126057153,0.060912211372542345,0.0,0.0,0.0,0.0,0.18646231126057167,-0.06091221137254221,0.1961593510769435,0.0,-10.683503473485434,3.4900126324554517,0.0,0.0,0.0,0.0,10.683503473485441,-3.490012632455444,11.239102928733862
87,0.4350311756134033,1775825889.4592323,0.099030537,-18.856521257409774,-0.896345354587254,0.9096522732392864,-19.31,-0.92,0.8239967635701103,-0.45347874259022447,-0.02365464541274609,-0.08565550966917612,0.46210321202897964,8.000860463001567,0.5014410083992586,1.5123283590281753,8.157962263877357,0.0,0.0,0.00016108168390056678,0.00016108168390056678,0.0,0.0,0.0,0.0,-0.18645921393664455,0.06259151851380035,0.0,0.0,0.0,0.0,0.18645921393664455,-0.06259151851380018,0.1966843579233864,0.0,-10.683326009896632,3.586229844155715,0.0,0.0,0.0,0.0,10.683326009896632,-3.5862298441557052,11.269183605250513
88,0.440035343170166,1775825889.4642365,0.10403471,-18.815675303587895,-0.8937684916434325,0.9173731519177172,-19.31,-0.92,0.8239975588233293,-0.49432469641210375,-0.026231508356567512,-0.09337559309438792,0.5037499368727583,8.23033489840945,0.5303616648969527,1.5558468634303126,8.392875281928996,0.0,0.0,0.00015703805876824702,0.00015703805876824702,0.0,0.0,0.0,0.0,-0.18645559777757764,0.06435089055342731,0.0,0.0,0.0,0.0,0.1864555977775777,-0.06435089055342713,0.1972478822639498,0.0,-10.68311881924405,3.6870344366196632,0.0,0.0,0.0,0.0,10.683118819244054,-3.687034436619653,11.301471171617688
89,0.44503045082092285,1775825889.4692316,0.109029867,-18.773800179708307,-0.8910510682289807,0.9252893170868112,-19.31,-0.92,0.8239983341255417,-0.5361998202916922,-0.028948931771019315,-0.10129098296126948,0.5464505020226319,8.442403179727888,0.5595783890193718,1.5960902799404488,8.6101570023001,0.0,0.0,0.00015309907338451588,0.00015309907338451588,0.0,0.0,0.0,0.0,-0.18645138567812058,0.06618507401437976,0.0,0.0,0.0,0.0,0.18645138567812047,-0.0661850740143799,0.1978499007924446,0.0,-10.682877483722272,3.792125407784937,0.0,0.0,0.0,0.0,10.682877483722265,-3.792125407784945,11.335964292489118
90,0.4500620365142822,1775825889.4742632,0.114061468,-18.730591681063203,-0.8881653930748155,0.9334583615282095,-19.31,-0.92,0.8239990899733932,-0.579408318936796,-0.03183460692518458,-0.10945927155481627,0.5905156851266153,8.638855044777396,0.5893599505664872,1.6333984713187786,8.81164866538119,0.0,0.0,0.00014925727738595082,0.00014925727738595082,0.0,0.0,0.0,0.0,-0.18644642959345373,0.06811645192747072,0.0,0.0,0.0,0.0,0.1864464295934538,-0.06811645192747084,0.19849967791241924,0.0,-10.682593520987952,3.9027852108498338,0.0,0.0,0.0,0.0,10.682593520987957,-3.902785210849841,11.37319377908783
91,0.4550325870513916,1775825889.4792337,0.119031922,-18.686979961709696,-0.8851667931582043,0.9417045029959336,-19.31,-0.92,0.8239998268643413,-0.6230200382903028,-0.034833206841795694,-0.1177046761315923,0.6349974103832052,8.816006227045657,0.6191261353354098,1.6670715326492638,8.993576066378308,0.0,0.0,0.00014551454230349791,0.00014551454230349791,0.0,0.0,0.0,0.0,-0.1864407184706877,0.07011239527832062,0.0,0.0,0.0,0.0,0.18644071847068755,-0.0701123952783207,0.19918807563589155,0.0,-10.682266297757177,4.017144341000733,0.0,0.0,0.0,0.0,10.682266297757169,-4.017144341000737,11.412636063269208
92,0.46004509925842285,1775825889.4842463,0.124044485,-18.64214957472194,-0.8819920808333357,0.9501820038454933,-19.31,-0.92,0.8240005452767839,-0.6678504252780577,-0.03800791916666435,-0.12618145856870944,0.6807279581080751,8.977634105111585,0.6494933122210471,1.6978272809352766,9.159823860957733,0.0,0.0,0.00014186703962943092,0.00014186703962943092,0.0,0.0,0.0,0.0,-0.18643401321329647,0.07221988797173505,0.0,0.0,0.0,0.0,0.18643401321329645,-0.07221988797173484,0.19993337265565628,0.0,-10.681882114808111,4.137894777688038,0.0,0.0,0.0,0.0,10.68188211480811,-4.137894777688025,11.455338436985404
93,0.4650285243988037,1775825889.4892297,0.129027907,-18.596819004365,-0.8786840655208555,0.9587550839906924,-19.31,-0.92,0.8240012456924064,-0.7131809956349997,-0.0413159344791445,-0.13475383829828602,0.7269750586594667,9.121375225315644,0.6800311864167742,1.7252161237950345,9.30796965451133,0.0,0.0,0.0001383138639777733,0.0001383138639777733,0.0,0.0,0.0,0.0,-0.1864262669972298,0.0744159109903413,0.0,0.0,0.0,0.0,0.18642626699722964,-0.0744159109903415,0.200729870310935,0.0,-10.681438289320294,4.263717628367755,0.0,0.0,0.0,0.0,10.681438289320285,-4.2637176283677665,11.500974391024942
94,0.4700286388397217,1775825889.4942298,0.13402805,-18.550658814303066,-0.8752111318507918,0.967486129097342,-19.31,-0.92,0.8240019285646865,-0.7593411856969325,-0.04478886814920824,-0.14348420053265554,0.7740754451655251,9.248615788819949,0.711019497022103,1.749502038473061,9.439449142665932,0.0,0.0,0.0001348507046868901,0.0001348507046868901,0.0,0.0,0.0,0.0,-0.18641725636475237,0.07672755363608559,0.0,0.0,0.0,0.0,0.18641725636475215,-0.07672755363608541,0.2015899574818649,0.0,-10.680922018108594,4.3961649957113575,0.0,0.0,0.0,0.0,10.680922018108582,-4.396164995711348,11.550253755932571
95,0.47503066062927246,1775825889.4992318,0.139029991,-18.503888023895986,-0.8715810476888306,0.9763338054437006,-19.31,-0.92,0.8240025943483206,-0.8061119761040132,-0.04841895231116944,-0.15233121109538006,0.8218063706464034,9.358881631349638,0.7423676934539271,1.7705947822706183,9.553783599438585,0.0,0.0,0.00013147658761903272,0.00013147658761903272,0.0,0.0,0.0,0.0,-0.18640682438683395,0.07915652493970503,0.0,0.0,0.0,0.0,0.18640682438683376,-0.07915652493970482,0.20251730696045214,0.0,-10.680324309801895,4.535334799967141,0.0,0.0,0.0,0.0,10.680324309801884,-4.53533479996713,11.603386967189278
96,0.48003220558166504,1775825889.5042334,0.144031459,-18.456612757917565,-0.8677936550380159,0.9852781271541641,-19.31,-0.92,0.8240032434713898,-0.8533872420824338,-0.052206344961984175,-0.16127488368277432,0.870060271194039,9.45211592638824,0.7740616814620184,1.7884835062820656,9.650924319713269,0.0,0.0,0.00012818736672891726,0.00012818736672891726,0.0,0.0,0.0,0.0,-0.18639477376795274,0.0817106152490218,0.0,0.0,0.0,0.0,0.18639477376795277,-0.08171061524902168,0.2035181474276433,0.0,-10.67963386019948,4.681673395186255,0.0,0.0,0.0,0.0,10.679633860199482,-4.681673395186248,11.660730901925232
97,0.48502254486083984,1775825889.5092237,0.149021844,-18.409019851261142,-0.8638557971744483,0.9942838327595884,-19.31,-0.92,0.8240038763617819,-0.9009801487388565,-0.05614420282555177,-0.17027995639780658,0.9186471920619186,9.528179835829503,0.8060330183434887,1.8031413509278125,9.73073578625962,0.0,0.0,0.000124981782913252,0.000124981782913252,0.0,0.0,0.0,0.0,-0.18638090634491158,0.08439371633917903,0.0,0.0,0.0,0.0,0.18638090634491178,-0.08439371633917903,0.20459751124461065,0.0,-10.6788393153865,4.835403763659214,0.0,0.0,0.0,0.0,10.678839315386512,-4.835403763659214,11.722573893196593
98,0.4900357723236084,1775825889.514237,0.154035171,-18.360868642219046,-0.8597383098591133,1.0033965598390313,-19.31,-0.92,0.8240044934167305,-0.9491313577809528,-0.06026169014088678,-0.17939206642230077,0.967813679959637,9.587531433334467,0.838500928639727,1.8146568664711769,9.793713408893337,0.0,0.0,0.00012185401542817842,0.00012185401542817842,0.0,0.0,0.0,0.0,-0.18636485593307228,0.0872354734308224,0.0,0.0,0.0,0.0,0.18636485593307217,-0.08723547343082227,0.20577144445149442,0.0,-10.677919694528661,4.998224451411751,0.0,0.0,0.0,0.0,10.677919694528654,-4.998224451411744,11.78983531138129
99,0.4950253963470459,1775825889.5192266,0.159024624,-18.312693733418236,-0.8554779497803088,1.0125152292582966,-19.31,-0.92,0.8240050950354931,-0.9973062665817629,-0.06452205021969126,-0.1885101342228035,1.0170147270479941,9.629621229226176,0.871162119544142,1.8229234117727764,9.83928748548803,0.0,0.0,0.00011880591285423167,0.00011880591285423167,0.0,0.0,0.0,0.0,-0.18634646910733133,0.09022131764214947,0.0,0.0,0.0,0.0,0.1863464691073311,-0.09022131764214958,0.20703838461950758,0.0,-10.676866207015062,5.16930072300436,0.0,0.0,0.0,0.0,10.676866207015049,-5.169300723004366,11.86242563590404
100,0.5000231266021729,1775825889.5242243,0.16402256,-18.26426879047789,-0.8510460999577039,1.021682774115966,-19.31,-0.92,0.8240056815977198,-1.0457312095221099,-0.06895390004229618,-0.19767709251824617,1.0664823654454325,9.654800724708062,0.9042267921139856,1.828009372076884,9.867847860085856,0.0,0.0,0.00011583218193912876,0.00011583218193912876,0.0,0.0,0.0,0.0,-0.1863252856883035,0.09338326823769255,0.0,0.0,0.0,0.0,0.1863252856883033,-0.09338326823769272,0.20841676245825505,0.0,-10.675652486509112,5.350467147157856,0.0,0.0,0.0,0.0,10.6756524865091,-5.3504671471578655,11.941400868638635
