sample_idx,t_rel_s,stamp_s,t_in_traj_s,x_des_m,y_des_m,z_des_m,x_act_m,y_act_m,z_act_m,ex_m,ey_m,ez_m,e_pos_norm_m,vx_des_mps,vy_des_mps,vz_des_mps,speed_des_mps,vx_act_mps,vy_act_mps,vz_act_mps,speed_act_mps,wx_act_radps,wy_act_radps,wz_act_radps,roll_des_rad,pitch_des_rad,yaw_des_rad,roll_act_rad,pitch_act_rad,yaw_act_rad,e_roll_rad,e_pitch_rad,e_yaw_rad,e_ang_norm_rad,roll_des_deg,pitch_des_deg,yaw_des_deg,roll_act_deg,pitch_act_deg,yaw_act_deg,e_roll_deg,e_pitch_deg,e_yaw_deg,e_ang_norm_deg
0,0.000606536865234375,1775825889.0248077,0.037156785,-19.293573762248673,0.881067494547337,0.8348537805889537,-19.31,0.92,0.8239086491634601,-0.016426237751325345,0.038932505452663024,-0.010945131425493582,0.043650397127701246,0.834814455440913,-1.926588167778814,0.5508625257122478,2.1707387372672264,0.0,0.0,0.0010354902187564546,0.0010354902187564546,0.0,0.0,0.0,0.0,-0.2565730803203949,-1.1619061600986336,0.0,0.0,0.0,0.0,0.2565730803203947,1.1619061600986331,1.1898973360841876,0.0,-14.700554639029706,-66.57231916390344,0.0,0.0,0.0,0.0,14.700554639029697,66.57231916390342,68.17609541148363
1,0.005253791809082031,1775825889.029455,0.041804092,-19.28943290815311,0.8714904431734058,0.8375880024161488,-19.31,0.92,0.8239137610789157,-0.020567091846888985,0.04850955682659419,-0.013674241337233162,0.05443498182878208,0.9244624637636532,-2.1169863436913734,0.6081579327410684,2.3887482281395047,0.0,0.0,0.0010093864841013325,0.0010093864841013325,0.0,0.0,0.0,0.0,-0.2574265323708602,-1.1590676631659134,0.0,0.0,0.0,0.0,0.25742653237086,1.1590676631659136,1.1873105185103758,0.0,-14.749453839538155,-66.40968526949774,0.0,0.0,0.0,0.0,14.749453839538143,66.40968526949776,68.02788168213394
2,0.01027059555053711,1775825889.0344718,0.046820801,-19.284505158170383,0.8601927776398914,0.8408307644265385,-19.31,0.92,0.8239187441455273,-0.025494841829615922,0.0598072223601086,-0.01691202028101113,0.06717817529774041,1.0172058713808776,-2.308715226020547,0.6668794665432355,2.6095214125444204,0.0,0.0,0.0009839536581024296,0.0009839536581024296,0.0,0.0,0.0,0.0,-0.2584229987961904,-1.155791981369447,0.0,0.0,0.0,0.0,0.2584229987961906,1.1557919813694468,1.1843300006774833,0.0,-14.806547160136065,-66.2220025275324,0.0,0.0,0.0,0.0,14.806547160136073,66.22200252753238,67.85711058954573
3,0.0160675048828125,1775825889.0402687,0.052617827,-19.27824590711454,0.845989347201419,0.8449336042334821,-19.31,0.92,0.8239236017192337,-0.031754092885460494,0.07401065279858099,-0.021010002514248338,0.0832305193321493,1.1191634401670039,-2.512418096474165,0.7306900299874381,2.8458178819489404,0.0,0.0,0.000959180171172022,0.000959180171172022,0.0,0.0,0.0,0.0,-0.2596675255313109,-1.1517303618208952,0.0,0.0,0.0,0.0,0.2596675255313108,1.1517303618208956,1.180639678375941,0.0,-14.877853289549664,-65.98928886941253,0.0,0.0,0.0,0.0,14.877853289549657,65.98928886941256,67.64567069662434
4,0.0202639102935791,1775825889.044465,0.056814174,-19.27335442958955,0.8349992224647518,0.8481279685866133,-19.31,0.92,0.8239283370022007,-0.03664557041044958,0.08500077753524826,-0.02419963158441263,0.0956747207005345,1.1894821190130858,-2.6479345775051044,0.7741753977013711,3.0042923933274324,0.0,0.0,0.0009350402031487043,0.0009350402031487043,0.0,0.0,0.0,0.0,-0.26063045272851537,-1.1485984824538817,0.0,0.0,0.0,0.0,0.2606304527285155,1.148598482453882,1.1777973963228276,0.0,-14.933024953927841,-65.80984539973856,0.0,0.0,0.0,0.0,14.933024953927848,65.80984539973858,67.48281993079517
5,0.025434017181396484,1775825889.0496352,0.061984236,-19.26693196229319,0.8207104515009609,0.8523068851110747,-19.31,0.92,0.8239329531637395,-0.04306803770681,0.09928954849903915,-0.028373931947335174,0.1118854339367295,1.2720916820670778,-2.801108721184669,0.8246265773579202,3.185033172129624,0.0,0.0,0.0009115229712444578,0.0009115229712444578,0.0,0.0,0.0,0.0,-0.26189018448348167,-1.1445060466793533,0.0,0.0,0.0,0.0,0.26189018448348156,1.1445060466793535,1.174087117557464,0.0,-15.00520226680602,-65.57536610192973,0.0,0.0,0.0,0.0,15.005202266806013,65.57536610192975,67.27023661672283
6,0.02987813949584961,1775825889.0540793,0.066428253,-19.261078400062054,0.8078238792332612,0.8561009496928981,-19.31,0.92,0.8239365623343603,-0.04892159993794465,0.11217612076673888,-0.03216438735853777,0.1265359744298528,1.3395482488337327,-2.9206076474241667,0.8652360539351809,3.3276075444942976,0.0,0.0,0.0008931261976107427,0.0008931261976107427,0.0,0.0,0.0,0.0,-0.26304028242839483,-1.1407691184042352,0.0,0.0,0.0,0.0,0.2630402824283946,1.1407691184042354,1.1707025120348833,0.0,-15.071098025076212,-65.36125588342236,0.0,0.0,0.0,0.0,15.0710980250762,65.36125588342237,67.07631300496227
7,0.036421775817871094,1775825889.060623,0.072971888,-19.25193104614669,0.7879420583248034,0.862002508999133,-19.31,0.92,0.8239418399974475,-0.0580689538533079,0.1320579416751967,-0.038060669001685477,0.1491975800271677,1.4328980210886575,-3.0760940374396215,0.9203927766506801,3.5160594604360904,0.0,0.0,0.0008662311789442066,0.0008662311789442066,0.0,0.0,0.0,0.0,-0.26485389730618253,-1.134866812622943,0.0,0.0,0.0,0.0,0.2648538973061827,1.1348668126229429,1.1653627200623984,0.0,-15.175010503235582,-65.02307867275866,0.0,0.0,0.0,0.0,15.175010503235592,65.02307867275864,66.77036546146105
8,0.04026961326599121,1775825889.0644708,0.076819932,-19.246274524660798,0.7758023106834239,0.8656353804630788,-19.31,0.92,0.8239461163765244,-0.0637254753392007,0.14419768931657617,-0.04168926408655438,0.16307024422476768,1.4844688576230778,-3.1561440511930487,0.9502481020434298,3.6149501402607442,0.0,0.0,0.0008444074586437572,0.0008444074586437572,0.0,0.0,0.0,0.0,-0.26599164781659573,-1.131154900542521,0.0,0.0,0.0,0.0,0.26599164781659557,1.131154900542521,1.162008160784402,0.0,-15.240198805621114,-64.81040177662685,0.0,0.0,0.0,0.0,15.240198805621105,64.81040177662685,66.5781633727054
9,0.0459291934967041,1775825889.0701303,0.082479485,-19.237605873639655,0.7574266851363338,0.8711784292570974,-19.31,0.92,0.8239502850052359,-0.07239412636034359,0.16257331486366622,-0.047228144251861504,0.18412357221907463,1.5558438785784998,-3.2585582096624397,0.9906862964200067,3.7443705903907354,0.0,0.0,0.0008231339232472114,0.0008231339232472114,0.0,0.0,0.0,0.0,-0.26776857691727185,-1.125339597783677,0.0,0.0,0.0,0.0,0.26776857691727196,1.125339597783677,1.156758065078532,0.0,-15.342009343583833,-64.47720947195431,0.0,0.0,0.0,0.0,15.34200934358384,64.47720947195431,66.27735504671931
10,0.05025744438171387,1775825889.0744586,0.086807547,-19.230712644216222,0.7430124401795395,0.8755651728448999,-19.31,0.92,0.8239543485884365,-0.07928735578377655,0.17698755982046055,-0.05161082425646335,0.20068572021650125,1.6068332538273997,-3.3245704914682115,1.018821727752292,3.830493410944196,0.0,0.0,0.0008023898190106931,0.0008023898190106931,0.0,0.0,0.0,0.0,-0.2692169039074314,-1.1205810893675892,0.0,0.0,0.0,0.0,0.26921690390743125,1.1205810893675894,1.152466797438328,0.0,-15.42499236747486,-64.20456702293498,0.0,0.0,0.0,0.0,15.424992367474852,64.204567022935,66.03148352217455
11,0.05526113510131836,1775825889.0794623,0.091811455,-19.222477214799156,0.726023003906663,0.8807815063285964,-19.31,0.92,0.8239583097595594,-0.08752278520084289,0.19397699609333707,-0.056823196569037004,0.2202639067369659,1.661902778652191,-3.3875956351657655,1.048337686351619,3.916214618443566,0.0,0.0,0.0007821601006224797,0.0007821601006224797,0.0,0.0,0.0,0.0,-0.2709963755856936,-1.1147092430223278,0.0,0.0,0.0,0.0,0.27099637558569345,1.114709243022328,1.1471772888529452,0.0,-15.526948584402346,-63.86813500940219,0.0,0.0,0.0,0.0,15.526948584402337,63.8681350094022,65.7284170045339
12,0.06074976921081543,1775825889.084951,0.097299961,-19.213140100773444,0.7070692516189221,0.8866629560679244,-19.31,0.92,0.823962171049496,-0.0968598992265548,0.21293074838107795,-0.06270078501842846,0.24218326144932367,1.717517939202828,-3.440328175061521,1.076996407785613,3.9932001059286746,0.0,0.0,0.0007624439532558841,0.0007624439532558841,0.0,0.0,0.0,0.0,-0.27308936350156354,-1.1077642317170977,0.0,0.0,0.0,0.0,0.27308936350156365,1.1077642317170975,1.140929179892188,0.0,-15.646867958553576,-63.47021517294186,0.0,0.0,0.0,0.0,15.646867958553582,63.470215172941856,65.37042673114463
13,0.06609249114990234,1775825889.0902936,0.102642658,-19.20377081898466,0.6883854511505668,0.8925291738938441,-19.31,0.92,0.8239651899161538,-0.1062291810153404,0.23161454884943322,-0.06856398397769037,0.26387678571031864,1.7668448107269081,-3.475183838411338,1.1011600202496223,4.05107352267817,0.0,0.0,0.0007470419386848554,0.0007470419386848554,0.0,0.0,0.0,0.0,-0.275283020986453,-1.100437294309339,0.0,0.0,0.0,0.0,0.27528302098645296,1.100437294309339,1.1343469400277355,0.0,-15.772555274135026,-63.05041258272077,0.0,0.0,0.0,0.0,15.772555274135023,63.05041258272077,64.99329216716875
14,0.07104015350341797,1775825889.0952413,0.107590457,-19.194869764940393,0.6709533693587524,0.8980685932928894,-19.31,0.92,0.8239688778651186,-0.11513023505960618,0.24904663064124766,-0.07409971542777072,0.28420056841096364,1.8082929461456845,-3.492966728268621,1.1202524504960456,4.089707262960789,0.0,0.0,0.0007282191645511362,0.0007282191645511362,0.0,0.0,0.0,0.0,-0.27746653103197433,-1.0930927886941701,0.0,0.0,0.0,0.0,0.2774665310319744,1.09309278869417,1.127758626895895,0.0,-15.897661184267815,-62.62960340836146,0.0,0.0,0.0,0.0,15.897661184267818,62.62960340836145,64.61580963060368
15,0.07793903350830078,1775825889.1021402,0.114489143,-19.182137996409743,0.6465737551942676,0.9059333773137711,-19.31,0.92,0.8239724729302159,-0.12786200359025557,0.2734262448057324,-0.08196090438355519,0.3127749880633826,1.85928966179798,-3.494492734881215,1.141599829352402,4.11967082313428,0.0,0.0,0.0007098840647389509,0.0007098840647389509,0.0,0.0,0.0,0.0,-0.2807844646994526,-1.081828675673545,0.0,0.0,0.0,0.0,0.28078446469945284,1.0818286756735453,1.1176731181907056,0.0,-16.087764780118682,-61.984217272321274,0.0,0.0,0.0,0.0,16.087764780118697,61.9842172723213,64.03795254755387
16,0.08123111724853516,1775825889.1054323,0.117781455,-19.175944174655136,0.6349566442569937,0.9097337944688267,-19.31,0.92,0.8239745863596929,-0.1340558253448627,0.2850433557430063,-0.08575920810913384,0.3264587580960758,1.8808378913702124,-3.4856681851042315,1.1496227581459904,4.124204936264561,0.0,0.0,0.0006990935573873627,0.0006990935573873627,0.0,0.0,0.0,0.0,-0.282492432269662,-1.0759791768963622,0.0,0.0,0.0,0.0,0.2824924322696618,1.0759791768963627,1.1124446788061884,0.0,-16.185624113436894,-61.64906568012177,0.0,0.0,0.0,0.0,16.185624113436884,61.6490656801218,63.73838503738105
17,0.0850520133972168,1775825889.1092532,0.121602325,-19.16867115305348,0.6215250118847109,0.9141742619728261,-19.31,0.92,0.823978037525595,-0.14132884694651793,0.29847498811528916,-0.09019622444723119,0.34233977334541427,1.90358607101837,-3.4676887145244826,1.157180096125934,4.121598079081176,0.0,0.0,0.0006814472340733639,0.0006814472340733639,0.0,0.0,0.0,0.0,-0.28458592285135065,-1.0687599806873074,0.0,0.0,0.0,0.0,0.28458592285135076,1.0687599806873074,1.1060004718823082,0.0,-16.30557228821804,-61.23543620586609,0.0,0.0,0.0,0.0,16.30557228821805,61.23543620586609,63.36915917833374
18,0.09138250350952148,1775825889.1155837,0.127932668,-19.15644473410547,0.5994731954030116,0.9215833035649637,-19.31,0.92,0.8239807356200393,-0.1535552658945285,0.32052680459698846,-0.09760256794492439,0.368568736355295,1.935932545927699,-3.4196045595531777,1.1655547137148976,4.098786156505606,0.0,0.0,0.0006676485247620896,0.0006676485247620896,0.0,0.0,0.0,0.0,-0.28834488115824314,-1.0556554488096137,0.0,0.0,0.0,0.0,0.2883448811582432,1.0556554488096133,1.094326823710169,0.0,-16.520944734568623,-60.48460183677959,0.0,0.0,0.0,0.0,16.520944734568626,60.48460183677956,62.70030840654956
19,0.09546184539794922,1775825889.119663,0.132012058,-19.14846583534159,0.5854530741230047,0.9263792996871952,-19.31,0.92,0.8239840315858589,-0.1615341646584092,0.3345469258769953,-0.10239526810133637,0.38535661781677294,1.9532468832982988,-3.376527620984138,1.16821151775261,4.071956570568156,0.0,0.0,0.0006508110761380991,0.0006508110761380991,0.0,0.0,0.0,0.0,-0.2909808066896088,-1.0463521798313624,0.0,0.0,0.0,0.0,0.2909808066896087,1.0463521798313629,1.0860583382579319,0.0,-16.671972142626654,-59.9515637886508,0.0,0.0,0.0,0.0,16.67197214262665,59.95156378865083,62.22655908717104
20,0.10046029090881348,1775825889.1246614,0.137010623,-19.138601670734325,0.5685438072911244,0.9322638451905148,-19.31,0.92,0.8239872444646379,-0.17139832926567422,0.3514561927088756,-0.10827660072587686,0.4057371870228729,1.970690151259902,-3.3108249715013978,1.1685391542199388,4.02624706384681,0.0,0.0,0.0006344151713429005,0.0006344151713429005,0.0,0.0,0.0,0.0,-0.2944675554253132,-1.033894281580718,0.0,0.0,0.0,0.0,0.29446755542531333,1.033894281580718,1.0750109425877807,0.0,-16.871748129405095,-59.237778797285465,0.0,0.0,0.0,0.0,16.871748129405102,59.237778797285465,61.59358994066029
21,0.1054694652557373,1775825889.1296706,0.142019715,-19.12863969550374,0.5519641081534956,0.9381543313178236,-19.31,0.92,0.8239903764553324,-0.18136030449625906,0.3680358918465044,-0.1141639548624912,0.42588189245854613,1.984002691820841,-3.230711282856675,1.1656330345843626,3.9664168270170643,0.0,0.0,0.0006184481387675962,0.0006184481387675962,0.0,0.0,0.0,0.0,-0.29827893879664963,-1.0200684926677306,0.0,0.0,0.0,0.0,0.2982789387966496,1.0200684926677308,1.062784105575103,0.0,-17.090124310689013,-58.445619444132525,0.0,0.0,0.0,0.0,17.09012431068901,58.44561944413254,60.89304378303951
22,0.1104590892791748,1775825889.1346602,0.147009245,-19.11866069155247,0.5358835890017246,0.9439993005719203,-19.31,0.92,0.8239934295688223,-0.1913393084475281,0.3841164109982754,-0.12000587100309801,0.44559797713924437,1.993115802850821,-3.136706367199989,1.1595193582672088,3.893060824056442,0.0,0.0,0.0006028563991963508,0.0006028563991963508,0.0,0.0,0.0,0.0,-0.3024318861883695,-1.0047413501667783,0.0,0.0,0.0,0.0,0.3024318861883697,1.0047413501667783,1.0492712835670361,0.0,-17.328070668774426,-57.56743886683237,0.0,0.0,0.0,0.0,17.328070668774437,57.56743886683237,60.11881611266578
23,0.1154632568359375,1775825889.1396644,0.15201347,-19.10861701922823,0.520262417207999,0.9498227790228645,-19.31,0.92,0.8239964056543407,-0.20138298077176842,0.399737582792001,-0.12582637336852376,0.4649489394288253,1.9980981233101334,-3.0281855974772887,1.1501608614606147,3.805939323002954,0.0,0.0,0.0005876401265287233,0.0005876401265287233,0.0,0.0,0.0,0.0,-0.3070013729055444,-0.9875393490402912,0.0,0.0,0.0,0.0,0.3070013729055443,0.9875393490402908,1.034158502778375,0.0,-17.589882972209637,-56.58183680310537,0.0,0.0,0.0,0.0,17.589882972209633,56.58183680310535,59.25291755676911
24,0.12045860290527344,1775825889.1446598,0.1570089,-19.09857651037741,0.5052458756335833,0.9555812590168867,-19.31,0.92,0.8239993066044322,-0.2114234896225895,0.4147541243664168,-0.13158195241245452,0.4837713156480237,1.9989189139373318,-2.905633194512575,1.1375957671736332,3.705739496381406,0.0,0.0,0.0005728063461574689,0.0005728063461574689,0.0,0.0,0.0,0.0,-0.31202041351000553,-0.9682061474828858,0.0,0.0,0.0,0.0,0.3120204135100053,0.9682061474828858,1.0172413098525868,0.0,-17.87745281605005,-55.47412594939029,0.0,0.0,0.0,0.0,17.877452816050038,55.47412594939029,58.28363380091287
25,0.12546896934509277,1775825889.1496701,0.162019254,-19.088512317146282,0.4908351421960504,0.9612857976959586,-19.31,0.92,0.8240021343712759,-0.22148768285371645,0.42916485780394964,-0.13728366332468267,0.5020817394066803,1.9955744239076099,-2.7684410694175985,1.1217584787845576,3.592342595148365,0.0,0.0,0.0005583617176180071,0.0005583617176180071,0.0,0.0,0.0,0.0,-0.31757504022101257,-0.9462270872284619,0.0,0.0,0.0,0.0,0.31757504022101246,0.9462270872284622,0.9980979945758018,0.0,-18.195709483361387,-54.21481855914807,0.0,0.0,0.0,0.0,18.19570948336138,54.214818559148085,57.186802629664776
26,0.13048267364501953,1775825889.1546838,0.167032803,-19.078468950231198,0.47713911878637266,0.9669064210161388,-19.31,0.92,0.8240048908020383,-0.231531049768801,0.4428608812136274,-0.14290153021410046,0.5197626712778487,1.9880498587308901,-2.6168529008087638,1.102668511890032,3.4664303241785968,0.0,0.0,0.0005442703435791601,0.0005442703435791601,0.0,0.0,0.0,0.0,-0.3237238081101364,-0.9211095954024774,0.0,0.0,0.0,0.0,0.32372380811013635,0.921109595402477,0.9763400999036368,0.0,-18.548007932613746,-52.77569228556481,0.0,0.0,0.0,0.0,18.548007932613743,52.775692285564794,55.94016709385954
27,0.13551545143127441,1775825889.1597166,0.172065747,-19.06843523889135,0.464190703858664,0.9724443238970345,-19.31,0.92,0.8240075776885244,-0.24156476110864844,0.45580929614133603,-0.1484367462085101,0.5367952271428167,1.976292627879329,-2.4502820282638047,1.0802422359781494,3.3281433048223508,0.0,0.0,0.0005305425883918154,0.0005305425883918154,0.0,0.0,0.0,0.0,-0.3305655825510802,-0.8920698573449767,0.0,0.0,0.0,0.0,0.33056558255108026,0.8920698573449766,0.9513475888185252,0.0,-18.940012732460303,-51.11183785670458,0.0,0.0,0.0,0.0,18.940012732460307,51.11183785670458,54.50820168924872
28,0.14046335220336914,1775825889.1646645,0.177013613,-19.058639036045907,0.45231336002695277,0.9777706605231986,-19.31,0.92,0.8240101968180893,-0.2513609639540917,0.46768663997304727,-0.15376046370510932,0.5527706645689686,1.9606286628287792,-2.272466512523713,1.0550087180603966,3.1813852641940263,0.0,0.0,0.000517170066296172,0.000517170066296172,0.0,0.0,0.0,0.0,-0.3380194733739168,-0.8589319667825268,0.0,0.0,0.0,0.0,0.338019473373917,0.858931966782527,0.9230499921135802,0.0,-19.36708921756014,-49.21317658550981,0.0,0.0,0.0,0.0,19.36708921756015,49.21317658550982,52.88686882769207
29,0.14564275741577148,1775825889.169844,0.182193064,-19.04847847582951,0.44086073688452593,0.9832039079620801,-19.31,0.92,0.8240127499763533,-0.26152152417049024,0.4791392631154741,-0.1591911579857268,0.5686033466698314,1.939870822827495,-2.0713937947936505,1.0252097061236924,3.017420422131674,0.0,0.0,0.0005041481325975645,0.0005041481325975645,0.0,0.0,0.0,0.0,-0.34666556182179303,-0.8181748267009249,0.0,0.0,0.0,0.0,0.34666556182179287,0.818174826700925,0.8885871137937505,0.0,-19.862473594920264,-46.87796447381053,0.0,0.0,0.0,0.0,19.862473594920253,46.877964473810536,50.91229135009292
30,0.15056324005126953,1775825889.1747644,0.187113529,-19.038935897346107,0.4309808318786105,0.9882144925765002,-19.31,0.92,0.824015238833499,-0.2710641026538916,0.4890191681213895,-0.16419925374300115,0.582732262250387,1.9160194621767888,-1.8662258461342405,0.9936942135762271,2.8533064466184785,0.0,0.0,0.0004914513113731714,0.0004914513113731714,0.0,0.0,0.0,0.0,-0.35571489961797237,-0.7722338296367739,0.0,0.0,0.0,0.0,0.3557148996179724,0.7722338296367739,0.8502224282184645,0.0,-20.380962458029558,-44.245739235411776,0.0,0.0,0.0,0.0,20.38096245802956,44.245739235411776,48.7141567842826
31,0.15547657012939453,1775825889.1796777,0.192026849,-19.029534152510614,0.4221564089038382,0.9930554057430383,-19.31,0.92,0.8240176650437567,-0.28046584748938486,0.49784359109616183,-0.16903774069928157,0.5958884883803167,1.8881859741275884,-1.6475992714018028,0.959107000450921,2.683228628039337,0.0,0.0,0.0004790846264948631,0.0004790846264948631,0.0,0.0,0.0,0.0,-0.3655308545615268,-0.7174595255166004,0.0,0.0,0.0,0.0,0.365530854561527,0.7174595255166003,0.8052086539469043,0.0,-20.943375248185802,-41.1074027835598,0.0,0.0,0.0,0.0,20.943375248185813,41.10740278355979,46.13505749856763
32,0.16054606437683105,1775825889.1847472,0.197096312,-19.01998752219414,0.4142136276098444,0.9978638445038713,-19.31,0.92,0.8240200302058588,-0.2900124778058597,0.5057863723901557,-0.17384381429801254,0.6083985236244163,1.8552607435191613,-1.4076160617642588,0.9201553294770797,2.504009032360919,0.0,0.0,0.0004670345653066638,0.0004670345653066638,0.0,0.0,0.0,0.0,-0.3762902889650139,-0.6490560689266865,0.0,0.0,0.0,0.0,0.3762902889650137,0.6490560689266864,0.7502454013054243,0.0,-21.559845429453468,-37.1881734168514,0.0,0.0,0.0,0.0,21.55984542945346,37.18817341685139,42.98589509389955
33,0.16547608375549316,1775825889.1896772,0.202026277,-19.010873873836236,0.4076911651259718,1.002342665248527,-19.31,0.92,0.824022335913442,-0.2991261261637632,0.5123088348740282,-0.17832032933508501,0.619463414172215,1.8191432684951723,-1.1602008874472802,0.8790947687892685,2.3298403256569777,0.0,0.0,0.0004552974473272969,0.0004552974473272969,0.0,0.0,0.0,0.0,-0.386900404920927,-0.5677318796478968,0.0,0.0,0.0,0.0,0.3869004049209268,0.567731879647897,0.6870308657524139,0.0,-22.1677602938717,-32.528640598853684,0.0,0.0,0.0,0.0,22.167760293871694,32.52864059885369,39.36396900283237
34,0.17047810554504395,1775825889.1946793,0.20702828,-19.001819313769207,0.4023552139759041,1.0066720678039833,-19.31,0.92,0.8240245836572447,-0.3081806862307914,0.5176447860240959,-0.1826474841467386,0.6295169285481899,1.7783679442992204,-0.8950257377328649,0.8342287791485691,2.1586109590370857,0.0,0.0,0.00044385072066173886,0.00044385072066173886,0.0,0.0,0.0,0.0,-0.3967963083677548,-0.4662720766436072,0.0,0.0,0.0,0.0,0.3967963083677546,0.46627207664360704,0.6122556327154696,0.0,-22.7347537958439,-26.71542209647914,0.0,0.0,0.0,0.0,22.73475379584389,26.71542209647913,35.07966373770826
35,0.1754770278930664,1775825889.1996782,0.212027254,-18.992984400465158,0.3983832820780126,1.0107665682812503,-19.31,0.92,0.8240267749174888,-0.31701559953484093,0.5216167179219875,-0.18673979336376156,0.6383217379893006,1.733461042989771,-0.6157768350585807,0.7861642002746254,2.000530541619245,0.0,0.0,0.0004326998517183838,0.0004326998517183838,0.0,0.0,0.0,0.0,-0.40386775026509064,-0.3413261708535347,0.0,0.0,0.0,0.0,0.4038677502650905,0.3413261708535349,0.5287841852908632,0.0,-23.139917571633227,-19.55654902726879,0.0,0.0,0.0,0.0,23.13991757163322,19.5565490272688,30.29710209043017
36,0.18050765991210938,1775825889.2047088,0.217057971,-18.98433054640244,0.3958314704933135,1.0146363297629044,-19.31,0.92,0.8240289110897395,-0.32566945359755906,0.5241685295066865,-0.19060741867316489,0.6458671909804536,1.684074317476015,-0.320388882597822,0.7345388542227413,1.865020823271806,0.0,0.0,0.0004218119686545262,0.0004218119686545262,0.0,0.0,0.0,0.0,-0.4048166279659119,-0.18799963968313235,0.0,0.0,0.0,0.0,0.404816627965912,0.18799963968313227,0.44634108795704563,0.0,-23.194284259164363,-10.771585903823674,0.0,0.0,0.0,0.0,23.19428425916437,10.771585903823668,25.57346056321617
37,0.18791484832763672,1775825889.212116,0.224464954,-18.97206656503588,0.3948657311975588,1.0198416195407658,-19.31,0.92,0.82403099348776,-0.33793343496411765,0.5251342688024412,-0.1958106260530058,0.6544515322104397,1.627717024877388,0.009743064680764593,0.6763586556637879,1.7626737280269413,0.0,0.0,0.00041119029422138274,0.00041119029422138274,0.0,0.0,0.0,0.0,-0.39381240299330283,0.00598565240351535,0.0,0.0,0.0,0.0,0.3938124029933028,-0.005985652403515562,0.39385788907428937,0.0,-22.5637886114214,0.3429526203537667,0.0,0.0,0.0,0.0,22.563788611421398,-0.34295262035377894,22.56639477188852
38,0.19060778617858887,1775825889.214809,0.227158055,-18.96775990916263,0.39537783841558866,1.0215799853339405,-19.31,0.92,0.8240322176572803,-0.34224009083736817,0.5246221615844113,-0.19754776767666016,0.6567966296471853,1.613858017495098,0.09099972529018298,0.6620437020593253,1.7467456924442417,0.0,0.0,0.0004049389029674318,0.0004049389029674318,0.0,0.0,0.0,0.0,-0.3887321952153907,0.056326805328409744,0.0,0.0,0.0,0.0,0.3887321952153906,-0.05632680532840961,0.39279183875875157,0.0,-22.272714146697503,3.227288218772875,0.0,0.0,0.0,0.0,22.272714146697496,-3.2272882187728675,22.505314588059612
39,0.19500350952148438,1775825889.2192047,0.231553633,-18.9609178400693,0.39724540720915263,1.0242309006635886,-19.31,0.92,0.8240342167488046,-0.349082159930699,0.5227545927908475,-0.20019668391478396,0.6597040479762746,1.5903744113976537,0.22658093889812891,0.6380092294109451,1.7284922525466926,0.0,0.0,0.0003947427134888729,0.0003947427134888729,0.0,0.0,0.0,0.0,-0.37805461174135163,0.1415178167868424,0.0,0.0,0.0,0.0,0.37805461174135147,-0.1415178167868425,0.403673855887421,0.0,-21.660933678236425,8.108373627791702,0.0,0.0,0.0,0.0,21.660933678236418,-8.108373627791709,23.12880824212144
40,0.2000119686126709,1775825889.2242131,0.236562137,-18.95342030497954,0.4009870486740584,1.026957473293506,-19.31,0.92,0.824036165530514,-0.35657969502045717,0.5190129513259416,-0.2029213077629921,0.66158943438449,1.5623109966157491,0.385537897692016,0.6096103485842493,1.7207788637138373,0.0,0.0,0.00038481441490232233,0.00038481441490232233,0.0,0.0,0.0,0.0,-0.36212712100904443,0.2419402295864862,0.0,0.0,0.0,0.0,0.36212712100904465,-0.2419402295864863,0.43551248714894614,0.0,-20.74835568104149,13.86215404973183,0.0,0.0,0.0,0.0,20.748355681041502,-13.862154049731837,24.953027438880117
41,0.2050316333770752,1775825889.2292328,0.241581761,-18.947650803787297,0.40527587374000296,1.0289073694198083,-19.31,0.92,0.8240380653216475,-0.36234919621270123,0.5147241262599971,-0.20486930409816084,0.6619737894446975,1.5327903520975479,0.5496250882105372,0.5800657902661088,1.7285862206181128,0.0,0.0,0.00037514243270063847,0.00037514243270063847,0.0,0.0,0.0,0.0,-0.34221277605185896,0.34429626725289375,0.0,0.0,0.0,0.0,0.3422127760518592,-0.34429626725289353,0.4854374354511566,0.0,-19.60734776322713,19.726723015699065,0.0,0.0,0.0,0.0,19.607347763227143,-19.726723015699054,27.8135162690056
42,0.21015524864196777,1775825889.2343564,0.246705354,-18.947650803787297,0.40527587374000296,1.0289073694198083,-19.31,0.92,0.8240399173629568,-0.36234919621270123,0.5147241262599971,-0.20486745205685153,0.6619732162726634,1.5012181054051208,0.7220431606975117,0.5487915583186044,1.753902591476492,0.0,0.0,0.000365715245709389,0.000365715245709389,0.0,0.0,0.0,0.0,-0.31824208329287346,0.4483092763421198,0.0,0.0,0.0,0.0,0.3182420832928736,-0.4483092763421199,0.5497810753681719,0.0,-18.233928236132456,25.68622945096759,0.0,0.0,0.0,0.0,18.233928236132467,-25.686229450967595,31.500135274760073
43,0.21501660346984863,1775825889.2392178,0.251566806,-18.947650803787297,0.40527587374000296,1.0289073694198083,-19.31,0.92,0.8240417228637684,-0.36234919621270123,0.5147241262599971,-0.2048656465560399,0.6619726575085502,1.4699160420632227,0.890246616973515,0.5180734191712201,1.7948794604093494,0.0,0.0,0.00035652311874889616,0.00035652311874889616,0.0,0.0,0.0,0.0,-0.2928057327186473,0.5445595598101427,0.0,0.0,0.0,0.0,0.29280573271864707,-0.5445595598101427,0.6182882105406186,0.0,-16.77653270201413,31.200964470623102,0.0,0.0,0.0,0.0,16.776532702014116,-31.200964470623102,35.4253049866735
44,0.22001194953918457,1775825889.244213,0.256562088,-18.947650803787297,0.40527587374000296,1.0289073694198083,-19.31,0.92,0.8240434829580104,-0.36234919621270123,0.5147241262599971,-0.20486388646179787,0.661972112801091,1.4363878373736523,1.0677534047593609,0.48545068434131294,1.8544459333336236,0.0,0.0,0.0003475527287334116,0.0003475527287334116,0.0,0.0,0.0,0.0,-0.26486261012024315,0.6392380106489958,0.0,0.0,0.0,0.0,0.26486261012024315,-0.6392380106489957,0.6919374512903557,0.0,-15.175509710708939,36.625640114526234,0.0,0.0,0.0,0.0,15.175509710708939,-36.62564011452623,39.645095645976355
45,0.22500920295715332,1775825889.2492104,0.261559319,-18.947650803787297,0.40527587374000296,1.0289073694198083,-19.31,0.92,0.8240451987800683,-0.36234919621270123,0.5147241262599971,-0.20486217063974,0.6619715817988971,0.0,0.0,0.0,0.0,0.0,0.0,0.0003388126627623138,0.0003388126627623138,0.0,0.0,0.0,0.0,-0.26486261012024315,0.6392380106489958,0.0,0.0,0.0,0.0,0.26486261012024315,-0.6392380106489957,0.6919374512903557,0.0,-15.175509710708939,36.625640114526234,0.0,0.0,0.0,0.0,15.175509710708939,-36.62564011452623,39.645095645976355
46,0.230057954788208,1775825889.254259,0.266608078,-18.947650803787297,0.40527587374000296,1.0289073694198083,-19.31,0.92,0.8240468714545303,-0.36234919621270123,0.5147241262599971,-0.20486049796527805,0.6619710641536303,0.0,0.0,0.0,0.0,0.0,0.0,0.000330294726569363,0.000330294726569363,0.0,0.0,0.0,0.0,-0.26486261012024315,0.6392380106489958,0.0,0.0,0.0,0.0,0.26486261012024315,-0.6392380106489957,0.6919374512903557,0.0,-15.175509710708939,36.625640114526234,0.0,0.0,0.0,0.0,15.175509710708939,-36.62564011452623,39.645095645976355
47,0.23500776290893555,1775825889.259209,0.271557925,-18.947650803787297,0.40527587374000296,1.0289073694198083,-19.31,0.92,0.8240485020934301,-0.36234919621270123,0.5147241262599971,-0.20485886732637826,0.6619705595208557,0.0,0.0,0.0,0.0,0.0,0.0,0.0003219954592527796,0.0003219954592527796,0.0,0.0,0.0,0.0,-0.26486261012024315,0.6392380106489958,0.0,0.0,0.0,0.0,0.26486261012024315,-0.6392380106489957,0.6919374512903557,0.0,-15.175509710708939,36.625640114526234,0.0,0.0,0.0,0.0,15.175509710708939,-36.62564011452623,39.645095645976355
48,0.2400496006011963,1775825889.2642508,0.276599926,-18.947650803787297,0.40527587374000296,1.0289073694198083,-19.31,0.92,0.8240500917595601,-0.36234919621270123,0.5147241262599971,-0.2048572776602482,0.6619700675713941,0.0,0.0,0.0,0.0,0.0,0.0,0.0003139066232332271,0.0003139066232332271,0.0,0.0,0.0,0.0,-0.26486261012024315,0.6392380106489958,0.0,0.0,0.0,0.0,0.26486261012024315,-0.6392380106489957,0.6919374512903557,0.0,-15.175509710708939,36.625640114526234,0.0,0.0,0.0,0.0,15.175509710708939,-36.62564011452623,39.645095645976355
49,0.24522972106933594,1775825889.2694309,0.281779933,-18.947650803787297,0.40527587374000296,1.0289073694198083,-19.31,0.92,0.8240516415056437,-0.36234919621270123,0.5147241262599971,-0.20485572791416462,0.6619695879791988,0.0,0.0,0.0,0.0,0.0,0.0,0.0003060244991561364,0.0003060244991561364,0.0,0.0,0.0,0.0,-0.26486261012024315,0.6392380106489958,0.0,0.0,0.0,0.0,0.26486261012024315,-0.6392380106489957,0.6919374512903557,0.0,-15.175509710708939,36.625640114526234,0.0,0.0,0.0,0.0,15.175509710708939,-36.62564011452623,39.645095645976355
50,0.2500593662261963,1775825889.2742605,0.286609621,-18.947650803787297,0.40527587374000296,1.0289073694198083,-19.31,0.92,0.8240531523222797,-0.36234919621270123,0.5147241262599971,-0.2048542170975286,0.6619691204374638,0.0,0.0,0.0,0.0,0.0,0.0,0.00029833540855931376,0.00029833540855931376,0.0,0.0,0.0,0.0,-0.26486261012024315,0.6392380106489958,0.0,0.0,0.0,0.0,0.26486261012024315,-0.6392380106489957,0.6919374512903557,0.0,-15.175509710708939,36.625640114526234,0.0,0.0,0.0,0.0,15.175509710708939,-36.62564011452623,39.645095645976355
51,0.2550227642059326,1775825889.279224,0.291573038,-18.947650803787297,0.40527587374000296,1.0289073694198083,-19.31,0.92,0.8240546251889809,-0.36234919621270123,0.5147241262599971,-0.20485274423082744,0.661968664642828,0.0,0.0,0.0,0.0,0.0,0.0,0.0002908424311672314,0.0002908424311672314,0.0,0.0,0.0,0.0,-0.26486261012024315,0.6392380106489958,0.0,0.0,0.0,0.0,0.26486261012024315,-0.6392380106489957,0.6919374512903557,0.0,-15.175509710708939,36.625640114526234,0.0,0.0,0.0,0.0,15.175509710708939,-36.62564011452623,39.645095645976355
52,0.2600119113922119,1775825889.284213,0.296562047,-18.947650803787297,0.40527587374000296,1.0289073694198083,-19.31,0.92,0.8240560610416454,-0.36234919621270123,0.5147241262599971,-0.2048513083781629,0.6619682203054412,0.0,0.0,0.0,0.0,0.0,0.0,0.0002835290849732466,0.0002835290849732466,0.0,0.0,0.0,0.0,-0.26486261012024315,0.6392380106489958,0.0,0.0,0.0,0.0,0.26486261012024315,-0.6392380106489957,0.6919374512903557,0.0,-15.175509710708939,36.625640114526234,0.0,0.0,0.0,0.0,15.175509710708939,-36.62564011452623,39.645095645976355
53,0.2650175094604492,1775825889.2892187,0.301567845,-18.947650803787297,0.40527587374000296,1.0289073694198083,-19.31,0.92,0.8240574607931592,-0.36234919621270123,0.5147241262599971,-0.2048499086266491,0.6619677871425879,0.0,0.0,0.0,0.0,0.0,0.0,0.00027640130938302203,0.00027640130938302203,0.0,0.0,0.0,0.0,-0.26486261012024315,0.6392380106489958,0.0,0.0,0.0,0.0,0.26486261012024315,-0.6392380106489957,0.6919374512903557,0.0,-15.175509710708939,36.625640114526234,0.0,0.0,0.0,0.0,15.175509710708939,-36.62564011452623,39.645095645976355
54,0.2700209617614746,1775825889.294222,0.306571145,-18.947650803787297,0.40527587374000296,1.0289073694198083,-19.31,0.92,0.8240588253440845,-0.36234919621270123,0.5147241262599971,-0.20484854407572384,0.661967364875378,0.0,0.0,0.0,0.0,0.0,0.0,0.0002694493041013175,0.0002694493041013175,0.0,0.0,0.0,0.0,-0.26486261012024315,0.6392380106489958,0.0,0.0,0.0,0.0,0.26486261012024315,-0.6392380106489957,0.6919374512903557,0.0,-15.175509710708939,36.625640114526234,0.0,0.0,0.0,0.0,15.175509710708939,-36.62564011452623,39.645095645976355
55,0.2754366397857666,1775825889.2996378,0.311986799,-18.947650803787297,0.40527587374000296,1.0289073694198083,-19.31,0.92,0.8240601555860685,-0.36234919621270123,0.5147241262599971,-0.20484721383373983,0.6619669532276924,0.0,0.0,0.0,0.0,0.0,0.0,0.0002626758863146135,0.0002626758863146135,0.0,0.0,0.0,0.0,-0.26486261012024315,0.6392380106489958,0.0,0.0,0.0,0.0,0.26486261012024315,-0.6392380106489957,0.6919374512903557,0.0,-15.175509710708939,36.625640114526234,0.0,0.0,0.0,0.0,15.175509710708939,-36.62564011452623,39.645095645976355
56,0.28002262115478516,1775825889.3042238,0.316572861,-18.947650803787297,0.40527587374000296,1.0289073694198083,-19.31,0.92,0.8240614523680677,-0.36234919621270123,0.5147241262599971,-0.2048459170517406,0.6619665519366342,0.0,0.0,0.0,0.0,0.0,0.0,0.0002560630187675315,0.0002560630187675315,0.0,0.0,0.0,0.0,-0.26486261012024315,0.6392380106489958,0.0,0.0,0.0,0.0,0.26486261012024315,-0.6392380106489957,0.6919374512903557,0.0,-15.175509710708939,36.625640114526234,0.0,0.0,0.0,0.0,15.175509710708939,-36.62564011452623,39.645095645976355
57,0.2850186824798584,1775825889.3092198,0.321568828,-18.947650803787297,0.40527587374000296,1.0289073694198083,-19.31,0.92,0.8240627164932232,-0.36234919621270123,0.5147241262599971,-0.20484465292658516,0.6619661607534943,0.0,0.0,0.0,0.0,0.0,0.0,0.00024961420630412596,0.00024961420630412596,0.0,0.0,0.0,0.0,-0.26486261012024315,0.6392380106489958,0.0,0.0,0.0,0.0,0.26486261012024315,-0.6392380106489957,0.6919374512903557,0.0,-15.175509710708939,36.625640114526234,0.0,0.0,0.0,0.0,15.175509710708939,-36.62564011452623,39.645095645976355
58,0.29003334045410156,1775825889.3142345,0.326583602,-18.947650803787297,0.40527587374000296,1.0289073694198083,-19.31,0.92,0.8240639487849261,-0.36234919621270123,0.5147241262599971,-0.20484342063488226,0.6619657794233078,0.0,0.0,0.0,0.0,0.0,0.0,0.00024333041387270378,0.00024333041387270378,0.0,0.0,0.0,0.0,-0.26486261012024315,0.6392380106489958,0.0,0.0,0.0,0.0,0.26486261012024315,-0.6392380106489957,0.6919374512903557,0.0,-15.175509710708939,36.625640114526234,0.0,0.0,0.0,0.0,15.175509710708939,-36.62564011452623,39.645095645976355
59,0.2950131893157959,1775825889.3192143,0.331563503,-18.947650803787297,0.40527587374000296,1.0289073694198083,-19.31,0.92,0.8240651500692554,-0.36234919621270123,0.5147241262599971,-0.2048422193505529,0.6619654076902871,0.0,0.0,0.0,0.0,0.0,0.0,0.00023720902986232355,0.00023720902986232355,0.0,0.0,0.0,0.0,-0.26486261012024315,0.6392380106489958,0.0,0.0,0.0,0.0,0.26486261012024315,-0.6392380106489957,0.6919374512903557,0.0,-15.175509710708939,36.625640114526234,0.0,0.0,0.0,0.0,15.175509710708939,-36.62564011452623,39.645095645976355
60,0.3000161647796631,1775825889.3242173,0.336566462,-18.947650803787297,0.40527587374000296,1.0289073694198083,-19.31,0.92,0.824066321124815,-0.36234919621270123,0.5147241262599971,-0.20484104829499328,0.6619650453133457,0.0,0.0,0.0,0.0,0.0,0.0,0.00023123906411129697,0.00023123906411129697,0.0,0.0,0.0,0.0,-0.26486261012024315,0.6392380106489958,0.0,0.0,0.0,0.0,0.26486261012024315,-0.6392380106489957,0.6919374512903557,0.0,-15.175509710708939,36.625640114526234,0.0,0.0,0.0,0.0,15.175509710708939,-36.62564011452623,39.645095645976355
61,0.3056018352508545,1775825889.329803,0.342152027,-18.947650803787297,0.40527587374000296,1.0289073694198083,-19.31,0.92,0.8240674627133165,-0.36234919621270123,0.5147241262599971,-0.20483990670649177,0.6619646920566324,0.0,0.0,0.0,0.0,0.0,0.0,0.00022542076713938012,0.00022542076713938012,0.0,0.0,0.0,0.0,-0.26486261012024315,0.6392380106489958,0.0,0.0,0.0,0.0,0.26486261012024315,-0.6392380106489957,0.6919374512903557,0.0,-15.175509710708939,36.625640114526234,0.0,0.0,0.0,0.0,15.175509710708939,-36.62564011452623,39.645095645976355
62,0.31104254722595215,1775825889.3352437,0.34759284,-18.947650803787297,0.40527587374000296,1.0289073694198083,-19.31,0.92,0.8240685755695287,-0.36234919621270123,0.5147241262599971,-0.2048387938502796,0.6619643476926422,0.0,0.0,0.0,0.0,0.0,0.0,0.00021974643146181186,0.00021974643146181186,0.0,0.0,0.0,0.0,-0.26486261012024315,0.6392380106489958,0.0,0.0,0.0,0.0,0.26486261012024315,-0.6392380106489957,0.6919374512903557,0.0,-15.175509710708939,36.625640114526234,0.0,0.0,0.0,0.0,15.175509710708939,-36.62564011452623,39.645095645976355
63,0.3150169849395752,1775825889.3392181,0.351567148,-18.947650803787297,0.40527587374000296,1.0289073694198083,-19.31,0.92,0.8240696604225234,-0.36234919621270123,0.5147241262599971,-0.20483770899728493,0.6619640119956405,0.0,0.0,0.0,0.0,0.0,0.0,0.00021421795440698183,0.00021421795440698183,0.0,0.0,0.0,0.0,-0.26486261012024315,0.6392380106489958,0.0,0.0,0.0,0.0,0.26486261012024315,-0.6392380106489957,0.6919374512903557,0.0,-15.175509710708939,36.625640114526234,0.0,0.0,0.0,0.0,15.175509710708939,-36.62564011452623,39.645095645976355
64,0.32030677795410156,1775825889.344508,0.356856897,-18.947650803787297,0.40527587374000296,1.0289073694198083,-19.31,0.92,0.8240707179645452,-0.36234919621270123,0.5147241262599971,-0.20483665145526309,0.6619636847512959,0.0,0.0,0.0,0.0,0.0,0.0,0.00020881940002144322,0.00020881940002144322,0.0,0.0,0.0,0.0,-0.26486261012024315,0.6392380106489958,0.0,0.0,0.0,0.0,0.26486261012024315,-0.6392380106489957,0.6919374512903557,0.0,-15.175509710708939,36.625640114526234,0.0,0.0,0.0,0.0,15.175509710708939,-36.62564011452623,39.645095645976355
65,0.3250129222869873,1775825889.349214,0.361563178,-18.947650803787297,0.40527587374000296,1.0289073694198083,-19.31,0.92,0.8240717488421928,-0.36234919621270123,0.5147241262599971,-0.2048356205776155,0.6619633657594088,0.0,0.0,0.0,0.0,0.0,0.0,0.00020355398038545065,0.00020355398038545065,0.0,0.0,0.0,0.0,-0.26486261012024315,0.6392380106489958,0.0,0.0,0.0,0.0,0.26486261012024315,-0.6392380106489957,0.6919374512903557,0.0,-15.175509710708939,36.625640114526234,0.0,0.0,0.0,0.0,15.175509710708939,-36.62564011452623,39.645095645976355
66,0.33048272132873535,1775825889.3546839,0.367032924,-18.947650803787297,0.40527587374000296,1.0289073694198083,-19.31,0.92,0.8240727537210106,-0.36234919621270123,0.5147241262599971,-0.20483461569879768,0.661963054813924,0.0,0.0,0.0,0.0,0.0,0.0,0.00019841999995934726,0.00019841999995934726,0.0,0.0,0.0,0.0,-0.26486261012024315,0.6392380106489958,0.0,0.0,0.0,0.0,0.26486261012024315,-0.6392380106489957,0.6919374512903557,0.0,-15.175509710708939,36.625640114526234,0.0,0.0,0.0,0.0,15.175509710708939,-36.62564011452623,39.645095645976355
67,0.33545970916748047,1775825889.3596609,0.372009857,-18.947650803787297,0.40527587374000296,1.0289073694198083,-19.31,0.92,0.8240737332558785,-0.36234919621270123,0.5147241262599971,-0.2048336361639298,0.6619627517120923,0.0,0.0,0.0,0.0,0.0,0.0,0.0001934146250398599,0.0001934146250398599,0.0,0.0,0.0,0.0,-0.26486261012024315,0.6392380106489958,0.0,0.0,0.0,0.0,0.26486261012024315,-0.6392380106489957,0.6919374512903557,0.0,-15.175509710708939,36.625640114526234,0.0,0.0,0.0,0.0,15.175509710708939,-36.62564011452623,39.645095645976355
68,0.3400242328643799,1775825889.3642254,0.376574569,-18.947650803787297,0.40527587374000296,1.0289073694198083,-19.31,0.92,0.8240746880732213,-0.36234919621270123,0.5147241262599971,-0.20483268134658705,0.661962456259976,0.0,0.0,0.0,0.0,0.0,0.0,0.0001885338904051854,0.0001885338904051854,0.0,0.0,0.0,0.0,-0.26486261012024315,0.6392380106489958,0.0,0.0,0.0,0.0,0.26486261012024315,-0.6392380106489957,0.6919374512903557,0.0,-15.175509710708939,36.625640114526234,0.0,0.0,0.0,0.0,15.175509710708939,-36.62564011452623,39.645095645976355
69,0.34500932693481445,1775825889.3692105,0.381559524,-18.947650803787297,0.40527587374000296,1.0289073694198083,-19.31,0.92,0.8240756188083679,-0.36234919621270123,0.5147241262599971,-0.20483175061144043,0.6619621682608874,0.0,0.0,0.0,0.0,0.0,0.0,0.00018378038007932894,0.00018378038007932894,0.0,0.0,0.0,0.0,-0.26486261012024315,0.6392380106489958,0.0,0.0,0.0,0.0,0.26486261012024315,-0.6392380106489957,0.6919374512903557,0.0,-15.175509710708939,36.625640114526234,0.0,0.0,0.0,0.0,15.175509710708939,-36.62564011452623,39.645095645976355
70,0.3500196933746338,1775825889.3742208,0.014019129,-19.306014836748837,0.9176527807107988,0.826144105983174,-19.31,0.92,0.8240765260809223,-0.003985163251162049,0.00234721928920123,-0.002067579902251704,0.005066147568143467,0.6627817887527432,-0.38587990849088677,0.34443638225686357,0.8407255347028644,0.0,0.0,0.00017914931455998242,0.00017914931455998242,0.0,0.0,0.0,0.0,-0.4221136052579907,-0.5272378457565824,0.0,0.0,0.0,0.0,0.4221136052579908,0.5272378457565825,0.6753959148099289,0.0,-24.1853280563341,-30.208503361421652,0.0,0.0,0.0,0.0,24.185328056334107,30.20850336142166,38.69733541898622
71,0.35501813888549805,1775825889.3792193,0.019017369,-19.302738407744254,0.9157349318990622,0.8278478679506986,-19.31,0.92,0.824077410502374,-0.007261592255744631,0.004265068100937852,-0.0037704574483246045,0.009227018877403173,0.7524145235209782,-0.4367252929555254,0.39085084187712515,0.9537405188563856,0.0,0.0,0.00017463824838482973,0.00017463824838482973,0.0,0.0,0.0,0.0,-0.42224396480465737,-0.5259068167138129,0.0,0.0,0.0,0.0,0.4222439648046574,0.525906816713813,0.6744389858838329,0.0,-24.19279710817734,-30.13224101486162,0.0,0.0,0.0,0.0,24.192797108177345,30.132241014861627,38.64250743022693
72,0.360034704208374,1775825889.3842359,0.02403401,-19.298517089514775,0.913274876068298,0.8300415571675634,-19.31,0.92,0.8240782726551837,-0.011482910485224096,0.006725123931701993,-0.005963284512379707,0.014582362198354834,0.9167237098365534,-0.5303087321195056,0.47597332544385146,1.1611030609178365,0.0,0.0,0.0001702423392697121,0.0001702423392697121,0.0,0.0,0.0,0.0,-0.42237953307870607,-0.5244476211797455,0.0,0.0,0.0,0.0,0.4223795330787059,0.5244476211797453,0.6733867962210718,0.0,-24.200564598116205,-30.048635269275223,0.0,0.0,0.0,0.0,24.200564598116195,30.04863526927521,38.58222140330343
73,0.3650050163269043,1775825889.3892062,0.029004246,-19.293442749744358,0.9103311742482201,0.8326769311217859,-19.31,0.92,0.8240791131145073,-0.01655725025564081,0.009668825751779964,-0.008597818007278546,0.021013119757248906,1.0924101322476787,-0.6294853819095475,0.5668996450949232,1.3823845162196913,0.0,0.0,0.00016595921284672386,0.00016595921284672386,0.0,0.0,0.0,0.0,-0.42255081899141794,-0.5227622148219347,0.0,0.0,0.0,0.0,0.422550818991418,0.5227622148219346,0.6721826596066375,0.0,-24.210378558004642,-29.95206859820815,0.0,0.0,0.0,0.0,24.210378558004646,29.952068598208143,38.51322945733917
74,0.3700084686279297,1775825889.3942096,0.034007795,-19.287467241613037,0.9068810540906955,0.8357784769670866,-19.31,0.92,0.8240799324162152,-0.022532758386962115,0.013118945909304514,-0.011698544550871381,0.028577751606891535,1.263327526124858,-0.7248359552187362,0.6552423091941152,1.5970992718051837,0.0,0.0,0.00016177897707037628,0.00016177897707037628,0.0,0.0,0.0,0.0,-0.42275037517994146,-0.5208954284718299,0.0,0.0,0.0,0.0,0.4227503751799415,0.5208954284718299,0.670857605694109,0.0,-24.221812285382757,-29.84510961909451,0.0,0.0,0.0,0.0,24.221812285382757,29.84510961909451,38.43730946052399
75,0.37500643730163574,1775825889.3992076,0.03900587,-19.280659371466843,0.9029696456319593,0.8393099352938823,-19.31,0.92,0.8240807310854592,-0.029340628533155666,0.01703035436804079,-0.015229204208423108,0.037186477561655745,1.428101291506678,-0.8155837968655681,0.7402898257208439,1.8035185761667372,0.0,0.0,0.00015770597540526246,0.00015770597540526246,0.0,0.0,0.0,0.0,-0.4229691543379812,-0.5188958256253094,0.0,0.0,0.0,0.0,0.4229691543379812,0.5188958256253096,0.6694443840773919,0.0,-24.234347407783858,-29.730540815286542,0.0,0.0,0.0,0.0,24.234347407783858,29.73054081528655,38.35633782636945
76,0.38001585006713867,1775825889.404217,0.044015258,-19.27302469282477,0.8986055689308701,0.8432678771113896,-19.31,0.92,0.8240815096502928,-0.03697530717522923,0.02139443106912997,-0.01918636746109681,0.04682960300735579,1.5872744086673938,-0.9020258135830903,0.8223222350097757,2.0023247676069267,0.0,0.0,0.00015373764787515604,0.00015373764787515604,0.0,0.0,0.0,0.0,-0.42320383911247356,-0.5167738867253796,0.0,0.0,0.0,0.0,0.4232038391124737,0.5167738867253795,0.6679496533727612,0.0,-24.24779385487825,-29.60896267193593,0.0,0.0,0.0,0.0,24.24779385487826,29.608962671935924,38.270696065485495
77,0.3850219249725342,1775825889.409223,0.049021291,-19.264613525658614,0.8938231239753242,0.8476256560605886,-19.31,0.92,0.8240822686333165,-0.04538647434138454,0.026176876024675888,-0.023543387427272133,0.05744085639249335,1.7403665656044789,-0.9838981427376049,0.9010916931149555,2.192919874814676,0.0,0.0,0.00014987173862601995,0.00014987173862601995,0.0,0.0,0.0,0.0,-0.42345149312635005,-0.5145439297347556,0.0,0.0,0.0,0.0,0.42345149312635,0.5145439297347556,0.6663832400787255,0.0,-24.261983384652847,-29.48119554787748,0.0,0.0,0.0,0.0,24.261983384652844,29.48119554787748,38.18094719476406
78,0.3900306224822998,1775825889.4142318,0.054029959,-19.255445907511987,0.8886392846606552,0.8523723265177592,-19.31,0.92,0.8240830085312945,-0.05455409248801146,0.031360715339344813,-0.028289317986464724,0.06899223859192599,1.8875622346797623,-1.0612997226100482,0.9766931442619223,2.375537368481006,0.0,0.0,0.000146104078968881,0.000146104078968881,0.0,0.0,0.0,0.0,-0.42371108987486483,-0.5122067167107254,0.0,0.0,0.0,0.0,0.42371108987486483,0.5122067167107254,0.6647456719125947,0.0,-24.276857182718064,-29.34728310577754,0.0,0.0,0.0,0.0,24.276857182718064,29.34728310577754,38.08712145017979
79,0.39548587799072266,1775825889.419687,0.05948514,-19.24464028957877,0.8825658842489774,0.857963265869707,-19.31,0.92,0.824083729835613,-0.06535971042123023,0.03743411575102262,-0.03387953603409399,0.08258951344022741,2.041078234398253,-1.1404647702219886,1.0553819581932635,2.565246835829182,0.0,0.0,0.000142432910291542,0.000142432910291542,0.0,0.0,0.0,0.0,-0.42400639203530227,-0.5095408263772652,0.0,0.0,0.0,0.0,0.4240063920353023,0.5095408263772652,0.6628825493494461,0.0,-24.293776750192222,-29.194538841025548,0.0,0.0,0.0,0.0,24.293776750192226,29.194538841025548,37.980372390595775
80,0.4000883102416992,1775825889.4242895,0.064087668,-19.234885740255688,0.8771160592842656,0.863006959803598,-19.31,0.92,0.8240844330020675,-0.07511425974431063,0.042883940715734425,-0.03892252680153052,0.09484802307303115,2.1650834603137876,-1.2030905609555107,1.118809705797352,2.7178573262353063,0.0,0.0,0.00013884680755402444,0.00013884680755402444,0.0,0.0,0.0,0.0,-0.424265349138856,-0.5071925292481249,0.0,0.0,0.0,0.0,0.42426534913885616,0.5071925292481247,0.6612453010835128,0.0,-24.308613899300784,-29.059991326483118,0.0,0.0,0.0,0.0,24.308613899300795,29.05999132648311,37.88656497494268
81,0.4057190418243408,1775825889.4299202,0.069718493,-19.222193730175746,0.8700703166424018,0.8695648155843743,-19.31,0.92,0.824085118431037,-0.08780626982425233,0.04992968335759829,-0.04547969715333722,0.11077597733172433,2.3099277127985647,-1.2745228797171713,1.1927215706876295,2.895299527589663,0.0,0.0,0.0001353392934534202,0.0001353392934534202,0.0,0.0,0.0,0.0,-0.42459416027369445,-0.5041925133200562,0.0,0.0,0.0,0.0,0.4245941602736947,0.5041925133200564,0.6591587755818162,0.0,-24.327453389583933,-28.88810307533276,0.0,0.0,0.0,0.0,24.327453389583948,28.888103075332776,37.767015869849054
82,0.41002774238586426,1775825889.434229,0.074027119,-19.21194329713706,0.864416527472117,0.8748573544270359,-19.31,0.92,0.8240857865452658,-0.09805670286293733,0.05558347252788309,-0.050771567881770174,0.12362197013387836,2.415657399676529,-1.3253280735647353,1.246537714347398,3.0241943470090042,0.0,0.0,0.0001319207176506763,0.0001319207176506763,0.0,0.0,0.0,0.0,-0.42485465452116195,-0.5017990375000699,0.0,0.0,0.0,0.0,0.424854654521162,0.5017990375000698,0.6574981000005189,0.0,-24.342378610551258,-28.750967012480935,0.0,0.0,0.0,0.0,24.34237861055126,28.750967012480928,37.67186616790028
83,0.41501593589782715,1775825889.439217,0.079015359,-19.199520185869055,0.8576074674406375,0.8812672579409474,-19.31,0.92,0.8240864377854761,-0.11047981413094377,0.0623925325593625,-0.057180820155471324,0.13916990925926245,2.5325381692497646,-1.3799737308235025,1.305875190368749,3.1659733241596495,0.0,0.0,0.00012858959413350118,0.00012858959413350118,0.0,0.0,0.0,0.0,-0.42516593568973793,-0.4989173100474916,0.0,0.0,0.0,0.0,0.42516593568973793,0.49891731004749174,0.6555032838483384,0.0,-24.360213707752564,-28.58585619174121,0.0,0.0,0.0,0.0,24.360213707752564,28.585856191741218,37.557571621475816
84,0.42005443572998047,1775825889.4442556,0.084053778,-19.18639536321664,0.850464613903421,0.8880339963841032,-19.31,0.92,0.8240870725846097,-0.12360463678335876,0.06953538609657905,-0.06394692379949352,0.1555714794471165,2.64457494353838,-1.4306230163366265,1.3625771819709056,3.301071859819308,0.0,0.0,0.000125344600052039,0.000125344600052039,0.0,0.0,0.0,0.0,-0.42549106011259974,-0.4958802529788368,0.0,0.0,0.0,0.0,0.42549106011259985,0.49588025297883664,0.6534063571240328,0.0,-24.37884196499917,-28.411845639566916,0.0,0.0,0.0,0.0,24.37884196499918,28.41184563956691,37.437426570224915
85,0.42501282691955566,1775825889.449214,0.08901208,-19.172942867314113,0.843197320299465,0.8949641408098794,-19.31,0.92,0.8240876913736234,-0.13705713268588582,0.076802679700535,-0.07087644943625604,0.17235654995952326,2.748923853548479,-1.476006485157849,1.4152060522741507,3.42607438145018,0.0,0.0,0.0001221844720945506,0.0001221844720945506,0.0,0.0,0.0,0.0,-0.4258217324046131,-0.4927608840489983,0.0,0.0,0.0,0.0,0.42582173240461296,0.4927608840489981,0.6512583486119897,0.0,-24.397788091733453,-28.233118965142932,0.0,0.0,0.0,0.0,24.397788091733446,28.233118965142918,37.31435474812667
86,0.43001747131347656,1775825889.4542186,0.094016899,-19.1588542903159,0.8356448399542226,0.9022159757083359,-19.31,0.92,0.8240882945598295,-0.1511457096840978,0.08435516004577748,-0.07812768114850643,0.18990722246376254,2.84831001117789,-1.5173285804123358,1.4651381830179913,3.544260971775296,0.0,0.0,0.0001191035614970306,0.0001191035614970306,0.0,0.0,0.0,0.0,-0.42616654426222306,-0.48947337083326076,0.0,0.0,0.0,0.0,0.4261665442622231,0.4894733708332608,0.6490008506953441,0.0,-24.41754435590057,-28.044758332787687,0.0,0.0,0.0,0.0,24.417544355900574,28.04475833278769,37.1850096452433
87,0.4350130558013916,1775825889.4592142,0.099012342,-19.14431097141551,0.8279115149360353,0.909695435870135,-19.31,0.92,0.8240888825424596,-0.16568902858448809,0.09208848506396472,-0.08560655332767542,0.207994291381498,2.9415572859964096,-1.5540778283263303,1.5117803922349125,3.6542300307506634,0.0,0.0,0.00011610206620804872,0.00011610206620804872,0.0,0.0,0.0,0.0,-0.4265220593787726,-0.48604457067455753,0.0,0.0,0.0,0.0,0.4265220593787724,0.48604457067455753,0.6466532237752504,0.0,-24.43791387163196,-27.848302554900208,0.0,0.0,0.0,0.0,24.43791387163195,27.848302554900208,37.05050053085063
88,0.4400289058685303,1775825889.46423,0.104028267,-19.12925432928396,0.8199730906180713,0.9174319490490042,-19.31,0.92,0.8240894557078486,-0.1807456707160391,0.10002690938192871,-0.09334249334115552,0.22668745255579337,3.029203149215309,-1.586458873561999,1.5554007919902966,3.756620169839319,0.0,0.0,0.00011317705741146683,0.00011317705741146683,0.0,0.0,0.0,0.0,-0.4268907635997613,-0.482444235083534,0.0,0.0,0.0,0.0,0.4268907635997614,0.48244423508353407,0.644195749762542,0.0,-24.459039067383273,-27.64201852070382,0.0,0.0,0.0,0.0,24.45903906738328,27.64201852070382,36.90969764165936
89,0.445019006729126,1775825889.4692202,0.109018241,-19.113854236542902,0.8119258044314165,0.9253375527532975,-19.31,0.92,0.8240900144396845,-0.19614576345709622,0.10807419556858355,-0.101247538313613,0.24577277368441386,3.1104460290162446,-1.6141793438797982,1.5956008325949647,3.850505352626962,0.0,0.0,0.00011032767093769795,0.00011032767093769795,0.0,0.0,0.0,0.0,-0.4272695675965312,-0.4786958136923469,0.0,0.0,0.0,0.0,0.427269567596531,0.4786958136923469,0.6416455138475642,0.0,-24.480742937660875,-27.427249795152242,0.0,0.0,0.0,0.0,24.480742937660864,27.427249795152242,36.76357988696845
90,0.4500260353088379,1775825889.4742272,0.114025315,-19.098008799230314,0.8037231691882561,0.933463868233428,-19.31,0.92,0.8240905591058048,-0.2119912007696847,0.11627683081174389,-0.10937330912762322,0.2653734940360893,3.1860026822068117,-1.63749035527036,1.6327358421055174,3.9367263157004526,0.0,0.0,0.00010755109367968102,0.00010755109367968102,0.0,0.0,0.0,0.0,-0.42766206770222054,-0.47475621950743685,0.0,0.0,0.0,0.0,0.4276620677022205,0.47475621950743685,0.6389744221111924,0.0,-24.503231537175314,-27.201527675362616,0.0,0.0,0.0,0.0,24.50323153717531,27.201527675362616,36.61053760378207
91,0.4550144672393799,1775825889.4792156,0.119013823,-19.08186073825646,0.7954460832003294,0.9417369888962821,-19.31,0.92,0.8240910900703274,-0.22813926174353938,0.12455391679967065,-0.11764589882595466,0.2853099340184166,3.255337527303847,-1.6562278374892156,1.6665427089691984,4.014682760463811,0.0,0.0,0.00010484602962830605,0.00010484602962830605,0.0,0.0,0.0,0.0,-0.42806583055176706,-0.4706413515692718,0.0,0.0,0.0,0.0,0.42806583055176706,0.470641351569272,0.6361946534614428,0.0,-24.526365444378506,-26.96576310925206,0.0,0.0,0.0,0.0,24.526365444378506,26.96576310925207,36.45126859212864
92,0.4600238800048828,1775825889.484225,0.124023343,-19.06531152239138,0.7870513433873945,0.9502066537536109,-19.31,0.92,0.8240916076802981,-0.24468847760861934,0.13294865661260558,-0.1261150460733128,0.3057005090208293,3.318996282092978,-1.6705371478352296,1.6972873029143574,4.084998760278731,0.0,0.0,0.00010220946372265122,0.00010220946372265122,0.0,0.0,0.0,0.0,-0.42848444202468927,-0.46630487356842554,0.0,0.0,0.0,0.0,0.4284844420246894,0.46630487356842565,0.6332765210955439,0.0,-24.550350115032703,-26.71730122185224,0.0,0.0,0.0,0.0,24.550350115032707,26.717301221852246,36.28407192350211
93,0.4650130271911621,1775825889.4892142,0.1290124,-19.04852780659739,0.7786308635161898,0.9587868219775311,-19.31,0.92,0.8240921122764918,-0.2614721934026072,0.14136913648381022,-0.13469470970103925,0.3263366444247348,3.3764509202667274,-1.6802990757302185,1.7247145557253432,4.147103338428008,0.0,0.0,9.964053671457567e-05,9.964053671457567e-05,0.0,0.0,0.0,0.0,-0.4289148050705217,-0.4617678067417414,0.0,0.0,0.0,0.0,0.4289148050705216,0.46176780674174145,0.6302360013136046,0.0,-24.575008101217296,-26.457346441314424,0.0,0.0,0.0,0.0,24.57500810121729,26.457346441314428,36.10986297247095
94,0.47002410888671875,1775825889.4942253,0.134023509,-19.03139629727312,0.7701354205048562,0.9675346379251616,-19.31,0.92,0.8240926041944733,-0.27860370272687973,0.14986457949514387,-0.1434420337306883,0.3473543326362575,3.428188208172856,-1.6855946626542886,1.7490566668157073,4.20153578839411,0.0,0.0,9.713691178149724e-05,9.713691178149724e-05,0.0,0.0,0.0,0.0,-0.42936094843239053,-0.45697490590021755,0.0,0.0,0.0,0.0,0.42936094843239037,0.4569749059002177,0.6270381875621888,0.0,-24.600570232910158,-26.18273345147041,0.0,0.0,0.0,0.0,24.600570232910147,26.182733451470416,35.92664174084592
95,0.4750044345855713,1775825889.4992056,0.139003764,-19.014128192299033,0.7616771660426421,0.9763415047228063,-19.31,0.92,0.8240930837506694,-0.29587180770096566,0.1583228339573579,-0.15224842097213698,0.36849128623759253,3.473677628906025,-1.686379864817117,1.770065075246974,4.247757489385648,0.0,0.0,9.469570189701191e-05,9.469570189701191e-05,0.0,0.0,0.0,0.0,-0.4298184520319042,-0.4519593533208618,0.0,0.0,0.0,0.0,0.4298184520319044,0.4519593533208619,0.6237075907517193,0.0,-24.626783258274333,-25.89536345674737,0.0,0.0,0.0,0.0,24.626783258274344,25.895363456747376,35.73581260034629
96,0.48000669479370117,1775825889.5042078,0.144006003,-18.996570671087028,0.753188860893782,0.9852845886241584,-19.31,0.92,0.8240935512540403,-0.3134293289129708,0.16681113910621803,-0.16119103737011808,0.38993134123997275,3.513417649724371,-1.6826749806631822,1.7879711791331911,4.286296724371225,0.0,0.0,9.231600083535642e-05,9.231600083535642e-05,0.0,0.0,0.0,0.0,-0.43029242101310117,-0.44664855611528986,0.0,0.0,0.0,0.0,0.4302924210131014,0.44664855611529,0.6201987586743377,0.0,-24.653939680517034,-25.591077191018226,0.0,0.0,0.0,0.0,24.65393968051705,25.591077191018233,35.534771331292205
97,0.4850192070007324,1775825889.5092204,0.149018534,-18.97879260416169,0.7447129951353828,0.9943278754352642,-19.31,0.92,0.8240940070110264,-0.3312073958383088,0.17528700486461724,-0.17023386842423782,0.411586495272966,3.547257713484699,-1.6744451173033423,1.8027021585369016,4.317005768948115,0.0,0.0,8.999652120746766e-05,8.999652120746766e-05,0.0,0.0,0.0,0.0,-0.4307821208369194,-0.4410299166186875,0.0,0.0,0.0,0.0,0.43078212083691936,0.4410299166186875,0.6165067907050502,0.0,-24.68199741365012,-25.2691528612574,0.0,0.0,0.0,0.0,24.68199741365012,25.2691528612574,35.32323714855455
98,0.4900166988372803,1775825889.5142179,0.154016038,-18.960913881420442,0.7363148660552843,1.003409553197581,-19.31,0.92,0.8240944513132168,-0.3490861185795566,0.18368513394471575,-0.17931510188436428,0.4333073417114328,3.575035359476699,-1.6617382415892232,1.8141881534043567,4.33976156730084,0.0,0.0,8.773404944177333e-05,8.773404944177333e-05,0.0,0.0,0.0,0.0,-0.4312852102605194,-0.4351074338798684,0.0,0.0,0.0,0.0,0.4312852102605196,0.4351074338798684,0.6126380755445948,0.0,-24.71082231434007,-24.929819596083984,0.0,0.0,0.0,0.0,24.71082231434008,24.929819596083984,35.10157609772217
99,0.49590015411376953,1775825889.5201013,0.159899583,-18.9397087158248,0.7265252620458214,1.0141635063658259,-19.31,0.92,0.8240947987004601,-0.37029128417519885,0.1934747379541787,-0.19006870766536577,0.45899261758348386,3.600109411371479,-1.641017501434642,1.8236143625417431,4.356523333706457,0.0,0.0,8.596546428984674e-05,8.596546428984674e-05,0.0,0.0,0.0,0.0,-0.4318965624133807,-0.4276868817320903,0.0,0.0,0.0,0.0,0.4318965624133808,0.42768688173209046,0.6078245712623129,0.0,-24.74585021249526,-24.504653276359562,0.0,0.0,0.0,0.0,24.745850212495267,24.504653276359573,34.82578261767927
100,0.5000162124633789,1775825889.5242174,0.164015597,-18.924797828475263,0.7197578343176899,1.0217135384737628,-19.31,0.92,0.8240953066878824,-0.38520217152473535,0.20024216568231012,-0.19761823178588034,0.47700168070845544,3.6127463326787197,-1.6228179034513714,1.8275752723936953,4.361823631041348,0.0,0.0,8.33766585382632e-05,8.33766585382632e-05,0.0,0.0,0.0,0.0,-0.43233642239051057,-0.42218205504215567,0.0,0.0,0.0,0.0,0.4323364223905104,0.42218205504215556,0.6042784703471102,0.0,-24.77105233276152,-24.189249940075335,0.0,0.0,0.0,0.0,24.77105233276151,24.18924994007533,34.62260600151068
101,0.505011796951294,1775825889.529213,0.169011111,-18.906643698223576,0.7116546189606847,1.0308918966599303,-19.31,0.92,0.8240957183045423,-0.403356301776423,0.20834538103931532,-0.206796178355388,0.4988674807657478,3.622659732834867,-1.596633480150781,1.8294701852416533,4.361176810051355,0.0,0.0,8.127859026009542e-05,8.127859026009542e-05,0.0,0.0,0.0,0.0,-0.4328834561778184,-0.4151226173544704,0.0,0.0,0.0,0.0,0.43288345617781854,0.4151226173544704,0.5997623479943364,0.0,-24.80239506002532,-23.78477395483538,0.0,0.0,0.0,0.0,24.802395060025326,23.78477395483538,34.36385125093205
