sample_idx,t_rel_s,stamp_s,t_in_traj_s,x_des_m,y_des_m,z_des_m,x_act_m,y_act_m,z_act_m,ex_m,ey_m,ez_m,e_pos_norm_m,vx_des_mps,vy_des_mps,vz_des_mps,speed_des_mps,vx_act_mps,vy_act_mps,vz_act_mps,speed_act_mps,wx_act_radps,wy_act_radps,wz_act_radps,roll_des_rad,pitch_des_rad,yaw_des_rad,roll_act_rad,pitch_act_rad,yaw_act_rad,e_roll_rad,e_pitch_rad,e_yaw_rad,e_ang_norm_rad,roll_des_deg,pitch_des_deg,yaw_des_deg,roll_act_deg,pitch_act_deg,yaw_act_deg,e_roll_deg,e_pitch_deg,e_yaw_deg,e_ang_norm_deg
0,0.0,1775721619.4260972,0.011844115,-19.309056412488122,0.909570582527373,0.6788550846255184,-19.31,0.92,0.6739206186368674,-0.0009435875118768422,0.010429417472627045,-0.004934465988650993,0.011576357838459455,0.1722384658971492,-1.1672521497031563,0.6351192867891776,1.3399702155543745,0.0,0.0,0.0038986215189347334,0.0038986215189347334,0.0,0.0,0.0,0.0,-0.4938054571344494,-1.4242945947513865,0.0,0.0,0.0,0.0,0.49380545713444945,1.4242945947513865,1.507467718438368,0.0,-28.292968594332237,-81.60606906255038,0.0,0.0,0.0,0.0,28.29296859433224,81.60606906255038,86.371538018734
1,0.004998445510864258,1775721619.4310956,0.016842552,-19.308259698863296,0.90389878818015,0.6819021900743025,-19.31,0.92,0.6739398667878485,-0.001740301136702982,0.016101211819850025,-0.007962323286454076,0.0180465027701241,0.19449943457422106,-1.2326116514566798,0.6831165027809867,1.4226066461703955,0.0,0.0,0.0038010380986439577,0.0038010380986439577,0.0,0.0,0.0,0.0,-0.5008673136517987,-1.4142921745038175,0.0,0.0,0.0,0.0,0.5008673136517987,1.4142921745038173,1.5003634295554877,0.0,-28.697583168303307,-81.03297259744848,0.0,0.0,0.0,0.0,28.697583168303307,81.03297259744846,85.96449224930325
2,0.010002613067626953,1775721619.4360998,0.02184669,-19.3072327954443,0.897520261590511,0.6854585795527571,-19.31,0.92,0.6739586330613244,-0.00276720455569901,0.022479738409489025,-0.011499946491432711,0.025401669813576295,0.2249828916974117,-1.3219966441797737,0.7487932061263053,1.5358983346302657,0.0,0.0,0.0037058799527403684,0.0037058799527403684,0.0,0.0,0.0,0.0,-0.5092560637629336,-1.4022271854125208,0.0,0.0,0.0,0.0,0.5092560637629338,1.4022271854125208,1.491838737259908,0.0,-29.17822314506124,-80.34169964264579,0.0,0.0,0.0,0.0,29.178223145061246,80.34169964264579,85.47606335911884
3,0.015033721923828125,1775721619.4411309,0.026877878,-19.305974378788992,0.8904391231489505,0.6895233790366773,-19.31,0.92,0.6739769293808868,-0.00402562121100658,0.029560876851049578,-0.01554644965579044,0.03364139062579684,0.2694866345804848,-1.451342657748156,0.8441903738686142,1.7004928531897532,0.0,0.0,0.0036129996193227936,0.0036129996193227936,0.0,0.0,0.0,0.0,-0.5194913398261075,-1.3872062576835467,0.0,0.0,0.0,0.0,0.5194913398261076,1.3872062576835464,1.4812874310918573,0.0,-29.764661265632377,-79.48106387940454,0.0,0.0,0.0,0.0,29.764661265632384,79.48106387940454,84.87151804733918
4,0.020030736923217773,1775721619.446128,0.031874879,-19.304505518462715,0.8827809113784206,0.694025212069547,-19.31,0.92,0.6739947666433587,-0.005494481537283491,0.03721908862157941,-0.02003044542618837,0.04262239586363068,0.31263571671491525,-1.5722399023335363,0.9347758173015587,1.855663016408802,0.0,0.0,0.003522269908065005,0.003522269908065005,0.0,0.0,0.0,0.0,-0.5279253424242756,-1.3745093426373123,0.0,0.0,0.0,0.0,0.5279253424242754,1.374509342637312,1.4724065675522655,0.0,-30.24789401890978,-78.75358423441916,0.0,0.0,0.0,0.0,30.247894018909765,78.75358423441915,84.36268204808896
5,0.025027990341186523,1775721619.4511251,0.036872183,-19.30282355389832,0.8745369079410856,0.6989696463970294,-19.31,0.92,0.6740121554638958,-0.007176446101677669,0.04546309205891441,-0.024957490933133597,0.05235714346567292,0.3547386499790583,-1.6855997370193356,1.0212170707603605,2.002491020913949,0.0,0.0,0.0034335720758121363,0.0034335720758121363,0.0,0.0,0.0,0.0,-0.5351538180383039,-1.363370800726093,0.0,0.0,0.0,0.0,0.535153818038304,1.3633708007260932,1.4646397335978165,0.0,-30.662055163906835,-78.11539279297672,0.0,0.0,0.0,0.0,30.662055163906842,78.11539279297673,83.91767524232013
6,0.03000164031982422,1775721619.4560988,0.041845675,-19.300943297743522,0.8657883941886932,0.7043091490334599,-19.31,0.92,0.6740291055833287,-0.009056702256476257,0.054211605811306796,-0.030280043450131133,0.06275191703641256,0.39559965131266134,-1.7909282878377837,1.1031262392038441,2.140282858856813,0.0,0.0,0.003346804833401278,0.003346804833401278,0.0,0.0,0.0,0.0,-0.5414876883815223,-1.3533964683537938,0.0,0.0,0.0,0.0,0.5414876883815225,1.353396468353794,1.4577005581467297,0.0,-31.024959202556328,-77.54390564458326,0.0,0.0,0.0,0.0,31.024959202556342,77.54390564458328,83.52008977567206
7,0.035027265548706055,1775721619.4611244,0.046871268,-19.29883956051146,0.8564351311838531,0.710107930076735,-19.31,0.92,0.674045626567519,-0.011160439488538287,0.06356486881614698,-0.03606230350921602,0.07392927492936822,0.4358334951836796,-1.8897691537765025,1.1817182972485103,2.2710430256032357,0.0,0.0,0.003261872139019717,0.003261872139019717,0.0,0.0,0.0,0.0,-0.5472509914821446,-1.3441316658360265,0.0,0.0,0.0,0.0,0.5472509914821444,1.3441316658360263,1.4512661998342418,0.0,-31.35517214627665,-77.01307156229302,0.0,0.0,0.0,0.0,31.355172146276637,77.013071562293,83.15142820049158
8,0.0399937629699707,1775721619.466091,0.051837744,-19.296564522736684,0.8467225783167108,0.7162162493814586,-19.31,0.92,0.6740617272297926,-0.01343547726331451,0.07327742168328921,-0.04215452215166593,0.08559845977398728,0.47455199841923706,-1.9799508157658938,1.2552627010760766,2.391879863364489,0.0,0.0,0.003178693506695403,0.003178693506695403,0.0,0.0,0.0,0.0,-0.552482178409475,-1.3355551879835026,0.0,0.0,0.0,0.0,0.5524821784094751,1.3355551879835028,1.4453180333787192,0.0,-31.654897079056692,-76.52167557825598,0.0,0.0,0.0,0.0,31.654897079056695,76.521675578256,82.81062336674886
9,0.0449981689453125,1775721619.4710953,0.056842219,-19.29408018662894,0.8365014892632051,0.7227304153338978,-19.31,0.92,0.6740774162942464,-0.015919813371059632,0.08349851073679493,-0.04865299903965137,0.09794159519113595,0.5125189247341843,-2.0632845547391696,1.3252238735982966,2.505202011253937,0.0,0.0,0.0030971911263555966,0.0030971911263555966,0.0,0.0,0.0,0.0,-0.5574085848858708,-1.3273245496422497,0.0,0.0,0.0,0.0,0.557408584885871,1.3273245496422499,1.439616195583903,0.0,-31.937159378320082,-76.05009473860363,0.0,0.0,0.0,0.0,31.937159378320096,76.05009473860365,82.48393212563771
10,0.050026893615722656,1775721619.476124,0.061871033,-19.29139503489075,0.8258297352580916,0.7296184161135177,-19.31,0.92,0.674092701827242,-0.018604965109247473,0.09417026474190848,-0.05552571428627573,0.11089313971242122,0.549611006401829,-2.1394016549370205,1.3913331620318272,2.6105401102597097,0.0,0.0,0.0030172994609817144,0.0030172994609817144,0.0,0.0,0.0,0.0,-0.5621038848504774,-1.319334723879244,0.0,0.0,0.0,0.0,0.5621038848504774,1.319334723879244,1.4340867794514807,0.0,-32.20618024983997,-75.59231144333852,0.0,0.0,0.0,0.0,32.20618024983997,75.59231144333852,82.16711991807836
11,0.055008649826049805,1775721619.4811058,0.066852612,-19.28855381156358,0.8148996398079305,0.7367591480986072,-19.31,0.92,0.6741075918637893,-0.021446188436417657,0.10510036019206959,-0.06265155623481788,0.12422255113141754,0.5853075389097738,-2.207270690711718,1.4526782107147942,2.706455763736983,0.0,0.0,0.002938953913585946,0.002938953913585946,0.0,0.0,0.0,0.0,-0.5665752573265675,-1.311589400257251,0.0,0.0,0.0,0.0,0.5665752573265674,1.311589400257251,1.4287317022736779,0.0,-32.4623710213509,-75.14853708883534,0.0,0.0,0.0,0.0,32.46237102135089,75.14853708883534,81.86029659682342
12,0.060007572174072266,1775721619.4861047,0.0718516,-19.28552651636157,0.8036102944894321,0.7442216843157066,-19.31,0.92,0.6741220938561591,-0.024473483638427496,0.11638970551056793,-0.0700995904595475,0.13805603041096534,0.6200811426123386,-2.2678399979711794,1.510092265301857,2.7942758506535887,0.0,0.0,0.002862101226827513,0.002862101226827513,0.0,0.0,0.0,0.0,-0.5709403302490011,-1.3038962041116386,0.0,0.0,0.0,0.0,0.5709403302490013,1.3038962041116386,1.423417778377655,0.0,-32.71247127707318,-74.70774941872543,0.0,0.0,0.0,0.0,32.712471277073185,74.70774941872543,81.5558311849276
13,0.06499457359313965,1775721619.4910917,0.07683867,-19.282335836508352,0.7920649345975274,0.7519420899381939,-19.31,0.92,0.6741362152727907,-0.027664163491646576,0.12793506540247268,-0.07780587466540323,0.15227094612458394,0.65372608930776,-2.3207418261831143,1.563231672631218,2.87348110937844,0.0,0.0,0.0027866876581515744,0.0027866876581515744,0.0,0.0,0.0,0.0,-0.5752209141587603,-1.2962226432596802,0.0,0.0,0.0,0.0,0.5752209141587601,1.2962226432596804,1.4181227876967326,0.0,-32.957730668953985,-74.2680867680714,0.0,0.0,0.0,0.0,32.95773066895397,74.26808676807141,81.25245056634965
14,0.0700531005859375,1775721619.4961503,0.081897183,-19.27893072179647,0.7801039825942647,0.7600331987514679,-19.31,0.92,0.6741499630613935,-0.031069278203528228,0.13989601740573532,-0.08588323569007439,0.16706922489396692,0.6867859637978312,-2.3667251714593656,1.612910274918805,2.945257637665631,0.0,0.0,0.002712670260898091,0.002712670260898091,0.0,0.0,0.0,0.0,-0.5795286441716974,-1.2883691143921812,0.0,0.0,0.0,0.0,0.5795286441716971,1.2883691143921814,1.4127096036819384,0.0,-33.204545417977116,-73.81811270967955,0.0,0.0,0.0,0.0,33.2045454179771,73.81811270967957,80.94229796857425
15,0.07499527931213379,1775721619.5010924,0.08683933,-19.27544501556564,0.7682121320625741,0.7681706476644037,-19.31,0.92,0.6741633442262576,-0.034554984434358005,0.15178786793742594,-0.09400730343814612,0.18185427380724342,0.7180474799580948,-2.4041845049811905,1.657339580221173,3.0070699695273997,0.0,0.0,0.0026400043910610135,0.0026400043910610135,0.0,0.0,0.0,0.0,-0.5837390340131993,-1.2805640976952424,0.0,0.0,0.0,0.0,0.5837390340131994,1.2805640976952422,1.407336373485988,0.0,-33.44578298599993,-73.37091819391581,0.0,0.0,0.0,0.0,33.445782985999934,73.3709181939158,80.63443455599405
16,0.08003807067871094,1775721619.5061352,0.091882233,-19.271731638444685,0.7559060636811183,0.7766898533907871,-19.31,0.92,0.6741763652999456,-0.0382683615553141,0.1640939363188817,-0.10251348809084149,0.19723159653895353,0.7488889725731694,-2.4348009914110316,1.6984910001518192,3.061692708064375,0.0,0.0,0.002568654291474466,0.002568654291474466,0.0,0.0,0.0,0.0,-0.5880691233280816,-1.2724026632030045,0.0,0.0,0.0,0.0,0.5880691233280815,1.272402663203005,1.4017253051643028,0.0,-33.69387882865738,-72.9033024427381,0.0,0.0,0.0,0.0,33.693878828657375,72.90330244273812,80.31294402260193
17,0.0849912166595459,1775721619.5110884,0.09683531,-19.267935595871084,0.7436875347328797,0.7852490736136157,-19.31,0.92,0.6741890328968413,-0.0420644041289151,0.1763124652671203,-0.11106004071677444,0.2125790021316823,0.7781414477078029,-2.4573929042946774,1.7347957695527767,3.1070565428998607,0.0,0.0,0.0024985817505485597,0.0024985817505485597,0.0,0.0,0.0,0.0,-0.5923842205582346,-1.2641322020571342,0.0,0.0,0.0,0.0,0.5923842205582348,1.2641322020571337,1.3960477388127546,0.0,-33.941115688133735,-72.4294399244528,0.0,0.0,0.0,0.0,33.94111568813375,72.42943992445277,79.98764343275272
18,0.09003829956054688,1775721619.5161355,0.10188248,-19.263921053780365,0.7311409052408043,0.7941453520045604,-19.31,0.92,0.6742013531983132,-0.04607894621963382,0.1888590947591957,-0.11994399880624718,0.2284241445373229,0.8068897683306985,-2.4727894361223295,1.7675966337777262,3.1448619291436795,0.0,0.0,0.0024297567209074886,0.0024297567209074886,0.0,0.0,0.0,0.0,-0.5968726234768562,-1.2553822828247454,0.0,0.0,0.0,0.0,0.5968726234768562,1.2553822828247458,1.3900509360042945,0.0,-34.19828223212496,-71.92810648135656,0.0,0.0,0.0,0.0,34.19828223212496,71.9281064813566,79.64405194125577
19,0.09501957893371582,1775721619.5211167,0.106863547,-19.259819454631028,0.7187012866435418,0.8030770468001411,-19.31,0.92,0.6742133324865979,-0.05018054536897054,0.20129871335645821,-0.12886371431354326,0.2442234960014604,0.8342126641715631,-2.4804385600837895,1.7958176609424172,3.1738694508072407,0.0,0.0,0.0023621461293967037,0.0023621461293967037,0.0,0.0,0.0,0.0,-0.6014193394663863,-1.2463632392404878,0.0,0.0,0.0,0.0,0.6014193394663865,1.2463632392404875,1.3838809724879613,0.0,-34.458789868969674,-71.41135334873405,0.0,0.0,0.0,0.0,34.45878986896969,71.41135334873405,79.29053907202017
20,0.10001587867736816,1775721619.526113,0.111859938,-19.255571123709792,0.7062039151830151,0.8121671029079179,-19.31,0.92,0.6742249766429439,-0.05442887629020632,0.21379608481698498,-0.13794212626497404,0.2601908888792766,0.8605728113884934,-2.480580569474369,1.8199835777363473,3.1947152844322253,0.0,0.0,0.002295724545053689,0.002295724545053689,0.0,0.0,0.0,0.0,-0.6061233670289377,-1.2368644870474839,0.0,0.0,0.0,0.0,0.6061233670289377,1.2368644870474839,1.3773958383042006,0.0,-34.72831079501708,-70.86711493743431,0.0,0.0,0.0,0.0,34.72831079501708,70.86711493743431,78.91896825371467
21,0.1050112247467041,1775721619.5311084,0.116855409,-19.25119452391659,0.6937269699671806,0.8213658351481157,-19.31,0.92,0.6742362916641179,-0.05880547608341047,0.2262730300328194,-0.14712954348399776,0.2762330007501626,0.8858799805109286,-2.47318242299483,1.839997898110696,3.2073364186396787,0.0,0.0,0.0022304630717039056,0.0022304630717039056,0.0,0.0,0.0,0.0,-0.6109966740147519,-1.2268401478153121,0.0,0.0,0.0,0.0,0.6109966740147517,1.2268401478153121,1.3705669206385311,0.0,-35.00753071757586,-70.29276260702345,0.0,0.0,0.0,0.0,35.00753071757585,70.29276260702345,78.52770009282948
22,0.11001300811767578,1775721619.5361102,0.121857111,-19.246688431975493,0.6812903707397359,0.8306658238024782,-19.31,0.92,0.6742472831727818,-0.06331156802450622,0.23870962926026418,-0.1564185406296964,0.2923309795420568,0.9101687265328449,-2.4582215010127078,1.8558826563120325,3.2117846273994455,0.0,0.0,0.0021663400876383108,0.0021663400876383108,0.0,0.0,0.0,0.0,-0.6160739192897904,-1.216192159102103,0.0,0.0,0.0,0.0,0.6160739192897902,1.2161921591021034,1.3633306429074787,0.0,-35.29843544338831,-69.68267779345364,0.0,0.0,0.0,0.0,35.29843544338829,69.68267779345365,78.11309191945567
23,0.11499977111816406,1775721619.541097,0.126843829,-19.242077510079234,0.6689843026124958,0.8400067169055816,-19.31,0.92,0.6742579569186958,-0.06792248992076466,0.2510156973875043,-0.16574875998688576,0.3083747661679888,0.9333387814212558,-2.435781073536986,1.867581373273958,3.208116410747239,0.0,0.0,0.0021033301585620437,0.0021033301585620437,0.0,0.0,0.0,0.0,-0.6213614113930827,-1.2048748703837195,0.0,0.0,0.0,0.0,0.6213614113930825,1.204874870383719,1.355659786543286,0.0,-35.6013864251157,-69.03424491435923,0.0,0.0,0.0,0.0,35.6013864251157,69.0342449143592,77.67358422453636
24,0.12003326416015625,1775721619.5461304,0.131877395,-19.2373087520948,0.6566952268851085,0.8494840121595892,-19.31,0.92,0.6742683183004005,-0.07269124790519754,0.26330477311489153,-0.17521569385918878,0.32452112480030687,0.9556673873166944,-2.405510586590168,1.8751993354674314,3.196271872841168,0.0,0.0,0.0020414148769060288,0.0020414148769060288,0.0,0.0,0.0,0.0,-0.626957117752108,-1.192634769253594,0.0,0.0,0.0,0.0,0.626957117752108,1.1926347692535941,1.3473874425467252,0.0,-35.921996782882374,-68.33293877878972,0.0,0.0,0.0,0.0,35.921996782882374,68.33293877878974,77.19961382685304
25,0.12500286102294922,1775721619.5511,0.136846948,-19.232492986766587,0.6447306478248351,0.8588680927614839,-19.31,0.92,0.6742783728530305,-0.07750701323341147,0.2752693521751649,-0.1845897199084534,0.34037320406163063,0.9766681742199524,-2.3681155962554357,1.8785901402645468,3.176626058393015,0.0,0.0,0.001980571737668087,0.001980571737668087,0.0,0.0,0.0,0.0,-0.6327679308177909,-1.1796255292642825,0.0,0.0,0.0,0.0,0.6327679308177911,1.1796255292642828,1.3386230401287242,0.0,-36.25493184708548,-67.58756423272938,0.0,0.0,0.0,0.0,36.25493184708549,67.58756423272939,76.69745055834733
26,0.12999677658081055,1775721619.556094,0.141840743,-19.2275512047077,0.6329136392245793,0.8683046188926168,-19.31,0.92,0.6742881257788234,-0.0824487952922972,0.2870863607754207,-0.19401649311379343,0.3561724048668015,0.9967266225395123,-2.323022099480446,1.8778635613019792,3.1490105096076317,0.0,0.0,0.0019207842737904953,0.0019207842737904953,0.0,0.0,0.0,0.0,-0.6389270451673716,-1.1654879429568163,0.0,0.0,0.0,0.0,0.6389270451673719,1.1654879429568163,1.3291312629774459,0.0,-36.607823104854916,-66.77754020480961,0.0,0.0,0.0,0.0,36.60782310485493,66.77754020480961,76.15361178750038
27,0.13499164581298828,1775721619.5610888,0.146835692,-19.2225106945375,0.6213379876000173,0.8777293437542232,-19.31,0.92,0.6742975824195157,-0.08748930546249767,0.2986620123999827,-0.20343176133470753,0.37180352034489805,1.0157420183380954,-2.2703811930576507,1.8729913951104635,3.1135926798098157,0.0,0.0,0.0018620318337002368,0.0018620318337002368,0.0,0.0,0.0,0.0,-0.645443927139502,-1.1501164006861846,0.0,0.0,0.0,0.0,0.6454439271395023,1.1501164006861844,1.3188501045261387,0.0,-36.98121293744288,-65.89681570809547,0.0,0.0,0.0,0.0,36.98121293744289,65.89681570809546,75.56454479973522
28,0.1399989128112793,1775721619.566096,0.151843044,-19.217364964215957,0.610016438258649,0.8871426342110789,-19.31,0.92,0.6743067477986578,-0.09263503578404197,0.309983561741351,-0.21283588641242102,0.38725982614973853,1.033752916658948,-2.210043614446695,1.8639457777015571,3.0703797375355637,0.0,0.0,0.001804299362238835,0.001804299362238835,0.0,0.0,0.0,0.0,-0.6523724515593328,-1.1332780756304135,0.0,0.0,0.0,0.0,0.6523724515593328,1.1332780756304137,1.3076348925667698,0.0,-37.37818814495251,-64.93205074833041,0.0,0.0,0.0,0.0,37.37818814495251,64.93205074833041,74.92196048811873
29,0.14499950408935547,1775721619.5710967,0.15684365,-19.212138790312736,0.5990305736266212,0.8964876386267708,-19.31,0.92,0.6743156270797473,-0.09786120968726308,0.3209694263733789,-0.22217201154702348,0.4024407928413335,1.0506886584606083,-2.1422272843523227,1.8507542495092937,3.019664830228346,0.0,0.0,0.0017475676062853667,0.0017475676062853667,0.0,0.0,0.0,0.0,-0.6597262323939553,-1.114805338699653,0.0,0.0,0.0,0.0,0.6597262323939552,1.1148053386996528,1.2953878357086617,0.0,-37.799528750240576,-63.87364088614238,0.0,0.0,0.0,0.0,37.79952875024057,63.87364088614237,74.2202558186924
30,0.15000462532043457,1775721619.5761018,0.161848587,-19.206825921726743,0.588393682751241,0.9057642763427889,-19.31,0.92,0.6743242251214022,-0.10317407827325553,0.331606317248759,-0.23144005122138667,0.4173393551729558,1.066587519966245,-2.066787457618056,1.833390601932284,2.9615098230410575,0.0,0.0,0.0016918229487874331,0.0016918229487874331,0.0,0.0,0.0,0.0,-0.6675616903641919,-1.0943829673330348,0.0,0.0,0.0,0.0,0.6675616903641917,1.0943829673330345,1.2819175830101384,0.0,-38.24846742248727,-62.70352519918633,0.0,0.0,0.0,0.0,38.24846742248726,62.70352519918632,73.44846719009229
31,0.15503907203674316,1775721619.5811362,0.166883207,-19.201403928362218,0.5780938274740072,0.9149977019086035,-19.31,0.92,0.6743325469234351,-0.10859607163778051,0.34190617252599287,-0.24066515498516838,0.4319868683311648,1.0815192928719246,-1.9832647216271047,1.8117243764948785,2.895750015676523,0.0,0.0,0.0016370475372741698,0.0016370475372741698,0.0,0.0,0.0,0.0,-0.6759637596781226,-1.0715512163264755,0.0,0.0,0.0,0.0,0.6759637596781225,1.0715512163264753,1.2669447555473488,0.0,-38.72987053335188,-61.39536222761692,0.0,0.0,0.0,0.0,38.72987053335187,61.39536222761691,72.59058736909688
32,0.16001486778259277,1775721619.586112,0.171858951,-19.195974091146834,0.5683463720590078,0.9240056379755166,-19.31,0.92,0.6743405971934151,-0.11402590885316499,0.3516536279409922,-0.2496650407821015,0.446088348337614,1.0952305317435855,-1.8931944587535703,1.7861731021955993,2.823850124798696,0.0,0.0,0.00158322921508322,0.00158322921508322,0.0,0.0,0.0,0.0,-0.6848167996998338,-1.0463287418024354,0.0,0.0,0.0,0.0,0.684816799699834,1.0463287418024354,1.2505110495605347,0.0,-39.23711236245634,-59.95022088851318,0.0,0.0,0.0,0.0,39.23711236245635,59.95022088851318,71.64900537429355
33,0.16500353813171387,1775721619.5911007,0.176847544,-19.19046434551463,0.5590423631623632,0.9328989133260726,-19.31,0.92,0.6743483807821384,-0.11953565448536807,0.3609576368376368,-0.2585505325439341,0.45981253371717534,1.1079333796427453,-1.7953825993700332,1.7564258180377499,2.7451678830477513,0.0,0.0,0.0015303515292131849,0.0015303515292131849,0.0,0.0,0.0,0.0,-0.6942699542486456,-1.017896970414366,0.0,0.0,0.0,0.0,0.6942699542486457,1.017896970414366,1.232122157803828,0.0,-39.77873822118815,-58.321200383896,0.0,0.0,0.0,0.0,39.778738221188156,58.321200383896,70.59539948671134
34,0.17000484466552734,1775721619.596102,0.181848973,-19.184879430249588,0.5502231014165332,0.9416557289536817,-19.31,0.92,0.6743559022594051,-0.1251205697504112,0.36977689858346685,-0.26729982669427654,0.47311659139314205,1.1196197317024044,-1.6897713306896525,1.7224506637374302,2.6600210116928693,0.0,0.0,0.001478403384929637,0.001478403384929637,0.0,0.0,0.0,0.0,-0.704342235789291,-0.9856237512658294,0.0,0.0,0.0,0.0,0.7043422357892908,0.9856237512658295,1.2114256742268519,0.0,-40.35583744353466,-56.47208113538405,0.0,0.0,0.0,0.0,40.35583744353465,56.47208113538406,69.4095783269888
35,0.1749553680419922,1775721619.6010525,0.186799474,-19.179296395219268,0.5420322952173465,0.9501458720354959,-19.31,0.92,0.6743631663384213,-0.13070360478073084,0.3779677047826535,-0.27578270569707464,0.48579740522458936,1.1301525473880865,-1.5777930789848802,1.6847280791418153,2.5700164359609143,0.0,0.0,0.0014273693857440567,0.0014273693857440567,0.0,0.0,0.0,0.0,-0.7148869182373165,-0.9492229709228341,0.0,0.0,0.0,0.0,0.7148869182373163,0.9492229709228344,1.1883129025616188,0.0,-40.9600032441122,-54.38647005074766,0.0,0.0,0.0,0.0,40.96000324411219,54.38647005074767,68.08531405772139
36,0.18000364303588867,1775721619.6061008,0.19184765,-19.173552167072405,0.5342698660396857,0.9586007023909557,-19.31,0.92,0.6743701774603489,-0.136447832927594,0.3857301339603143,-0.28423052493060685,0.4981894606051065,1.1398332739242185,-1.455980580506789,1.6420674558331525,2.4729506409680018,0.0,0.0,0.0013772387858090155,0.0013772387858090155,0.0,0.0,0.0,0.0,-0.7261709130414374,-0.9065924948328443,0.0,0.0,0.0,0.0,0.7261709130414373,0.9065924948328448,1.1615653862932884,0.0,-41.60652852243587,-51.943923692157874,0.0,0.0,0.0,0.0,41.60652852243587,51.943923692157895,66.55279426308854
37,0.18499279022216797,1775721619.61109,0.196836762,-19.167829764599645,0.5272213839319143,0.9667345970945654,-19.31,0.92,0.6743769402059463,-0.14217023540035356,0.39277861606808573,-0.29235765688861914,0.5098631351799777,1.1483491861739032,-1.3280285289402955,1.5957452669695484,2.372502599391897,0.0,0.0,0.0013279966517993102,0.0013279966517993102,0.0,0.0,0.0,0.0,-0.737716696891823,-0.8578285615187166,0.0,0.0,0.0,0.0,0.7377166968918232,0.8578285615187164,1.1314131720243725,0.0,-42.26805320823327,-49.14995612080096,0.0,0.0,0.0,0.0,42.26805320823328,49.14995612080095,64.82519964250552
38,0.19004273414611816,1775721619.61614,0.201886895,-19.161996780284717,0.5207560805649226,0.9747220185305882,-19.31,0.92,0.6743834588922116,-0.14800321971528163,0.3992439194350774,-0.3003385596383765,0.5210603714135504,1.1559046371451671,-1.1908527331645276,1.5446441114338356,2.267194564488533,0.0,0.0,0.0012796328913512588,0.0012796328913512588,0.0,0.0,0.0,0.0,-0.7495398002602894,-0.8002891415951404,0.0,0.0,0.0,0.0,0.7495398002602895,0.8002891415951403,1.0964819297778332,0.0,-42.94546713199331,-45.85319020354908,0.0,0.0,0.0,0.0,42.94546713199331,45.853190203549076,62.82378688862975
39,0.1949920654296875,1775721619.6210892,0.206836106,-19.156245931687444,0.5151107339098961,0.9822891915025683,-19.31,0.92,0.6743897379740228,-0.1537540683125549,0.4048892660901039,-0.30789945352854553,0.531392232537155,1.1622699039083535,-1.0489423633232609,1.4904523436721058,2.161619670493168,0.0,0.0,0.0012321332761128549,0.0012321332761128549,0.0,0.0,0.0,0.0,-0.7608084422356772,-0.7341916498347282,0.0,0.0,0.0,0.0,0.7608084422356773,0.7341916498347283,1.0572922322915828,0.0,-43.59111275802699,-42.06608288927673,0.0,0.0,0.0,0.0,43.591112758026995,42.066082889276736,60.578382622273146
40,0.20001220703125,1775721619.6261094,0.211856231,-19.150383125049004,0.5101208977605549,0.9896804028362443,-19.31,0.92,0.6743957816505224,-0.15961687495099497,0.4098791022394451,-0.31528462118572187,0.5411864905722973,1.1676754518950012,-0.8974383931436477,1.4313258792393375,2.053668766628813,0.0,0.0,0.0011854881778660413,0.0011854881778660413,0.0,0.0,0.0,0.0,-0.7711500846812558,-0.6552793250536278,0.0,0.0,0.0,0.0,0.7711500846812558,0.6552793250536277,1.0119602002779782,0.0,-44.18364522339199,-37.54473972775406,0.0,0.0,0.0,0.0,44.18364522339199,37.544739727754056,57.981048511141665
41,0.20499753952026367,1775721619.6310947,0.216841686,-19.14453656916464,0.5059370575705997,0.9967164594263858,-19.31,0.92,0.6744015942561362,-0.1654634308353593,0.41406294242940034,-0.32231486517024954,0.5501937291053187,1.1719962091523157,-0.7394453972087159,1.3684632402886705,1.9475744529393277,0.0,0.0,0.0011396839102726123,0.0011396839102726123,0.0,0.0,0.0,0.0,-0.7791150572880781,-0.5628508995930869,0.0,0.0,0.0,0.0,0.7791150572880783,0.5628508995930868,0.9611562868055082,0.0,-44.64000453770022,-32.248981041825544,0.0,0.0,0.0,0.0,44.640004537700236,32.24898104182554,55.070198686421314
42,0.21001648902893066,1775721619.6361136,0.221860664,-19.138631581471998,0.5025397063957937,1.0034728145939193,-19.31,0.92,0.6744071798768222,-0.1713684185280009,0.41746029360420633,-0.32906563471709716,0.5585019458844027,1.1752916385566976,-0.5728048889147591,1.301005998931249,1.8444599441790634,0.0,0.0,0.0010947111689931582,0.0010947111689931582,0.0,0.0,0.0,0.0,-0.7829291488430119,-0.45349471819261405,0.0,0.0,0.0,0.0,0.7829291488430119,0.4534947181926139,0.9047847874144666,0.0,-44.85853588647442,-25.98333338391142,0.0,0.0,0.0,0.0,44.85853588647442,25.983333383911408,51.840349686490335
43,0.21500277519226074,1775721619.6411,0.226846938,-19.132751310212264,0.5000115308652817,1.0098395236860083,-19.31,0.92,0.6744125427305735,-0.177248689787735,0.4199884691347183,-0.3354269809554348,0.5659670235892464,1.1775179980685564,-0.39971388775363487,1.2298432546977107,1.7489523318158113,0.0,0.0,0.0010505566889803374,0.0010505566889803374,0.0,0.0,0.0,0.0,-0.7798721881307941,-0.327249530530405,0.0,0.0,0.0,0.0,0.7798721881307942,0.32724953053040506,0.8457498950944561,0.0,-44.68338493952703,-18.75001694702979,0.0,0.0,0.0,0.0,44.68338493952704,18.750016947029792,48.45789951254446
44,0.22000932693481445,1775721619.6461065,0.231853325,-19.126838777442664,0.4983603575770703,1.0158645365360242,-19.31,0.92,0.6744176867936238,-0.18316122255733447,0.42163964242292973,-0.34144684974240036,0.5726377325240127,1.1788902543993431,-0.2983489926306886,1.1882318076841796,1.7002026885386072,0.0,0.0,0.0010072113858604404,0.0010072113858604404,0.0,0.0,0.0,0.0,-0.7738255774692275,-0.24787174968467882,0.0,0.0,0.0,0.0,0.7738255774692275,0.24787174968467873,0.8125554926510112,0.0,-44.33693966826046,-14.20200511745529,0.0,0.0,0.0,0.0,44.33693966826046,14.202005117455286,46.55600034907632
45,0.2249925136566162,1775721619.6510897,0.236836528,-19.120950342837492,0.49763718985106026,1.0214754376144712,-19.31,0.92,0.6744226161705107,-0.18904965716250643,0.4223628101489398,-0.34705282144396055,0.5784252563144041,1.1798864214570386,-0.2110199459641914,1.1522120746820665,1.6626045982664004,0.0,0.0,0.0009646623264444685,0.0009646623264444685,0.0,0.0,0.0,0.0,-0.7656646225551828,-0.17697655526737757,0.0,0.0,0.0,0.0,0.7656646225551826,0.17697655526737766,0.7858517769572564,0.0,-43.86935139488915,-10.140009689584494,0.0,0.0,0.0,0.0,43.869351394889144,10.140009689584499,45.025990142506906
46,0.23000693321228027,1775721619.656104,0.24185091,-19.115027024958685,0.4978742313596782,1.026711675304516,-19.31,0.92,0.6744273347317155,-0.1949729750413134,0.42212576864032186,-0.35228434057280056,0.5833599936226824,1.1805379231061288,-0.12062016093365399,1.1145785625327043,1.6280369722991128,0.0,0.0,0.0009229014051072276,0.0009229014051072276,0.0,0.0,0.0,0.0,-0.7540754040059009,-0.10182055991402898,0.0,0.0,0.0,0.0,0.754075404005901,0.10182055991402894,0.7609186167704594,0.0,-43.20533808416057,-5.833888350732793,0.0,0.0,0.0,0.0,43.20533808416058,5.83388835073279,43.59742529387982
47,0.23499202728271484,1775721619.6610892,0.246836211,-19.109145236185544,0.4991068487753882,1.031489380444387,-19.31,0.92,0.6744318464771742,-0.20085476381445488,0.42089315122461185,-0.35705753396721274,0.5873531845980676,1.18083670994587,-0.02823442806888775,1.0757826588739199,1.5976485369498528,0.0,0.0,0.0008819166328768272,0.0008819166328768272,0.0,0.0,0.0,0.0,-0.7387357523316811,-0.02390597193502433,0.0,0.0,0.0,0.0,0.7387357523316811,0.023905971935024528,0.7391224575584299,0.0,-42.32644078402699,-1.369711297035088,0.0,0.0,0.0,0.0,42.32644078402699,1.3697112970350993,42.348597361435345
48,0.23999333381652832,1775721619.6660905,0.251837493,-19.108119438171837,0.4994267729166244,1.0322782248052262,-19.31,0.92,0.6744361551784284,-0.20188056182816183,0.42057322708337563,-0.3578420696267979,0.5879528445191579,1.180786858197361,0.06696242954010037,1.0354791310553708,1.571928306988806,0.0,0.0,0.0008416993612927053,0.0008416993612927053,0.0,0.0,0.0,0.0,-0.7191318980706211,0.05664932921409974,0.0,0.0,0.0,0.0,0.719131898070621,-0.05664932921409971,0.7213597114637478,0.0,-41.20322267267869,3.245767476215072,0.0,0.0,0.0,0.0,41.20322267267869,-3.24576747621507,41.330866977647574
49,0.24499034881591797,1775721619.6710875,0.256834543,-19.108119438171837,0.4994267729166244,1.0322782248052262,-19.31,0.92,0.6744402647285231,-0.20188056182816183,0.42057322708337563,-0.3578379600767031,0.5879503433583785,1.1803873371243263,0.16459453219413117,0.993825992807332,1.5518040242411868,0.0,0.0,0.0008022372970713586,0.0008022372970713586,0.0,0.0,0.0,0.0,-0.6950614938111153,0.13854776283949227,0.0,0.0,0.0,0.0,0.6950614938111155,-0.13854776283949244,0.7087354674113379,0.0,-39.824090097435295,7.93820207168237,0.0,0.0,0.0,0.0,39.82409009743531,-7.93820207168238,40.607551073901355
50,0.25003623962402344,1775721619.6761334,0.261880368,-19.108119438171837,0.4994267729166244,1.0322782248052262,-19.31,0.92,0.6744441787975362,-0.20188056182816183,0.42057322708337563,-0.3578340460076901,0.5879479611884139,1.179629218277595,0.2657312707682241,0.9503628429476004,1.5379622017896768,0.0,0.0,0.0007635222025663107,0.0007635222025663107,0.0,0.0,0.0,0.0,-0.6661153175005636,0.22156834898583114,0.0,0.0,0.0,0.0,0.6661153175005636,-0.22156834898583133,0.7019986819654178,0.0,-38.16559636179912,12.694931270569858,0.0,0.0,0.0,0.0,38.16559636179912,-12.69493127056987,40.22156170036498
51,0.255018949508667,1775721619.681116,0.266863009,-19.108119438171837,0.4994267729166244,1.0322782248052262,-19.31,0.92,0.6744479011748842,-0.20188056182816183,0.42057322708337563,-0.35783032363034206,0.5879456957005249,1.178530838552405,0.36811767671838014,0.9060600571909961,1.5314667441928094,0.0,0.0,0.0007255422602651445,0.0007255422602651445,0.0,0.0,0.0,0.0,-0.6330778450635176,0.3027509671188377,0.0,0.0,0.0,0.0,0.6330778450635175,-0.30275096711883753,0.7017447584425968,0.0,-36.272688625376595,17.346352659413363,0.0,0.0,0.0,0.0,36.27268862537659,-17.346352659413352,40.20701295418824
52,0.25999903678894043,1775721619.6860962,0.271842997,-19.108119438171837,0.4994267729166244,1.0322782248052262,-19.31,0.92,0.6744514354340041,-0.20188056182816183,0.42057322708337563,-0.35782678937122214,0.5879435447175995,0.0,0.0,0.0,0.0,0.0,0.0,0.0006882899376539089,0.0006882899376539089,0.0,0.0,0.0,0.0,-0.6330778450635176,0.3027509671188377,0.0,0.0,0.0,0.0,0.6330778450635175,-0.30275096711883753,0.7017447584425968,0.0,-36.272688625376595,17.346352659413363,0.0,0.0,0.0,0.0,36.27268862537659,-17.346352659413352,40.20701295418824
53,0.2650272846221924,1775721619.6911244,0.276871283,-19.108119438171837,0.4994267729166244,1.0322782248052262,-19.31,0.92,0.674454785267551,-0.20188056182816183,0.42057322708337563,-0.35782343953767526,0.5879415059901378,0.0,0.0,0.0,0.0,0.0,0.0,0.0006517541259474038,0.0006517541259474038,0.0,0.0,0.0,0.0,-0.6330778450635176,0.3027509671188377,0.0,0.0,0.0,0.0,0.6330778450635175,-0.30275096711883753,0.7017447584425968,0.0,-36.272688625376595,17.346352659413363,0.0,0.0,0.0,0.0,36.27268862537659,-17.346352659413352,40.20701295418824
54,0.2700328826904297,1775721619.69613,0.281876965,-19.108119438171837,0.4994267729166244,1.0322782248052262,-19.31,0.92,0.6744579541567686,-0.20188056182816183,0.42057322708337563,-0.3578202706484577,0.587939577397469,0.0,0.0,0.0,0.0,0.0,0.0,0.0006159265470385106,0.0006159265470385106,0.0,0.0,0.0,0.0,-0.6330778450635176,0.3027509671188377,0.0,0.0,0.0,0.0,0.6330778450635175,-0.30275096711883753,0.7017447584425968,0.0,-36.272688625376595,17.346352659413363,0.0,0.0,0.0,0.0,36.27268862537659,-17.346352659413352,40.20701295418824
55,0.2749903202056885,1775721619.7010875,0.286834445,-19.108119438171837,0.4994267729166244,1.0322782248052262,-19.31,0.92,0.6744609456932267,-0.20188056182816183,0.42057322708337563,-0.35781727911199956,0.5879377567519316,0.0,0.0,0.0,0.0,0.0,0.0,0.0005807956133337439,0.0005807956133337439,0.0,0.0,0.0,0.0,-0.6330778450635176,0.3027509671188377,0.0,0.0,0.0,0.0,0.6330778450635175,-0.30275096711883753,0.7017447584425968,0.0,-36.272688625376595,17.346352659413363,0.0,0.0,0.0,0.0,36.27268862537659,-17.346352659413352,40.20701295418824
56,0.2799994945526123,1775721619.7060966,0.291843545,-19.108119438171837,0.4994267729166244,1.0322782248052262,-19.31,0.92,0.6744637632631117,-0.20188056182816183,0.42057322708337563,-0.3578144615421145,0.5879360419910079,0.0,0.0,0.0,0.0,0.0,0.0,0.000546354143199755,0.000546354143199755,0.0,0.0,0.0,0.0,-0.6330778450635176,0.3027509671188377,0.0,0.0,0.0,0.0,0.6330778450635175,-0.30275096711883753,0.7017447584425968,0.0,-36.272688625376595,17.346352659413363,0.0,0.0,0.0,0.0,36.27268862537659,-17.346352659413352,40.20701295418824
57,0.28504443168640137,1775721619.7111416,0.296888499,-19.108119438171837,0.4994267729166244,1.0322782248052262,-19.31,0.92,0.6744664103653124,-0.20188056182816183,0.42057322708337563,-0.35781181443991383,0.5879344309837299,0.0,0.0,0.0,0.0,0.0,0.0,0.0005125915742394204,0.0005125915742394204,0.0,0.0,0.0,0.0,-0.6330778450635176,0.3027509671188377,0.0,0.0,0.0,0.0,0.6330778450635175,-0.30275096711883753,0.7017447584425968,0.0,-36.272688625376595,17.346352659413363,0.0,0.0,0.0,0.0,36.27268862537659,-17.346352659413352,40.20701295418824
58,0.2899913787841797,1775721619.7160885,0.301835393,-19.108119438171837,0.4994267729166244,1.0322782248052262,-19.31,0.92,0.6744688902986945,-0.20188056182816183,0.42057322708337563,-0.35780933450653174,0.5879329217209953,0.0,0.0,0.0,0.0,0.0,0.0,0.0004795002719646007,0.0004795002719646007,0.0,0.0,0.0,0.0,-0.6330778450635176,0.3027509671188377,0.0,0.0,0.0,0.0,0.6330778450635175,-0.30275096711883753,0.7017447584425968,0.0,-36.272688625376595,17.346352659413363,0.0,0.0,0.0,0.0,36.27268862537659,-17.346352659413352,40.20701295418824
59,0.2950162887573242,1775721619.7211134,0.306860418,-19.108119438171837,0.4994267729166244,1.0322782248052262,-19.31,0.92,0.6744712064679691,-0.20188056182816183,0.42057322708337563,-0.35780701833725714,0.5879315121294122,0.0,0.0,0.0,0.0,0.0,0.0,0.0004470694267716339,0.0004470694267716339,0.0,0.0,0.0,0.0,-0.6330778450635176,0.3027509671188377,0.0,0.0,0.0,0.0,0.6330778450635175,-0.30275096711883753,0.7017447584425968,0.0,-36.272688625376595,17.346352659413363,0.0,0.0,0.0,0.0,36.27268862537659,-17.346352659413352,40.20701295418824
60,0.29999780654907227,1775721619.726095,0.311841779,-19.108119438171837,0.4994267729166244,1.0322782248052262,-19.31,0.92,0.6744733620828399,-0.20188056182816183,0.42057322708337563,-0.3578048627223863,0.5879302002543879,0.0,0.0,0.0,0.0,0.0,0.0,0.00041529188457076893,0.00041529188457076893,0.0,0.0,0.0,0.0,-0.6330778450635176,0.3027509671188377,0.0,0.0,0.0,0.0,0.6330778450635175,-0.30275096711883753,0.7017447584425968,0.0,-36.272688625376595,17.346352659413363,0.0,0.0,0.0,0.0,36.27268862537659,-17.346352659413352,40.20701295418824
61,0.30501890182495117,1775721619.731116,0.31686287,-19.108119438171837,0.4994267729166244,1.0322782248052262,-19.31,0.92,0.6744753604576929,-0.20188056182816183,0.42057322708337563,-0.3578028643475334,0.5879289840777356,0.0,0.0,0.0,0.0,0.0,0.0,0.000384157351072409,0.000384157351072409,0.0,0.0,0.0,0.0,-0.6330778450635176,0.3027509671188377,0.0,0.0,0.0,0.0,0.6330778450635175,-0.30275096711883753,0.7017447584425968,0.0,-36.272688625376595,17.346352659413363,0.0,0.0,0.0,0.0,36.27268862537659,-17.346352659413352,40.20701295418824
62,0.31003880500793457,1775721619.736136,0.321882855,-19.108119438171837,0.4994267729166244,1.0322782248052262,-19.31,0.92,0.6744772047162824,-0.20188056182816183,0.42057322708337563,-0.3578010200889439,0.5879278616973921,0.0,0.0,0.0,0.0,0.0,0.0,0.0003536581779684135,0.0003536581779684135,0.0,0.0,0.0,0.0,-0.6330778450635176,0.3027509671188377,0.0,0.0,0.0,0.0,0.6330778450635175,-0.30275096711883753,0.7017447584425968,0.0,-36.272688625376595,17.346352659413363,0.0,0.0,0.0,0.0,36.27268862537659,-17.346352659413352,40.20701295418824
63,0.31502485275268555,1775721619.741122,0.326868931,-19.108119438171837,0.4994267729166244,1.0322782248052262,-19.31,0.92,0.6744788980799973,-0.20188056182816183,0.42057322708337563,-0.35779932672522896,0.5879268311519776,0.0,0.0,0.0,0.0,0.0,0.0,0.00032378378817141085,0.00032378378817141085,0.0,0.0,0.0,0.0,-0.6330778450635176,0.3027509671188377,0.0,0.0,0.0,0.0,0.6330778450635175,-0.30275096711883753,0.7017447584425968,0.0,-36.272688625376595,17.346352659413363,0.0,0.0,0.0,0.0,36.27268862537659,-17.346352659413352,40.20701295418824
64,0.3200101852416992,1775721619.7461073,0.331854242,-19.108119438171837,0.4994267729166244,1.0322782248052262,-19.31,0.92,0.6744804435844466,-0.20188056182816183,0.42057322708337563,-0.35779778122077965,0.5879258905932718,0.0,0.0,0.0,0.0,0.0,0.0,0.000294526983153676,0.000294526983153676,0.0,0.0,0.0,0.0,-0.6330778450635176,0.3027509671188377,0.0,0.0,0.0,0.0,0.6330778450635175,-0.30275096711883753,0.7017447584425968,0.0,-36.272688625376595,17.346352659413363,0.0,0.0,0.0,0.0,36.27268862537659,-17.346352659413352,40.20701295418824
65,0.32500624656677246,1775721619.7511034,0.336850272,-19.108119438171837,0.4994267729166244,1.0322782248052262,-19.31,0.92,0.6744818443615649,-0.20188056182816183,0.42057322708337563,-0.35779638044366135,0.5879250381145237,0.0,0.0,0.0,0.0,0.0,0.0,0.0002658776747975231,0.0002658776747975231,0.0,0.0,0.0,0.0,-0.6330778450635176,0.3027509671188377,0.0,0.0,0.0,0.0,0.6330778450635175,-0.30275096711883753,0.7017447584425968,0.0,-36.272688625376595,17.346352659413363,0.0,0.0,0.0,0.0,36.27268862537659,-17.346352659413352,40.20701295418824
66,0.33000922203063965,1775721619.7561064,0.341853358,-19.108119438171837,0.4994267729166244,1.0322782248052262,-19.31,0.92,0.6744831033638784,-0.20188056182816183,0.42057322708337563,-0.35779512144134784,0.5879242719182529,0.0,0.0,0.0,0.0,0.0,0.0,0.0002378294014753816,0.0002378294014753816,0.0,0.0,0.0,0.0,-0.6330778450635176,0.3027509671188377,0.0,0.0,0.0,0.0,0.6330778450635175,-0.30275096711883753,0.7017447584425968,0.0,-36.272688625376595,17.346352659413363,0.0,0.0,0.0,0.0,36.27268862537659,-17.346352659413352,40.20701295418824
67,0.3350253105163574,1775721619.7611225,0.346869423,-19.108119438171837,0.4994267729166244,1.0322782248052262,-19.31,0.92,0.6744842236409452,-0.20188056182816183,0.42057322708337563,-0.35779400116428106,0.5879235901480093,0.0,0.0,0.0,0.0,0.0,0.0,0.0002103727907946026,0.0002103727907946026,0.0,0.0,0.0,0.0,-0.6330778450635176,0.3027509671188377,0.0,0.0,0.0,0.0,0.6330778450635175,-0.30275096711883753,0.7017447584425968,0.0,-36.272688625376595,17.346352659413363,0.0,0.0,0.0,0.0,36.27268862537659,-17.346352659413352,40.20701295418824
68,0.3400108814239502,1775721619.766108,0.351854853,-19.108119438171837,0.4994267729166244,1.0322782248052262,-19.31,0.92,0.6744852080668379,-0.20188056182816183,0.42057322708337563,-0.35779301673838837,0.5879229910542159,0.0,0.0,0.0,0.0,0.0,0.0,0.00018350066181199674,0.00018350066181199674,0.0,0.0,0.0,0.0,-0.6330778450635176,0.3027509671188377,0.0,0.0,0.0,0.0,0.6330778450635175,-0.30275096711883753,0.7017447584425968,0.0,-36.272688625376595,17.346352659413363,0.0,0.0,0.0,0.0,36.27268862537659,-17.346352659413352,40.20701295418824
69,0.34499406814575195,1775721619.7710912,0.356838246,-19.108119438171837,0.4994267729166244,1.0322782248052262,-19.31,0.92,0.6744860596045671,-0.20188056182816183,0.42057322708337563,-0.35779216520065915,0.5879224728332424,0.0,0.0,0.0,0.0,0.0,0.0,0.0001572031656070906,0.0001572031656070906,0.0,0.0,0.0,0.0,-0.6330778450635176,0.3027509671188377,0.0,0.0,0.0,0.0,0.6330778450635175,-0.30275096711883753,0.7017447584425968,0.0,-36.272688625376595,17.346352659413363,0.0,0.0,0.0,0.0,36.27268862537659,-17.346352659413352,40.20701295418824
70,0.35001444816589355,1775721619.7761116,0.361858508,-19.108119438171837,0.4994267729166244,1.0322782248052262,-19.31,0.92,0.6744867810456093,-0.20188056182816183,0.42057322708337563,-0.3577914437596169,0.587922033785918,0.0,0.0,0.0,0.0,0.0,0.0,0.0001314734042939601,0.0001314734042939601,0.0,0.0,0.0,0.0,-0.6330778450635176,0.3027509671188377,0.0,0.0,0.0,0.0,0.6330778450635175,-0.30275096711883753,0.7017447584425968,0.0,-36.272688625376595,17.346352659413363,0.0,0.0,0.0,0.0,36.27268862537659,-17.346352659413352,40.20701295418824
71,0.35500097274780273,1775721619.7810981,0.366844953,-19.108119438171837,0.4994267729166244,1.0322782248052262,-19.31,0.92,0.6744873752682986,-0.20188056182816183,0.42057322708337563,-0.35779084953692764,0.5879216721602762,0.0,0.0,0.0,0.0,0.0,0.0,0.00010630187443241725,0.00010630187443241725,0.0,0.0,0.0,0.0,-0.6330778450635176,0.3027509671188377,0.0,0.0,0.0,0.0,0.6330778450635175,-0.30275096711883753,0.7017447584425968,0.0,-36.272688625376595,17.346352659413363,0.0,0.0,0.0,0.0,36.27268862537659,-17.346352659413352,40.20701295418824
72,0.3600170612335205,1775721619.7861142,0.37186109,-19.108119438171837,0.4994267729166244,1.0322782248052262,-19.31,0.92,0.6744878449851388,-0.20188056182816183,0.42057322708337563,-0.35779037982008743,0.5879213863053302,0.0,0.0,0.0,0.0,0.0,0.0,8.168229154061134e-05,8.168229154061134e-05,0.0,0.0,0.0,0.0,-0.6330778450635176,0.3027509671188377,0.0,0.0,0.0,0.0,0.6330778450635175,-0.30275096711883753,0.7017447584425968,0.0,-36.272688625376595,17.346352659413363,0.0,0.0,0.0,0.0,36.27268862537659,-17.346352659413352,40.20701295418824
73,0.36500072479248047,1775721619.7910979,0.37684476,-19.108119438171837,0.4994267729166244,1.0322782248052262,-19.31,0.92,0.6744881929956237,-0.20188056182816183,0.42057322708337563,-0.35779003180960256,0.5879211745172097,0.0,0.0,0.0,0.0,0.0,0.0,5.760576161864793e-05,5.760576161864793e-05,0.0,0.0,0.0,0.0,-0.6330778450635176,0.3027509671188377,0.0,0.0,0.0,0.0,0.6330778450635175,-0.30275096711883753,0.7017447584425968,0.0,-36.272688625376595,17.346352659413363,0.0,0.0,0.0,0.0,36.27268862537659,-17.346352659413352,40.20701295418824
74,0.36999964714050293,1775721619.7960968,0.381843779,-19.108119438171837,0.4994267729166244,1.0322782248052262,-19.31,0.92,0.6744884219375524,-0.20188056182816183,0.42057322708337563,-0.3577898028676738,0.5879210351904989,0.0,0.0,0.0,0.0,0.0,0.0,3.406560729786032e-05,3.406560729786032e-05,0.0,0.0,0.0,0.0,-0.6330778450635176,0.3027509671188377,0.0,0.0,0.0,0.0,0.6330778450635175,-0.30275096711883753,0.7017447584425968,0.0,-36.272688625376595,17.346352659413363,0.0,0.0,0.0,0.0,36.27268862537659,-17.346352659413352,40.20701295418824
75,0.3749701976776123,1775721619.8010674,0.386814336,-19.108119438171837,0.4994267729166244,1.0322782248052262,-19.31,0.92,0.6744885345298144,-0.20188056182816183,0.42057322708337563,-0.35778969027541185,0.587920966670482,0.0,0.0,0.0,0.0,0.0,0.0,1.1052718648226238e-05,1.1052718648226238e-05,0.0,0.0,0.0,0.0,-0.6330778450635176,0.3027509671188377,0.0,0.0,0.0,0.0,0.6330778450635175,-0.30275096711883753,0.7017447584425968,0.0,-36.272688625376595,17.346352659413363,0.0,0.0,0.0,0.0,36.27268862537659,-17.346352659413352,40.20701295418824
76,0.38001394271850586,1775721619.806111,0.391857962,-19.108119438171837,0.4994267729166244,1.0322782248052262,-19.31,0.92,0.6744885333340866,-0.20188056182816183,0.42057322708337563,-0.3577896914711396,0.5879209673981632,0.0,0.0,0.0,0.0,0.0,0.0,-1.1439053925006479e-05,1.1439053925006479e-05,0.0,0.0,0.0,0.0,-0.6330778450635176,0.3027509671188377,0.0,0.0,0.0,0.0,0.6330778450635175,-0.30275096711883753,0.7017447584425968,0.0,-36.272688625376595,17.346352659413363,0.0,0.0,0.0,0.0,36.27268862537659,-17.346352659413352,40.20701295418824
77,0.38500022888183594,1775721619.8110974,0.396844243,-19.108119438171837,0.4994267729166244,1.0322782248052262,-19.31,0.92,0.6744884209928715,-0.20188056182816183,0.42057322708337563,-0.3577898038123547,0.5879210357654012,0.0,0.0,0.0,0.0,0.0,0.0,-3.341828450422159e-05,3.341828450422159e-05,0.0,0.0,0.0,0.0,-0.6330778450635176,0.3027509671188377,0.0,0.0,0.0,0.0,0.6330778450635175,-0.30275096711883753,0.7017447584425968,0.0,-36.272688625376595,17.346352659413363,0.0,0.0,0.0,0.0,36.27268862537659,-17.346352659413352,40.20701295418824
78,0.39003443717956543,1775721619.8161316,0.401878485,-19.108119438171837,0.4994267729166244,1.0322782248052262,-19.31,0.92,0.6744881999952532,-0.20188056182816183,0.42057322708337563,-0.357790024809973,0.5879211702574589,0.0,0.0,0.0,0.0,0.0,0.0,-5.4891578832811394e-05,5.4891578832811394e-05,0.0,0.0,0.0,0.0,-0.6330778450635176,0.3027509671188377,0.0,0.0,0.0,0.0,0.6330778450635175,-0.30275096711883753,0.7017447584425968,0.0,-36.272688625376595,17.346352659413363,0.0,0.0,0.0,0.0,36.27268862537659,-17.346352659413352,40.20701295418824
79,0.39501237869262695,1775721619.8211095,0.406856396,-19.108119438171837,0.4994267729166244,1.0322782248052262,-19.31,0.92,0.6744878729049484,-0.20188056182816183,0.42057322708337563,-0.35779035190027786,0.5879213693142167,0.0,0.0,0.0,0.0,0.0,0.0,-7.586778145263903e-05,7.586778145263903e-05,0.0,0.0,0.0,0.0,-0.6330778450635176,0.3027509671188377,0.0,0.0,0.0,0.0,0.6330778450635175,-0.30275096711883753,0.7017447584425968,0.0,-36.272688625376595,17.346352659413363,0.0,0.0,0.0,0.0,36.27268862537659,-17.346352659413352,40.20701295418824
80,0.4000227451324463,1775721619.82612,0.411866779,-19.108119438171837,0.4994267729166244,1.0322782248052262,-19.31,0.92,0.6744874421364837,-0.20188056182816183,0.42057322708337563,-0.35779078266874254,0.5879216314663802,0.0,0.0,0.0,0.0,0.0,0.0,-9.635301735212515e-05,9.635301735212515e-05,0.0,0.0,0.0,0.0,-0.6330778450635176,0.3027509671188377,0.0,0.0,0.0,0.0,0.6330778450635175,-0.30275096711883753,0.7017447584425968,0.0,-36.272688625376595,17.346352659413363,0.0,0.0,0.0,0.0,36.27268862537659,-17.346352659413352,40.20701295418824
81,0.4050333499908447,1775721619.8311305,0.018860577,-19.3042385817079,0.9171434906280207,0.6803041019568768,-19.31,0.92,0.6744869101785347,-0.005761418292099307,0.0028565093719793433,-0.005817191778342168,0.008671407424101005,0.6042865642426896,-0.2961507479838558,0.6088566174012673,0.9075097232586242,0.0,0.0,-0.00011635563580043855,0.00011635563580043855,0.0,0.0,0.0,0.0,-0.7354341988370185,-0.45568281557569174,0.0,0.0,0.0,0.0,0.7354341988370185,0.4556828155756918,0.8651648913531093,0.0,-42.137275702946155,-26.10870212912539,0.0,0.0,0.0,0.0,42.137275702946155,26.10870212912539,49.57029685742757
82,0.41004347801208496,1775721619.8361406,0.023870572,-19.300863455351447,0.9154827919168483,0.6837068025213261,-19.31,0.92,0.674486279393314,-0.009136544648551848,0.0045172080831517025,-0.009220523128012137,0.0137440774057657,0.7341668879349507,-0.3586263320950856,0.739335931687224,1.1019217237607581,0.0,0.0,-0.00013582672273870997,0.00013582672273870997,0.0,0.0,0.0,0.0,-0.7354911267275351,-0.45438974921483444,0.0,0.0,0.0,0.0,0.7354911267275352,0.45438974921483455,0.8645329615962942,0.0,-42.140537430809346,-26.034614884017927,0.0,0.0,0.0,0.0,42.140537430809346,26.03461488401793,49.53408994941334
83,0.4150090217590332,1775721619.8411062,0.028836186,-19.296800307993443,0.9134924641290839,0.6878002767120673,-19.31,0.92,0.6744855559736251,-0.013199692006555352,0.006507535870916126,-0.013314720738442198,0.01984594871811081,0.8756971526356236,-0.4261398057698373,0.8813404997839306,1.3134693425257713,0.0,0.0,-0.0001530509861635216,0.0001530509861635216,0.0,0.0,0.0,0.0,-0.7355593009460945,-0.4528938677486845,0.0,0.0,0.0,0.0,0.7355593009460946,0.45289386774868445,0.8638057308519492,0.0,-42.14444352580439,-25.948907189355694,0.0,0.0,0.0,0.0,42.1444435258044,25.94890718935569,49.492422697030214
84,0.4200451374053955,1775721619.8461423,0.033872197,-19.29197399591614,0.9111392619685481,0.6926591070874857,-19.31,0.92,0.6744847535287788,-0.018026004083857572,0.008860738031451931,-0.01817435355870689,0.027087942501603002,1.0143507889541328,-0.49151778716681477,1.0202182069414036,1.5203099841571674,0.0,0.0,-0.00016748670558982352,0.00016748670558982352,0.0,0.0,0.0,0.0,-0.7356366887553062,-0.4512226576005446,0.0,0.0,0.0,0.0,0.7356366887553061,0.4512226576005447,0.8629966538608185,0.0,-42.14887752065799,-25.85315390118784,0.0,0.0,0.0,0.0,42.14887752065798,25.85315390118785,49.44606600013728
85,0.42503809928894043,1775721619.8511353,0.038865289,-19.286511610307524,0.9084887656330524,0.6981542082865916,-19.31,0.92,0.6744838851932807,-0.023488389692474243,0.011511234366947676,-0.023670323093310852,0.03527743134552249,1.1469679868479685,-0.5532638986132181,1.1528020992989272,1.7177279134108498,0.0,0.0,-0.00017946856024195397,0.00017946856024195397,0.0,0.0,0.0,0.0,-0.7357189419876333,-0.44944506885399,0.0,0.0,0.0,0.0,0.7357189419876331,0.44944506885398994,0.8621387542133633,0.0,-42.15359028372164,-25.751305568300314,0.0,0.0,0.0,0.0,42.153590283721634,25.75130556830031,49.39691197109234
86,0.43001365661621094,1775721619.8561108,0.043840869,-19.280421669086888,0.905548466593207,0.7042759546913163,-19.31,0.92,0.6744829624319603,-0.029578330913111017,0.01445153340679306,-0.029792992259356055,0.04439985208510502,1.2743114667688185,-0.611748005404414,1.279859353662183,1.9068679297768256,0.0,0.0,-0.00018929608476597705,0.00018929608476597705,0.0,0.0,0.0,0.0,-0.735804926012782,-0.4475700413772749,0.0,0.0,0.0,0.0,0.7358049260127819,0.44757004137727474,0.8612362225795724,0.0,-42.15851680546821,-25.643874407413474,0.0,0.0,0.0,0.0,42.1585168054682,25.643874407413467,49.34520071759908
87,0.4350285530090332,1775721619.8611257,0.048855588,-19.273654866041436,0.9022982963744599,0.7110727329561582,-19.31,0.92,0.6744819953874822,-0.036345133958562315,0.017701703625540133,-0.036590737568676035,0.05452706804452281,1.39779972168288,-0.6676160998877968,1.4028035509496524,2.089835668497187,0.0,0.0,-0.0001972291605961375,0.0001972291605961375,0.0,0.0,0.0,0.0,-0.7358947632883722,-0.44558326524592984,0.0,0.0,0.0,0.0,0.7358947632883721,0.4455832652459297,0.8602822495567799,0.0,-42.16366410220248,-25.530040520250072,0.0,0.0,0.0,0.0,42.163664102202475,25.53004052025007,49.29054208962373
88,0.440032958984375,1775721619.86613,0.053860092,-19.26629665087685,0.8987831483081699,0.718457501807509,-19.31,0.92,0.6744809929074691,-0.04370334912314888,0.021216851691830185,-0.0439765089000399,0.06552916034353137,1.5161753543301513,-0.7202917080414483,1.5203804358285498,2.2647658862234827,0.0,0.0,-0.00020350112353830562,0.00020350112353830562,0.0,0.0,0.0,0.0,-0.7359870178609328,-0.44350667679678124,0.0,0.0,0.0,0.0,0.7359870178609329,0.44350667679678146,0.8592875321003756,0.0,-42.168949899850986,-25.41106076632824,0.0,0.0,0.0,0.0,42.16894989985099,25.411060766328255,49.233548977563764
89,0.44501614570617676,1775721619.8711133,0.058843374,-19.25839303033018,0.8950285909546477,0.726382957930369,-19.31,0.92,0.6744799628057329,-0.05160696966981959,0.024971409045352333,-0.05190299512463614,0.07733544783034482,1.6292237309140314,-0.7696879325563095,1.632379537348916,2.4313478633983463,0.0,0.0,-0.00020831430216952345,0.00020831430216952345,0.0,0.0,0.0,0.0,-0.736081054453813,-0.4413462310207266,0.0,0.0,0.0,0.0,0.736081054453813,0.4413462310207268,0.8582550986519323,0.0,-42.174337799742815,-25.287276341493445,0.0,0.0,0.0,0.0,42.174337799742815,25.287276341493456,49.17439489833983
90,0.45003747940063477,1775721619.8761346,0.063864693,-19.249871460454013,0.8910041191689977,0.7349205993837975,-19.31,0.92,0.6744789118901169,-0.060128539545985404,0.028995880831002352,-0.06044168749368062,0.09005220685903577,1.738264705590264,-0.8163766755619832,1.740106944627531,2.5915260449865065,0.0,0.0,-0.00021185139192691162,0.00021185139192691162,0.0,0.0,0.0,0.0,-0.7361776863356752,-0.4390744843601283,0.0,0.0,0.0,0.0,0.736177686335675,0.4390744843601282,0.8571720881332173,0.0,-42.17987439873992,-25.157114845718223,0.0,0.0,0.0,0.0,42.17987439873991,25.15711484571822,49.11234296644919
91,0.45500898361206055,1775721619.8811061,0.068836169,-19.240907085900165,0.8867962430204568,0.7438937559356783,-19.31,0.92,0.6744778461534822,-0.06909291409983354,0.03320375697954325,-0.06941590978219614,0.10341609539744544,1.8414070521647115,-0.8595516757580965,1.841695322703218,2.7425263310909878,0.0,0.0,-0.00021427064304699352,0.00021427064304699352,0.0,0.0,0.0,0.0,-0.7362749563987211,-0.4367290022094983,0.0,0.0,0.0,0.0,0.736274956398721,0.43672900220949806,0.8560566761557568,0.0,-42.18544756282542,-25.022728617563857,0.0,0.0,0.0,0.0,42.185447562825416,25.022728617563843,49.04843456772236
92,0.4599928855895996,1775721619.88609,0.073819938,-19.231417848087776,0.8823701066807434,0.753383413059227,-19.31,0.92,0.6744767708086282,-0.07858215191222229,0.03762989331925659,-0.07890664225059874,0.11754752937275281,1.9399944158617894,-0.8997870855827398,1.9384717634850719,2.886324290648113,0.0,0.0,-0.00021571437362866646,0.00021571437362866646,0.0,0.0,0.0,0.0,-0.7363738296065964,-0.4342780589038692,0.0,0.0,0.0,0.0,0.7363738296065963,0.4342780589038693,0.8548940573982236,0.0,-42.1911125803436,-24.882299910325468,0.0,0.0,0.0,0.0,42.19111258034359,24.88229991032547,48.98182141973296
93,0.4650149345397949,1775721619.891112,0.078842119,-19.221370643390056,0.8777147361494899,0.7634212683620032,-19.31,0.92,0.6744756904293004,-0.08862935660994253,0.042285263850510124,-0.08894557793270275,0.13249347993687133,2.034469849589548,-0.9372471420976523,2.0308659548961905,3.02356020297522,0.0,0.0,-0.0002163057326975794,0.0002163057326975794,0.0,0.0,0.0,0.0,-0.7364746181308075,-0.4317029073088933,0.0,0.0,0.0,0.0,0.7364746181308073,0.4317029073088934,0.8536757366411847,0.0,-42.19688733740425,-24.73475459232697,0.0,0.0,0.0,0.0,42.196887337404235,24.734754592326972,48.912016782261446
94,0.47003674507141113,1775721619.896134,0.083863977,-19.210861936662404,0.8728793285321726,0.7739095287996649,-19.31,0.92,0.6744746089865357,-0.09913806333759467,0.04712067146782739,-0.09943491981312924,0.14810812455821354,2.1240491924040756,-0.9716077788343517,2.1181068680648005,3.1530910789552378,0.0,0.0,-0.0002161554997505263,0.0002161554997505263,0.0,0.0,0.0,0.0,-0.7365763249148412,-0.42901705059371165,0.0,0.0,0.0,0.0,0.7365763249148412,0.4290170505937114,0.8524085359293282,0.0,-42.202714706877224,-24.580866338170186,0.0,0.0,0.0,0.0,42.202714706877224,24.580866338170175,48.8394115296761
95,0.4750235080718994,1775721619.9011207,0.088850587,-19.199993952354305,0.8679147769025909,0.7847449540985878,-19.31,0.92,0.6744735299499208,-0.11000604764569388,0.05208522309740915,-0.11027142414866697,0.16423759608417549,2.2081612896258203,-1.0026628593451685,2.1996423387216297,3.27410071757253,0.0,0.0,-0.0002153594123267182,0.0002153594123267182,0.0,0.0,0.0,0.0,-0.7366779875412613,-0.42623453131514183,0.0,0.0,0.0,0.0,0.7366779875412615,0.42623453131514166,0.8510994847920432,0.0,-42.20853954630532,-24.42143972709435,0.0,0.0,0.0,0.0,42.208539546305325,24.421439727094338,48.76440842434287
96,0.4800262451171875,1775721619.9061234,0.093853376,-19.18868133534197,0.8627861709623793,0.7960113581921753,-19.31,0.92,0.6744724563245592,-0.12131866465803043,0.057213829037620734,-0.12153890186761607,0.18100647859880525,2.287701342085224,-1.0307502310321457,2.2763424552194653,3.3878840657239055,0.0,0.0,-0.00021400366683547233,0.00021400366683547233,0.0,0.0,0.0,0.0,-0.7367803811139747,-0.42332080195248933,0.0,0.0,0.0,0.0,0.7367803811139746,0.4233208019524892,0.8497327999790006,0.0,-42.214406265871055,-24.254495331971018,0.0,0.0,0.0,0.0,42.21440626587105,24.25449533197101,48.686103152630906
97,0.48498964309692383,1775721619.9110868,0.09881676,-19.177076523048353,0.857566659044048,0.8075556534678645,-19.31,0.92,0.6744713907214528,-0.13292347695164608,0.06243334095595199,-0.13308426274641172,0.1981867648925954,2.3618192811543532,-1.0555791501573817,2.3473904740664016,3.4932334157363623,0.0,0.0,-0.00021216263752624496,0.00021216263752624496,0.0,0.0,0.0,0.0,-0.7368820668903621,-0.42030195407096743,0.0,0.0,0.0,0.0,0.7368820668903622,0.4203019540709674,0.8483212322584445,0.0,-42.22023243169456,-24.081528089367804,0.0,0.0,0.0,0.0,42.22023243169457,24.0815280893678,48.605226279746134
98,0.49002718925476074,1775721619.9161243,0.103854412,-19.164934134490444,0.8521507849609286,0.8196203943664178,-19.31,0.92,0.6744703353938116,-0.14506586550955447,0.06784921503907149,-0.14515005897260613,0.21613921656470708,2.432161868237958,-1.0776861394073798,2.4143601798632752,3.592485747569636,0.0,0.0,-0.00020990391866857085,0.00020990391866857085,0.0,0.0,0.0,0.0,-0.7369850273586891,-0.4170994448718114,0.0,0.0,0.0,0.0,0.7369850273586893,0.4170994448718113,0.8468287179018323,0.0,-42.22613163198639,-23.89803782840434,0.0,0.0,0.0,0.0,42.226131631986405,23.898037828404334,48.51971150624958
99,0.49500179290771484,1775721619.921099,0.108828941,-19.15260822477763,0.8467011286759744,0.8318523213313338,-19.31,0.92,0.6744692922810006,-0.15739177522236858,0.07329887132402568,-0.1573830290503332,0.23433803207777154,2.4967944814635596,-1.0964580308799041,2.4754080872745994,3.682912990377646,0.0,0.0,-0.0002072856896880053,0.0002072856896880053,0.0,0.0,0.0,0.0,-0.7370860591886261,-0.41379140907967377,0.0,0.0,0.0,0.0,0.7370860591886261,0.41379140907967393,0.8452923688750307,0.0,-42.23192032943827,-23.70850133903664,0.0,0.0,0.0,0.0,42.23192032943827,23.708501339036648,48.431685191154806
100,0.5000057220458984,1775721619.9261029,0.113832888,-19.1398971362805,0.8411326888909285,0.8444502444971134,-19.31,0.92,0.6744682630480198,-0.17010286371949945,0.07886731110907153,-0.1699819814490936,0.25307886325118045,2.5569685462331297,-1.112275113245595,2.531721517530128,3.7662790544908007,0.0,0.0,-0.00020436053488007624,0.00020436053488007624,0.0,0.0,0.0,0.0,-0.7371865888500785,-0.4103081155285924,0.0,0.0,0.0,0.0,0.7371865888500784,0.4103081155285926,0.8436805179978019,0.0,-42.23768025475537,-23.50892331975454,0.0,0.0,0.0,0.0,42.23768025475536,23.50892331975455,48.33933293868514
101,0.5050311088562012,1775721619.9311283,0.118858209,-19.12684097339555,0.8354685728665465,0.8573726711714241,-19.31,0.92,0.6744672491116387,-0.18315902660445005,0.08453142713345352,-0.18290542205978544,0.27229980649786784,2.6125134496878917,-1.125065168619532,2.583132176102592,3.842339131005687,0.0,0.0,-0.0002011735919392634,0.0002011735919392634,0.0,0.0,0.0,0.0,-0.7372858981255711,-0.4066420591336589,0.0,0.0,0.0,0.0,0.7372858981255712,0.40664205913365903,0.8419906530545885,0.0,-42.2433702571076,-23.298873760867906,0.0,0.0,0.0,0.0,42.24337025710761,23.298873760867913,48.2425108094919
