sample_idx,t_rel_s,stamp_s,t_in_traj_s,x_des_m,y_des_m,z_des_m,x_act_m,y_act_m,z_act_m,ex_m,ey_m,ez_m,e_pos_norm_m,vx_des_mps,vy_des_mps,vz_des_mps,speed_des_mps,vx_act_mps,vy_act_mps,vz_act_mps,speed_act_mps,wx_act_radps,wy_act_radps,wz_act_radps,roll_des_rad,pitch_des_rad,yaw_des_rad,roll_act_rad,pitch_act_rad,yaw_act_rad,e_roll_rad,e_pitch_rad,e_yaw_rad,e_ang_norm_rad,roll_des_deg,pitch_des_deg,yaw_des_deg,roll_act_deg,pitch_act_deg,yaw_act_deg,e_roll_deg,e_pitch_deg,e_yaw_deg,e_ang_norm_deg
0,0.0027265548706054688,1775824090.8892229,0.046151648,-19.329513610812533,0.7380611747058248,0.9317916092590257,-19.31,0.92,0.9759367281957231,0.019513610812534665,0.18193882529417527,0.04414511893669737,0.1882320607184192,-0.8030328492766968,-6.877768720703649,-1.7210730980830975,7.135170421332087,0.0,0.0,0.00043685709387964193,0.00043685709387964193,0.0,0.0,0.0,0.0,0.24361227670454957,-1.6870278199146587,0.0,0.0,0.0,0.0,-0.24361227670454966,1.6870278199146584,1.7045262704127442,0.0,13.957955292743874,-96.65957400226624,0.0,0.0,0.0,0.0,-13.957955292743879,96.65957400226623,97.66216136382513
1,0.004225015640258789,1775824090.8907213,0.047650144,-19.330744069907638,0.7274083776197434,0.9291365065306758,-19.31,0.92,0.9759375974927582,0.02074406990763933,0.19259162238025662,0.0468010909620824,0.1992791799527324,-0.825718494195904,-7.0210203807461715,-1.7616871301024852,7.285607714039989,0.0,0.0,0.00043244764345155075,0.00043244764345155075,0.0,0.0,0.0,0.0,0.24422431539839867,-1.6878651869829466,0.0,0.0,0.0,0.0,-0.2442243153983985,1.6878651869829469,1.7054425835133808,0.0,13.993022526800127,-96.70755160118237,0.0,0.0,0.0,0.0,-13.993022526800116,96.70755160118239,97.71466223720415
2,0.009220123291015625,1775824090.8957164,0.052645172,-19.335088015464642,0.6904225322466118,0.9198606909045073,-19.31,0.92,0.9759397325625216,0.02508801546464312,0.22957746775338828,0.05607904165801436,0.23765538313552573,-0.8996995934557718,-7.459813897469318,-1.889678046507873,7.747849112030685,0.0,0.0,0.00042162797185754577,0.00042162797185754577,0.0,0.0,0.0,0.0,0.24638230167857064,-1.690822776328289,0.0,0.0,0.0,0.0,-0.24638230167857067,1.6908227763282895,1.7086795777824861,0.0,14.116666032901117,-96.87700898820336,0.0,0.0,0.0,0.0,-14.116666032901119,96.87700898820339,97.90012834713193
3,0.014569997787475586,1775824090.9010663,0.057995179,-19.340143220518815,0.6485500792538211,0.9092495789838878,-19.31,0.92,0.9759418142346327,0.03014322051881635,0.2714499207461789,0.06669223525074486,0.2811432507799067,-0.9761426829560272,-7.863727954937917,-2.0141543740692662,8.176055878560458,0.0,0.0,0.0004110885432431919,0.0004110885432431919,0.0,0.0,0.0,0.0,0.24891023094728845,-1.6942968852088405,0.0,0.0,0.0,0.0,-0.24891023094728837,1.694296885208841,1.712483062193204,0.0,14.261505710906238,-97.07606076462787,0.0,0.0,0.0,0.0,-14.261505710906235,97.0760607646279,98.11805195130985
4,0.019298076629638672,1775824090.9057944,0.062723239,-19.344945229702066,0.6098869947647416,0.8993444947403748,-19.31,0.92,0.9759438438977202,0.03494522970206759,0.3101130052352584,0.07659934915734534,0.3213389260365177,-1.0412923023972451,-8.163809964876224,-2.113303259037979,8.496948479678139,0.0,0.0,0.0004008184241878624,0.0004008184241878624,0.0,0.0,0.0,0.0,0.2513514828782029,-1.6976610976381357,0.0,0.0,0.0,0.0,-0.25135148287820286,1.6976610976381359,1.7161674657151007,0.0,14.4013791432758,-97.26881593821194,0.0,0.0,0.0,0.0,-14.401379143275797,97.26881593821196,98.32915272313768
5,0.02409982681274414,1775824090.9105961,0.067524991,-19.3501318327599,0.5692996213980578,0.8888301344523978,-19.31,0.92,0.9759454310523578,0.04013183275990073,0.35070037860194225,0.08711529659995998,0.3635799698194515,-1.105145974737187,-8.413948565174008,-2.2035712323790366,8.767645308692638,0.0,0.0,0.00039278831464773623,0.00039278831464773623,0.0,0.0,0.0,0.0,0.2540539920741621,-1.7013956076741041,0.0,0.0,0.0,0.0,-0.25405399207416224,1.7013956076741046,1.7202588307291302,0.0,14.556221514299557,-97.48278760182218,0.0,0.0,0.0,0.0,-14.556221514299564,97.48278760182221,98.56357067088905
6,0.029237985610961914,1775824090.9157343,0.072663194,-19.356014957271093,0.5246912673503711,0.8771282293929339,-19.31,0.92,0.9759477524002518,0.04601495727109395,0.39530873264962896,0.09881952300731789,0.4100630055602556,-1.1708939940786143,-8.62065081948739,-2.2885271646550294,8.995775112810566,0.0,0.0,0.00038105194770259065,0.00038105194770259065,0.0,0.0,0.0,0.0,0.2572274675323843,-1.7057945270478905,0.0,0.0,0.0,0.0,-0.25722746753238424,1.7057945270478907,1.7250799803370453,0.0,14.738048264444032,-97.73482711635847,0.0,0.0,0.0,0.0,-14.738048264444028,97.73482711635849,98.83980219582374
7,0.03421926498413086,1775824090.9207156,0.077644321,-19.36203431900328,0.48058415040131,0.8653962504673857,-19.31,0.92,0.9759496337760465,0.052034319003279705,0.43941584959869007,0.11055338330866082,0.4560876119712805,-1.2320860385993446,-8.760868142964531,-2.359401168697286,9.156288576698111,0.0,0.0,0.000371541425096368,0.000371541425096368,0.0,0.0,0.0,0.0,0.2606213340744162,-1.7105151579564746,0.0,0.0,0.0,0.0,-0.2606213340744161,1.7105151579564746,1.7302559305991676,0.0,14.932502493533118,-98.00529934405935,0.0,0.0,0.0,0.0,-14.932502493533114,98.00529934405935,99.13636230081298
8,0.03961753845214844,1775824090.9261138,0.083042694,-19.368894625196198,0.43216961236720375,0.8523164813322188,-19.31,0.92,0.9759514682171783,0.05889462519619926,0.4878303876327963,0.12363498688495944,0.5066879453440837,-1.2955736018792405,-8.845948544159729,-2.4234451142062596,9.262958643186213,0.0,0.0,0.00036227237655686134,0.00036227237655686134,0.0,0.0,0.0,0.0,0.2647080967685615,-1.7162219415993096,0.0,0.0,0.0,0.0,-0.26470809676856133,1.7162219415993096,1.736516089566042,0.0,15.16665674777916,-98.3322739613881,0.0,0.0,0.0,0.0,-15.166656747779149,98.3322739613881,99.49504298869586
9,0.04423403739929199,1775824090.9307303,0.087659293,-19.375027624138443,0.39053654237478885,0.8408823127510371,-19.31,0.92,0.9759532568665196,0.06502762413844465,0.5294634576252112,0.13507094411548248,0.5502765711946879,-1.3475317283063502,-8.86352002050856,-2.467679878276074,9.298778032322149,0.0,0.0,0.00035322636211432127,0.00035322636211432127,0.0,0.0,0.0,0.0,0.26859470508051214,-1.7216721995172277,0.0,0.0,0.0,0.0,-0.268594705080512,1.7216721995172275,1.7424977125344456,0.0,15.389343000674396,-98.64455073734256,0.0,0.0,0.0,0.0,-15.389343000674387,98.64455073734254,99.8377647394239
10,0.049225568771362305,1775824090.9357219,0.09265083,-19.38192270376521,0.3455702595552406,0.8283163397785134,-19.31,0.92,0.9759550008503745,0.07192270376521037,0.5744297404447594,0.14763866107186108,0.5974442034762942,-1.4012871661494228,-8.825272562982848,-2.5045797545699906,9.28019187732424,0.0,0.0,0.0003444014776957765,0.0003444014776957765,0.0,0.0,0.0,0.0,0.2732730571120388,-1.7282629637084952,0.0,0.0,0.0,0.0,-0.27327305711203875,1.7282629637084952,1.7497345614320565,0.0,15.657392827157329,-99.02217370926813,0.0,0.0,0.0,0.0,-15.657392827157325,99.02217370926813,100.25240563823091
11,0.054219961166381836,1775824090.9407163,0.097645136,-19.38908386450413,0.30091873126563057,0.8155874262179454,-19.31,0.92,0.9759567012408934,0.07908386450413118,0.6190812687343694,0.16036927502294795,0.6443866690846811,-1.4525533190368198,-8.727474471304124,-2.5301368079144897,9.202190720620488,0.0,0.0,0.00033579371966605833,0.00033579371966605833,0.0,0.0,0.0,0.0,0.27853707256674837,-1.7357191561224108,0.0,0.0,0.0,0.0,-0.2785370725667482,1.7357191561224106,1.7579260194116098,0.0,15.958998696003825,-99.44938206582296,0.0,0.0,0.0,0.0,-15.958998696003816,99.44938206582295,100.72174160851807
12,0.05922365188598633,1775824090.94572,0.102648772,-19.39650884213807,0.25682288928572433,0.8027352345703087,-19.31,0.92,0.9759583591533353,0.08650884213806975,0.6631771107142757,0.17322312458302658,0.6908646110734801,-1.501388374542145,-8.569780793500618,-2.544343290604886,9.06471139531251,0.0,0.0,0.0003274051869626847,0.0003274051869626847,0.0,0.0,0.0,0.0,0.2845094231422153,-1.7442318297770165,0.0,0.0,0.0,0.0,-0.2845094231422154,1.744231829777016,1.767283307187615,0.0,16.301189177750608,-99.93712233860407,0.0,0.0,0.0,0.0,-16.301189177750615,99.93712233860406,101.25787470577252
13,0.06424403190612793,1775824090.9507403,0.107669254,-19.404198032136126,0.21352224204847892,0.789797081146772,-19.31,0.92,0.9759599756438938,0.0941980321361271,0.7064777579515211,0.18616289449712176,0.7366415105233165,-1.5478458311570795,-8.351485411975453,-2.5471309703726153,8.867412896876997,0.0,0.0,0.00031922819131068335,0.00031922819131068335,0.0,0.0,0.0,0.0,0.29135067004307685,-1.7540546828782286,0.0,0.0,0.0,0.0,-0.291350670043077,1.7540546828782286,1.7780869054862287,0.0,16.69316375177693,-100.49993036408053,0.0,0.0,0.0,0.0,-16.69316375177694,100.49993036408053,101.8768752918378
14,0.07031106948852539,1775824090.9568074,0.113736124,-19.413791342032454,0.16288864718213225,0.7741874518937908,-19.31,0.92,0.9759615517826091,0.10379134203245499,0.7571113528178678,0.20177409988881834,0.7903815728067949,-1.6005884756078894,-8.007401554681701,-2.535173386059492,8.550290475975192,0.0,0.0,0.0003112595127426911,0.0003112595127426911,0.0,0.0,0.0,0.0,0.301027264540973,-1.7680847916866886,0.0,0.0,0.0,0.0,-0.30102726454097306,1.7680847916866886,1.7935275979451173,0.0,17.247591776565894,-101.3037963849146,0.0,0.0,0.0,0.0,-17.247591776565898,101.3037963849146,102.7615618024916
15,0.07422614097595215,1775824090.9607224,0.117651387,-19.42014770905795,0.13142853084908002,0.7641728970050301,-19.31,0.92,0.975963088548276,0.11014770905795146,0.78857146915092,0.21179019154324585,0.8239129596040351,-1.6326519075125392,-7.738696086789619,-2.5185516514153106,8.300365762762752,0.0,0.0,0.0003034779742937897,0.0003034779742937897,0.0,0.0,0.0,0.0,0.30828673175347043,-1.7787197439025841,0.0,0.0,0.0,0.0,-0.30828673175347054,1.7787197439025846,1.8052381107001128,0.0,17.6635286093556,-101.91313426220871,0.0,0.0,0.0,0.0,-17.663528609355602,101.91313426220874,103.43252475928696
16,0.07922983169555664,1775824090.9657261,0.122654948,-19.428448408438058,0.09287861148955759,0.7514929872493126,-19.31,0.92,0.975964586882797,0.11844840843805926,0.8271213885104425,0.2244715996334844,0.8651862896711707,-1.6713736849177427,-7.342033421134768,-2.4871417943479406,7.92999489639733,0.0,0.0,0.0002958882406563324,0.0002958882406563324,0.0,0.0,0.0,0.0,0.3190211493089368,-1.794626432721867,0.0,0.0,0.0,0.0,-0.319021149308937,1.7946264327218673,1.822761236895938,0.0,18.27856543081496,-102.82452039758157,0.0,0.0,0.0,0.0,-18.278565430814968,102.82452039758158,104.43652593418288
17,0.08418679237365723,1775824090.970683,0.127612043,-19.436856878033833,0.05679038792203263,0.7391137804765981,-19.31,0.92,0.9759660477536328,0.12685687803383416,0.8632096120779674,0.23685226727703468,0.9040589020647704,-1.707241839596563,-6.890117546192576,-2.444773446942253,7.5076835113165075,0.0,0.0,0.000288493559898974,0.000288493559898974,0.0,0.0,0.0,0.0,0.3316845135238761,-1.8136856534278387,0.0,0.0,0.0,0.0,-0.33168451352387596,1.8136856534278385,1.8437652415536898,0.0,19.004122754767977,-103.91653330484209,0.0,0.0,0.0,0.0,-19.00412275476797,103.91653330484208,105.63996675394519
18,0.08925032615661621,1775824090.9757466,0.132675363,-19.445622646882203,0.02239379311833499,0.7267151859986052,-19.31,0.92,0.9759674721323366,0.13562264688220438,0.897606206881665,0.2492522861337314,0.9413910489922438,-1.7413158512499474,-6.3679566485917976,-2.3899369919240523,7.021029240611792,0.0,0.0,0.0002812870438923681,0.0002812870438923681,0.0,0.0,0.0,0.0,0.34733903390983817,-1.8377206679827294,0.0,0.0,0.0,0.0,-0.34733903390983834,1.8377206679827296,1.8702571101344088,0.0,19.901060703185113,-105.29363819937282,0.0,0.0,0.0,0.0,-19.90106070318512,105.29363819937284,107.1578390150356
19,0.09428763389587402,1775824090.980784,0.137712747,-19.454508234538537,-0.009049791134164972,0.7146848756855246,-19.31,0.92,0.9759688609215662,0.144508234538538,0.929049791134165,0.26128398523604157,0.9758511490984211,-1.7726452653634264,-5.787736912369084,-2.3237882890766564,6.483838509406662,0.0,0.0,0.0002742599362092747,0.0002742599362092747,0.0,0.0,0.0,0.0,0.3665502634630581,-1.8680009836610627,0.0,0.0,0.0,0.0,-0.3665502634630582,1.8680009836610623,1.9036246401545482,0.0,21.00178307584161,-107.02857249006514,0.0,0.0,0.0,0.0,-21.00178307584162,107.02857249006512,109.06965765796568
20,0.09976696968078613,1775824090.9862633,0.143192128,-19.464344910534425,-0.0397502383469682,0.7020123452835374,-19.31,0.92,0.9759702150291993,0.15434491053442656,0.9597502383469683,0.27395786974566194,1.009948407499375,-1.8038129098292723,-5.087823065437051,-2.2387056806204373,5.843927419407451,0.0,0.0,0.0002674107725207625,0.0002674107725207625,0.0,0.0,0.0,0.0,0.3931309485655741,-1.9115057808951383,0.0,0.0,0.0,0.0,-0.3931309485655743,1.9115057808951388,1.9515138465088078,0.0,22.52474414878204,-109.52121376015009,0.0,0.0,0.0,0.0,-22.52474414878205,109.52121376015012,111.81350706629583
21,0.1042330265045166,1775824090.9907293,0.147658181,-19.472483379670372,-0.061808949281377916,0.692052561606119,-19.31,0.92,0.9759715353150827,0.1624833796703733,0.981808949281378,0.2839189737089637,1.0348718013309963,-1.826973032385749,-4.46433010265209,-2.159237537816628,5.284920100741998,0.0,0.0,0.0002607337497123574,0.0002607337497123574,0.0,0.0,0.0,0.0,0.42088216188090566,-1.959240947966543,0.0,0.0,0.0,0.0,-0.42088216188090577,1.959240947966543,2.0039378449389047,0.0,24.11477154811779,-112.25623736769344,0.0,0.0,0.0,0.0,-24.114771548117798,112.25623736769344,114.81718092154084
22,0.10956907272338867,1775824090.9960654,0.152994221,-19.482336177029158,-0.08435614677838559,0.680648027442281,-19.31,0.92,0.9759723116165593,0.17233617702915893,1.0043561467783857,0.29532428417427825,1.0609653435940316,-1.852002797861286,-3.6569483839827517,-2.052371584005595,4.5842572970148305,0.0,0.0,0.0002568102660701096,0.0002568102660701096,0.0,0.0,0.0,0.0,0.46419140024507516,-2.039577834326176,0.0,0.0,0.0,0.0,-0.4641914002450753,2.0395778343261757,2.0917340649174636,0.0,26.596208120310774,-116.85920189532253,0.0,0.0,0.0,0.0,-26.596208120310784,116.85920189532251,119.84753378351442
23,0.11399102210998535,1775824091.0004873,0.157416053,-19.490596969445164,-0.09965440572724613,0.6716526957178572,-19.31,0.92,0.9759735795773423,0.18059696944516546,1.019654405727246,0.3043208838594851,1.0793153259565897,-1.8705648531440753,-2.936390400868066,-1.9539835690369638,3.9924244819651213,0.0,0.0,0.00025040268506062964,0.00025040268506062964,0.0,0.0,0.0,0.0,0.5114277387715952,-2.1379987447275055,0.0,0.0,0.0,0.0,-0.5114277387715953,2.137998744727506,2.198316848054761,0.0,29.302650957531583,-122.49830467715394,0.0,0.0,0.0,0.0,-29.30265095753159,122.49830467715395,125.95427742603967
24,0.11868119239807129,1775824091.0051775,0.162106268,-19.499443886709926,-0.11228170977869902,0.6626092578559094,-19.31,0.92,0.9759748159144481,0.1894438867099275,1.0322817097786992,0.3133655580585387,1.0953047464211674,-1.888094817903597,-2.1210852150077826,-1.8398862712353423,3.3836498077962087,0.0,0.0,0.00024415730929076894,0.00024415730929076894,0.0,0.0,0.0,0.0,0.5749083630934645,-2.2981455536435136,0.0,0.0,0.0,0.0,-0.5749083630934644,2.298145553643513,2.3689644597769415,0.0,32.939822812030215,-131.67404093052926,0.0,0.0,0.0,0.0,-32.93982281203021,131.67404093052923,135.73166536170783
25,0.12367010116577148,1775824091.0101664,0.167095331,-19.50893878717934,-0.12137547743637118,0.6536038690176487,-19.31,0.92,0.9759760214105084,0.19893878717934044,1.0413754774363713,0.32237215239285977,1.1081350687928897,-1.9043025398995725,-1.1961896647492365,-1.7075161205127456,2.8236234131575957,0.0,0.0,0.00023806859672605407,0.00023806859672605407,0.0,0.0,0.0,0.0,0.6494207341576002,-2.5807306136442087,0.0,0.0,0.0,0.0,-0.6494207341576002,2.5807306136442083,2.661187289567235,0.0,37.20906719551791,-147.8649722220202,0.0,0.0,0.0,0.0,-37.20906719551791,147.8649722220202,152.47480018606146
26,0.12877678871154785,1775824091.015273,0.172201832,-19.518734330123944,-0.1257488256078163,0.6451001665836461,-19.31,0.92,0.9759771968572998,0.2087343301239457,1.0457488256078165,0.33087703027365367,1.116530445619434,-1.9182877802176543,-0.1879874126030607,-1.5602838718208898,2.479849397784865,0.0,0.0,0.00023213394590624562,0.00023213394590624562,0.0,0.0,0.0,0.0,0.6805041158465115,-3.0439070619173827,0.0,0.0,0.0,0.0,-0.6805041158465115,3.0439070619173823,3.119047298980019,0.0,38.990013779286755,-174.40302787793257,0.0,0.0,0.0,0.0,-38.990013779286755,174.40302787793254,178.70824633323414
27,0.13367319107055664,1775824091.0201695,0.177098355,-19.528188010344923,-0.12496197296830833,0.6376799512467793,-19.31,0.92,0.975978342995957,0.21818801034492452,1.0449619729683084,0.33829839174917764,1.1198202242628845,-1.9292239178292379,0.8372221374529126,-1.407945794922722,2.530841202842682,0.0,0.0,0.00022634746108237742,0.00022634746108237742,0.0,0.0,0.0,0.0,0.5899450287433624,2.7321503152619484,0.0,0.0,0.0,0.0,-0.5899450287433625,-2.7321503152619484,2.7951172573122887,0.0,33.80136029171871,156.54068205984694,0.0,0.0,0.0,0.0,-33.801360291718716,-156.54068205984694,160.1484220881763
28,0.13872957229614258,1775824091.0252259,0.182154668,-19.538000035956557,-0.11873081538416319,0.630829109933617,-19.31,0.92,0.9759794605743839,0.22800003595655838,1.0387308153841632,0.34515035064076693,1.1180673001981074,-1.9379749871002447,1.9559570165921876,-1.2391700668225654,3.0194465313847583,0.0,0.0,0.00022070639887929728,0.00022070639887929728,0.0,0.0,0.0,0.0,0.42288874221141265,2.3515765611553614,0.0,0.0,0.0,0.0,-0.4228887422114127,-2.3515765611553614,2.389298476805363,0.0,24.229740132309807,134.73541215608995,0.0,0.0,0.0,0.0,-24.22974013230981,-134.73541215608995,136.8967187179835
29,0.1436767578125,1775824091.030173,0.187102008,-19.547637192797342,-0.10701162687365934,0.6249800093332394,-19.31,0.92,0.9759805502891608,0.23763719279734374,1.0270116268736593,0.35100054095592137,1.111047117311247,-1.9440375880746439,3.1096558484880266,-1.0627552617535652,3.818205126269116,0.0,0.0,0.0002152028095988011,0.0002152028095988011,0.0,0.0,0.0,0.0,0.2820642995814284,2.1295118779857263,0.0,0.0,0.0,0.0,-0.2820642995814282,-2.1295118779857263,2.14811105569071,0.0,16.16109391732952,122.01204303156004,0.0,0.0,0.0,0.0,-16.16109391732951,-122.01204303156004,123.07769741646942
30,0.14867520332336426,1775824091.0351715,0.192100407,-19.55739801531025,-0.08922729125147053,0.6199850968374073,-19.31,0.92,0.9759816128265033,0.24739801531024952,1.0092272912514706,0.355996515989096,1.0983983898306688,-1.947651713646704,4.334600355913511,-0.8731928365016383,4.831622209245489,0.0,0.0,0.0002098336748334095,0.0002098336748334095,0.0,0.0,0.0,0.0,0.1817231001232641,1.993090202692584,0.0,0.0,0.0,0.0,-0.1817231001232642,-1.993090202692584,2.001357499595606,0.0,10.411966677096322,114.19565680315885,0.0,0.0,0.0,0.0,-10.411966677096329,-114.19565680315885,114.66933802368358
31,0.15366888046264648,1775824091.0401652,0.197094075,-19.56716134348566,-0.0651969615562907,0.6159694711503972,-19.31,0.92,0.9759826488489729,0.257161343485663,0.9851969615562908,0.36001317769857566,1.0799789339425676,-1.9498340528414297,5.099192577571811,-0.7548120729662668,5.511203048543859,0.0,0.0,0.00020459889937671032,0.00020459889937671032,0.0,0.0,0.0,0.0,0.13739141811748148,1.9360222043137427,0.0,0.0,0.0,0.0,-0.13739141811748157,-1.9360222043137427,1.940891129705161,0.0,7.871948399448923,110.92590135079182,0.0,0.0,0.0,0.0,-7.871948399448928,-110.92590135079182,111.20487022648416
32,0.15871047973632812,1775824091.0452068,0.202135709,-19.577017553838406,-0.03428283462305533,0.6129612198278059,-19.31,0.92,0.9759836590359483,0.2670175538384072,0.9542828346230554,0.36302243920814237,1.0553385209887347,-1.9513376175233512,5.724503963423981,-0.6577714842556965,6.083611382256309,0.0,0.0,0.00019949633752731438,0.00019949633752731438,0.0,0.0,0.0,0.0,0.10833365703175392,1.899318537592265,0.0,0.0,0.0,0.0,-0.1083336570317539,-1.899318537592265,1.9024056056707503,0.0,6.207061327137253,108.82293615499637,0.0,0.0,0.0,0.0,-6.207061327137252,-108.82293615499637,108.99981212696315
33,0.16367149353027344,1775824091.0501678,0.207096737,-19.586702771886703,0.0029584403322183705,0.6110834594378614,-19.31,0.92,0.9759846440275409,0.2767027718867041,0.9170415596677817,0.3649011845896796,1.0250280584660376,-1.9519816315943213,6.359561945896627,-0.5585135244947589,6.675791922373081,0.0,0.0,0.00019452279052155943,0.00019452279052155943,0.0,0.0,0.0,0.0,0.08376041921779066,1.8686046635353517,0.0,0.0,0.0,0.0,-0.08376041921779054,-1.8686046635353517,1.870481006696835,0.0,4.799118511425877,107.0631607990389,0.0,0.0,0.0,0.0,-4.79911851142587,-107.0631607990389,107.17066734311011
34,0.16888165473937988,1775824091.055378,0.212306906,-19.59684648300331,0.049675401136740974,0.6103285330079262,-19.31,0.92,0.97598560447263,0.2868464830033126,0.8703245988632591,0.36565707146470383,0.9866361569038539,-1.9517657327070812,7.047597343511754,-0.45024604214658126,7.326714085462337,0.0,0.0,0.0001896746033096993,0.0001896746033096993,0.0,0.0,0.0,0.0,0.06149140072818545,1.8409657877112695,0.0,0.0,0.0,0.0,-0.061491400728185486,-1.8409657877112695,1.8419924603230302,0.0,3.5231977380727035,105.47956986383282,0.0,0.0,0.0,0.0,-3.5231977380727053,-105.47956986383282,105.53839387142838
35,0.17367792129516602,1775824091.0601742,0.217102997,-19.598840264407826,0.059826083970215535,0.6103322778695941,-19.31,0.92,0.9759865409585269,0.2888402644078276,0.8601739160297845,0.3656542630889328,0.9782795634563308,-1.9507589681828303,7.700045713343962,-0.3469382423960379,7.950882383960243,0.0,0.0,0.00018493953251412306,0.00018493953251412306,0.0,0.0,0.0,0.0,0.04364904633913568,1.8189196268139534,0.0,0.0,0.0,0.0,-0.04364904633913547,-1.8189196268139534,1.8194432797027027,0.0,2.500906135003431,104.21641788995025,0.0,0.0,0.0,0.0,-2.5009061350034187,-104.21641788995025,104.24642099040543
36,0.1786789894104004,1775824091.0651753,0.222104113,-19.598840264407826,0.059826083970215535,0.6103322778695941,-19.31,0.92,0.9759874540665471,0.2888402644078276,0.8601739160297845,0.365655176196953,0.9782799047516122,-1.9488842033062217,8.399880018896164,-0.23549292482744721,8.626215328137324,0.0,0.0,0.00018032223934615624,0.00018032223934615624,0.0,0.0,0.0,0.0,0.027303072871733183,1.7987760554910723,0.0,0.0,0.0,0.0,-0.02730307287173339,-1.7987760554910723,1.798983256063341,0.0,1.5643508432884439,103.06227626882841,0.0,0.0,0.0,0.0,-1.5643508432884559,-103.06227626882841,103.07414798713211
37,0.1839885711669922,1775824091.0704849,0.227413715,-19.598840264407826,0.059826083970215535,0.6103322778695941,-19.31,0.92,0.9759883443731031,0.2888402644078276,0.8601739160297845,0.365656066503509,0.9782802375250239,-1.9459720403473557,9.164664687737124,-0.11301537855632826,9.369666936250171,0.0,0.0,0.00017582073331499527,0.00017582073331499527,0.0,0.0,0.0,0.0,0.012062127704126464,1.7800231086980842,0.0,0.0,0.0,0.0,-0.012062127704126624,-1.7800231086980842,1.7800639770592355,0.0,0.6911090093942718,101.9878115641568,0.0,0.0,0.0,0.0,-0.6911090093942809,-101.9878115641568,101.99015314876638
38,0.18867039680480957,1775824091.0751667,0.23209561,-19.598840264407826,0.059826083970215535,0.6103322778695941,-19.31,0.92,0.9759892124641536,0.2888402644078276,0.8601739160297845,0.3656569345945595,0.9782805619955293,-1.9426165353050655,9.857648085010016,-0.001464425719521296,10.04723777541295,0.0,0.0,0.00017143333488200274,0.00017143333488200274,0.0,0.0,0.0,0.0,0.00014575406270269246,1.7653700516541293,0.0,0.0,0.0,0.0,-0.00014575406270278535,-1.7653700516541293,1.765370057671068,0.0,0.008351092639749444,101.14825323857374,0.0,0.0,0.0,0.0,-0.008351092639754766,-101.14825323857374,101.14825358331893
39,0.1936817169189453,1775824091.080178,0.237106903,-19.598840264407826,0.059826083970215535,0.6103322778695941,-19.31,0.92,0.9759900588887234,0.2888402644078276,0.8601739160297845,0.36565778101912927,0.9782808783682896,0.0,0.0,0.0,0.0,0.0,0.0,0.0001671557832331048,0.0001671557832331048,0.0,0.0,0.0,0.0,0.00014575406270269246,1.7653700516541293,0.0,0.0,0.0,0.0,-0.00014575406270278535,-1.7653700516541293,1.765370057671068,0.0,0.008351092639749444,101.14825323857374,0.0,0.0,0.0,0.0,-0.008351092639754766,-101.14825323857374,101.14825358331893
40,0.1987156867980957,1775824091.085212,0.242140862,-19.598840264407826,0.059826083970215535,0.6103322778695941,-19.31,0.92,0.9759908842024199,0.2888402644078276,0.8601739160297845,0.36565860633282576,0.9782811868509295,0.0,0.0,0.0,0.0,0.0,0.0,0.0001629864309802652,0.0001629864309802652,0.0,0.0,0.0,0.0,0.00014575406270269246,1.7653700516541293,0.0,0.0,0.0,0.0,-0.00014575406270278535,-1.7653700516541293,1.765370057671068,0.0,0.008351092639749444,101.14825323857374,0.0,0.0,0.0,0.0,-0.008351092639754766,-101.14825323857374,101.14825358331893
41,0.20366811752319336,1775824091.0901644,0.247093375,-19.598840264407826,0.059826083970215535,0.6103322778695941,-19.31,0.92,0.9759916889261305,0.2888402644078276,0.8601739160297845,0.36565941105653643,0.9782814876380989,0.0,0.0,0.0,0.0,0.0,0.0,0.00015892142224587685,0.00015892142224587685,0.0,0.0,0.0,0.0,0.00014575406270269246,1.7653700516541293,0.0,0.0,0.0,0.0,-0.00014575406270278535,-1.7653700516541293,1.765370057671068,0.0,0.008351092639749444,101.14825323857374,0.0,0.0,0.0,0.0,-0.008351092639754766,-101.14825323857374,101.14825358331893
42,0.2086648941040039,1775824091.0951612,0.252090025,-19.598840264407826,0.059826083970215535,0.6103322778695941,-19.31,0.92,0.9759924735885253,0.2888402644078276,0.8601739160297845,0.36566019571893116,0.9782817809273592,0.0,0.0,0.0,0.0,0.0,0.0,0.0001549594785635935,0.0001549594785635935,0.0,0.0,0.0,0.0,0.00014575406270269246,1.7653700516541293,0.0,0.0,0.0,0.0,-0.00014575406270278535,-1.7653700516541293,1.765370057671068,0.0,0.008351092639749444,101.14825323857374,0.0,0.0,0.0,0.0,-0.008351092639754766,-101.14825323857374,101.14825358331893
43,0.21369123458862305,1775824091.1001875,0.25711645,-19.598840264407826,0.059826083970215535,0.6103322778695941,-19.31,0.92,0.9759932386837012,0.2888402644078276,0.8601739160297845,0.36566096081410715,0.9782820669033521,0.0,0.0,0.0,0.0,0.0,0.0,0.0001510957207112247,0.0001510957207112247,0.0,0.0,0.0,0.0,0.00014575406270269246,1.7653700516541293,0.0,0.0,0.0,0.0,-0.00014575406270278535,-1.7653700516541293,1.765370057671068,0.0,0.008351092639749444,101.14825323857374,0.0,0.0,0.0,0.0,-0.008351092639754766,-101.14825323857374,101.14825358331893
44,0.21909260749816895,1775824091.105589,0.262517866,-19.598840264407826,0.059826083970215535,0.6103322778695941,-19.31,0.92,0.9759939847087066,0.2888402644078276,0.8601739160297845,0.3656617068391125,0.9782823457518242,0.0,0.0,0.0,0.0,0.0,0.0,0.0001473294324081,0.0001473294324081,0.0,0.0,0.0,0.0,0.00014575406270269246,1.7653700516541293,0.0,0.0,0.0,0.0,-0.00014575406270278535,-1.7653700516541293,1.765370057671068,0.0,0.008351092639749444,101.14825323857374,0.0,0.0,0.0,0.0,-0.008351092639754766,-101.14825323857374,101.14825358331893
45,0.22367548942565918,1775824091.1101718,0.267100699,-19.598840264407826,0.059826083970215535,0.6103322778695941,-19.31,0.92,0.975994712122069,0.2888402644078276,0.8601739160297845,0.3656624342524749,0.9782826176441265,0.0,0.0,0.0,0.0,0.0,0.0,0.0001436509688732452,0.0001436509688732452,0.0,0.0,0.0,0.0,0.00014575406270269246,1.7653700516541293,0.0,0.0,0.0,0.0,-0.00014575406270278535,-1.7653700516541293,1.765370057671068,0.0,0.008351092639749444,101.14825323857374,0.0,0.0,0.0,0.0,-0.008351092639754766,-101.14825323857374,101.14825358331893
46,0.2287003993988037,1775824091.1151967,0.272125564,-19.598840264407826,0.059826083970215535,0.6103322778695941,-19.31,0.92,0.9759954213678702,0.2888402644078276,0.8601739160297845,0.3656631434982761,0.9782828827462123,0.0,0.0,0.0,0.0,0.0,0.0,0.00014006130822623677,0.00014006130822623677,0.0,0.0,0.0,0.0,0.00014575406270269246,1.7653700516541293,0.0,0.0,0.0,0.0,-0.00014575406270278535,-1.7653700516541293,1.765370057671068,0.0,0.008351092639749444,101.14825323857374,0.0,0.0,0.0,0.0,-0.008351092639754766,-101.14825323857374,101.14825358331893
47,0.2336876392364502,1775824091.120184,0.277112733,-19.598840264407826,0.059826083970215535,0.6103322778695941,-19.31,0.92,0.9759961128675532,0.2888402644078276,0.8601739160297845,0.36566383499795907,0.9782831412155754,0.0,0.0,0.0,0.0,0.0,0.0,0.00013655239256768107,0.00013655239256768107,0.0,0.0,0.0,0.0,0.00014575406270269246,1.7653700516541293,0.0,0.0,0.0,0.0,-0.00014575406270278535,-1.7653700516541293,1.765370057671068,0.0,0.008351092639749444,101.14825323857374,0.0,0.0,0.0,0.0,-0.008351092639754766,-101.14825323857374,101.14825358331893
48,0.23909759521484375,1775824091.125594,0.282522859,-19.598840264407826,0.059826083970215535,0.6103322778695941,-19.31,0.92,0.9759967870379566,0.2888402644078276,0.8601739160297845,0.36566450916836246,0.9782833932079896,0.0,0.0,0.0,0.0,0.0,0.0,0.00013312979449530993,0.00013312979449530993,0.0,0.0,0.0,0.0,0.00014575406270269246,1.7653700516541293,0.0,0.0,0.0,0.0,-0.00014575406270278535,-1.7653700516541293,1.765370057671068,0.0,0.008351092639749444,101.14825323857374,0.0,0.0,0.0,0.0,-0.008351092639754766,-101.14825323857374,101.14825358331893
49,0.24367666244506836,1775824091.130173,0.287101756,-19.598840264407826,0.059826083970215535,0.6103322778695941,-19.31,0.92,0.9759974442988002,0.2888402644078276,0.8601739160297845,0.3656651664292061,0.9782836388803083,0.0,0.0,0.0,0.0,0.0,0.0,0.0001297886173712844,0.0001297886173712844,0.0,0.0,0.0,0.0,0.00014575406270269246,1.7653700516541293,0.0,0.0,0.0,0.0,-0.00014575406270278535,-1.7653700516541293,1.765370057671068,0.0,0.008351092639749444,101.14825323857374,0.0,0.0,0.0,0.0,-0.008351092639754766,-101.14825323857374,101.14825358331893
50,0.24866795539855957,1775824091.1351643,0.292093034,-19.598840264407826,0.059826083970215535,0.6103322778695941,-19.31,0.92,0.9759980850679763,0.2888402644078276,0.8601739160297845,0.36566580719838215,0.9782838783887032,0.0,0.0,0.0,0.0,0.0,0.0,0.0001265325751362501,0.0001265325751362501,0.0,0.0,0.0,0.0,0.00014575406270269246,1.7653700516541293,0.0,0.0,0.0,0.0,-0.00014575406270278535,-1.7653700516541293,1.765370057671068,0.0,0.008351092639749444,101.14825323857374,0.0,0.0,0.0,0.0,-0.008351092639754766,-101.14825323857374,101.14825358331893
51,0.2541472911834717,1775824091.1406436,0.297572496,-19.598840264407826,0.059826083970215535,0.6103322778695941,-19.31,0.92,0.9759987097502002,0.2888402644078276,0.8601739160297845,0.3656664318806061,0.9782841118844221,0.0,0.0,0.0,0.0,0.0,0.0,0.00012335228460478648,0.00012335228460478648,0.0,0.0,0.0,0.0,0.00014575406270269246,1.7653700516541293,0.0,0.0,0.0,0.0,-0.00014575406270278535,-1.7653700516541293,1.765370057671068,0.0,0.008351092639749444,101.14825323857374,0.0,0.0,0.0,0.0,-0.008351092639754766,-101.14825323857374,101.14825358331893
52,0.25867748260498047,1775824091.1451738,0.302102682,-19.598840264407826,0.059826083970215535,0.6103322778695941,-19.31,0.92,0.975999318721652,0.2888402644078276,0.8601739160297845,0.3656670408520579,0.9782843395080488,0.0,0.0,0.0,0.0,0.0,0.0,0.00012024921501271212,0.00012024921501271212,0.0,0.0,0.0,0.0,0.00014575406270269246,1.7653700516541293,0.0,0.0,0.0,0.0,-0.00014575406270278535,-1.7653700516541293,1.765370057671068,0.0,0.008351092639749444,101.14825323857374,0.0,0.0,0.0,0.0,-0.008351092639754766,-101.14825323857374,101.14825358331893
53,0.26364994049072266,1775824091.1501462,0.307075018,-19.598840264407826,0.059826083970215535,0.6103322778695941,-19.31,0.92,0.9759997948449128,0.2888402644078276,0.8601739160297845,0.36566751697531874,0.9782845174754089,0.0,0.0,0.0,0.0,0.0,0.0,0.00011782069158262567,0.00011782069158262567,0.0,0.0,0.0,0.0,0.00014575406270269246,1.7653700516541293,0.0,0.0,0.0,0.0,-0.00014575406270278535,-1.7653700516541293,1.765370057671068,0.0,0.008351092639749444,101.14825323857374,0.0,0.0,0.0,0.0,-0.008351092639754766,-101.14825323857374,101.14825358331893
54,0.26916003227233887,1775824091.1556563,0.312585271,-19.598840264407826,0.059826083970215535,0.6103322778695941,-19.31,0.92,0.9760004910714066,0.2888402644078276,0.8601739160297845,0.36566821320181253,0.9782847777142425,0.0,0.0,0.0,0.0,0.0,0.0,0.00011427297649744158,0.00011427297649744158,0.0,0.0,0.0,0.0,0.00014575406270269246,1.7653700516541293,0.0,0.0,0.0,0.0,-0.00014575406270278535,-1.7653700516541293,1.765370057671068,0.0,0.008351092639749444,101.14825323857374,0.0,0.0,0.0,0.0,-0.008351092639754766,-101.14825323857374,101.14825358331893
55,0.27367496490478516,1775824091.1601713,0.317100195,-19.598840264407826,0.059826083970215535,0.6103322778695941,-19.31,0.92,0.9760010552171267,0.2888402644078276,0.8601739160297845,0.36566877734753256,0.9782849885836121,0.0,0.0,0.0,0.0,0.0,0.0,0.00011139839419876686,0.00011139839419876686,0.0,0.0,0.0,0.0,0.00014575406270269246,1.7653700516541293,0.0,0.0,0.0,0.0,-0.00014575406270278535,-1.7653700516541293,1.765370057671068,0.0,0.008351092639749444,101.14825323857374,0.0,0.0,0.0,0.0,-0.008351092639754766,-101.14825323857374,101.14825358331893
56,0.2789292335510254,1775824091.1654255,0.322354264,-19.598840264407826,0.059826083970215535,0.6103322778695941,-19.31,0.92,0.9760014963056476,0.2888402644078276,0.8601739160297845,0.3656692184360535,0.9782851534562061,0.0,0.0,0.0,0.0,0.0,0.0,0.00010915350698305744,0.00010915350698305744,0.0,0.0,0.0,0.0,0.00014575406270269246,1.7653700516541293,0.0,0.0,0.0,0.0,-0.00014575406270278535,-1.7653700516541293,1.765370057671068,0.0,0.008351092639749444,101.14825323857374,0.0,0.0,0.0,0.0,-0.008351092639754766,-101.14825323857374,101.14825358331893
57,0.28368377685546875,1775824091.17018,0.327108946,-19.598840264407826,0.059826083970215535,0.6103322778695941,-19.31,0.92,0.9760021413279361,0.2888402644078276,0.8601739160297845,0.36566986345834196,0.9782853945566401,0.0,0.0,0.0,0.0,0.0,0.0,0.000105871430885296,0.000105871430885296,0.0,0.0,0.0,0.0,0.00014575406270269246,1.7653700516541293,0.0,0.0,0.0,0.0,-0.00014575406270278535,-1.7653700516541293,1.765370057671068,0.0,0.008351092639749444,101.14825323857374,0.0,0.0,0.0,0.0,-0.008351092639754766,-101.14825323857374,101.14825358331893
58,0.2889401912689209,1775824091.1754365,0.332365293,-19.598840264407826,0.059826083970215535,0.6103322778695941,-19.31,0.92,0.9760026640116896,0.2888402644078276,0.8601739160297845,0.36567038614209546,0.9782855899288857,0.0,0.0,0.0,0.0,0.0,0.0,0.00010321280965924277,0.00010321280965924277,0.0,0.0,0.0,0.0,0.00014575406270269246,1.7653700516541293,0.0,0.0,0.0,0.0,-0.00014575406270278535,-1.7653700516541293,1.765370057671068,0.0,0.008351092639749444,101.14825323857374,0.0,0.0,0.0,0.0,-0.008351092639754766,-101.14825323857374,101.14825358331893
59,0.29367899894714355,1775824091.1801753,0.337104201,-19.598840264407826,0.059826083970215535,0.6103322778695941,-19.31,0.92,0.9760031735566889,0.2888402644078276,0.8601739160297845,0.36567089568709477,0.9782857803902706,0.0,0.0,0.0,0.0,0.0,0.0,0.00010061549237778619,0.00010061549237778619,0.0,0.0,0.0,0.0,0.00014575406270269246,1.7653700516541293,0.0,0.0,0.0,0.0,-0.00014575406270278535,-1.7653700516541293,1.765370057671068,0.0,0.008351092639749444,101.14825323857374,0.0,0.0,0.0,0.0,-0.008351092639754766,-101.14825323857374,101.14825358331893
60,0.2986738681793213,1775824091.1851702,0.3420989,-19.598840264407826,0.059826083970215535,0.6103322778695941,-19.31,0.92,0.976003670278005,0.2888402644078276,0.8601739160297845,0.36567139240841096,0.978285966058547,0.0,0.0,0.0,0.0,0.0,0.0,9.808367758630967e-05,9.808367758630967e-05,0.0,0.0,0.0,0.0,0.00014575406270269246,1.7653700516541293,0.0,0.0,0.0,0.0,-0.00014575406270278535,-1.7653700516541293,1.765370057671068,0.0,0.008351092639749444,101.14825323857374,0.0,0.0,0.0,0.0,-0.008351092639754766,-101.14825323857374,101.14825358331893
61,0.303678035736084,1775824091.1901743,0.347103113,-19.598840264407826,0.059826083970215535,0.6103322778695941,-19.31,0.92,0.9760041544950474,0.2888402644078276,0.8601739160297845,0.3656718766254533,0.9782861470530897,0.0,0.0,0.0,0.0,0.0,0.0,9.561394955221296e-05,9.561394955221296e-05,0.0,0.0,0.0,0.0,0.00014575406270269246,1.7653700516541293,0.0,0.0,0.0,0.0,-0.00014575406270278535,-1.7653700516541293,1.765370057671068,0.0,0.008351092639749444,101.14825323857374,0.0,0.0,0.0,0.0,-0.008351092639754766,-101.14825323857374,101.14825358331893
62,0.3086714744567871,1775824091.1951678,0.35209669,-19.598840264407826,0.059826083970215535,0.6103322778695941,-19.31,0.92,0.9760046265257937,0.2888402644078276,0.8601739160297845,0.3656723486561996,0.9782863234927389,0.0,0.0,0.0,0.0,0.0,0.0,9.32084695268162e-05,9.32084695268162e-05,0.0,0.0,0.0,0.0,0.00014575406270269246,1.7653700516541293,0.0,0.0,0.0,0.0,-0.00014575406270278535,-1.7653700516541293,1.765370057671068,0.0,0.008351092639749444,101.14825323857374,0.0,0.0,0.0,0.0,-0.008351092639754766,-101.14825323857374,101.14825358331893
63,0.3137333393096924,1775824091.2002296,0.357158445,-19.598840264407826,0.059826083970215535,0.6103322778695941,-19.31,0.92,0.9760050866788272,0.2888402644078276,0.8601739160297845,0.36567280880923314,0.9782864954928248,0.0,0.0,0.0,0.0,0.0,0.0,9.086340869730183e-05,9.086340869730183e-05,0.0,0.0,0.0,0.0,0.00014575406270269246,1.7653700516541293,0.0,0.0,0.0,0.0,-0.00014575406270278535,-1.7653700516541293,1.765370057671068,0.0,0.008351092639749444,101.14825323857374,0.0,0.0,0.0,0.0,-0.008351092639754766,-101.14825323857374,101.14825358331893
64,0.31867098808288574,1775824091.2051673,0.362096226,-19.598840264407826,0.059826083970215535,0.6103322778695941,-19.31,0.92,0.9760055352627289,0.2888402644078276,0.8601739160297845,0.36567325739313483,0.978286663168677,0.0,0.0,0.0,0.0,0.0,0.0,8.857971691746327e-05,8.857971691746327e-05,0.0,0.0,0.0,0.0,0.00014575406270269246,1.7653700516541293,0.0,0.0,0.0,0.0,-0.00014575406270278535,-1.7653700516541293,1.765370057671068,0.0,0.008351092639749444,101.14825323857374,0.0,0.0,0.0,0.0,-0.008351092639754766,-101.14825323857374,101.14825358331893
65,0.3237121105194092,1775824091.2102084,0.367137243,-19.598840264407826,0.059826083970215535,0.6103322778695941,-19.31,0.92,0.9760059725694047,0.2888402644078276,0.8601739160297845,0.3656736946998106,0.9782868266293935,0.0,0.0,0.0,0.0,0.0,0.0,8.635292374745199e-05,8.635292374745199e-05,0.0,0.0,0.0,0.0,0.00014575406270269246,1.7653700516541293,0.0,0.0,0.0,0.0,-0.00014575406270278535,-1.7653700516541293,1.765370057671068,0.0,0.008351092639749444,101.14825323857374,0.0,0.0,0.0,0.0,-0.008351092639754766,-101.14825323857374,101.14825358331893
66,0.32866907119750977,1775824091.2151654,0.37209433,-19.598840264407826,0.059826083970215535,0.6103322778695941,-19.31,0.92,0.9760063988877894,0.2888402644078276,0.8601739160297845,0.3656741210181953,0.9782869859829622,0.0,0.0,0.0,0.0,0.0,0.0,8.418333865366218e-05,8.418333865366218e-05,0.0,0.0,0.0,0.0,0.00014575406270269246,1.7653700516541293,0.0,0.0,0.0,0.0,-0.00014575406270278535,-1.7653700516541293,1.765370057671068,0.0,0.008351092639749444,101.14825323857374,0.0,0.0,0.0,0.0,-0.008351092639754766,-101.14825323857374,101.14825358331893
67,0.333676815032959,1775824091.2201731,0.377102034,-19.598840264407826,0.059826083970215535,0.6103322778695941,-19.31,0.92,0.9760068144950647,0.2888402644078276,0.8601739160297845,0.36567453662547056,0.9782871413329786,0.0,0.0,0.0,0.0,0.0,0.0,8.20693573571028e-05,8.20693573571028e-05,0.0,0.0,0.0,0.0,0.00014575406270269246,1.7653700516541293,0.0,0.0,0.0,0.0,-0.00014575406270278535,-1.7653700516541293,1.765370057671068,0.0,0.008351092639749444,101.14825323857374,0.0,0.0,0.0,0.0,-0.008351092639754766,-101.14825323857374,101.14825358331893
68,0.33867406845092773,1775824091.2251704,0.382099194,-19.598840264407826,0.059826083970215535,0.6103322778695941,-19.31,0.92,0.9760072196728864,0.2888402644078276,0.8601739160297845,0.3656749418032923,0.9782872927847115,0.0,0.0,0.0,0.0,0.0,0.0,8.001026034118268e-05,8.001026034118268e-05,0.0,0.0,0.0,0.0,0.00014575406270269246,1.7653700516541293,0.0,0.0,0.0,0.0,-0.00014575406270278535,-1.7653700516541293,1.765370057671068,0.0,0.008351092639749444,101.14825323857374,0.0,0.0,0.0,0.0,-0.008351092639754766,-101.14825323857374,101.14825358331893
69,0.34368443489074707,1775824091.2301807,0.38710965,-19.598840264407826,0.059826083970215535,0.6103322778695941,-19.31,0.92,0.9760076146849778,0.2888402644078276,0.8601739160297845,0.36567533681538367,0.9782874404367271,0.0,0.0,0.0,0.0,0.0,0.0,7.800374029043051e-05,7.800374029043051e-05,0.0,0.0,0.0,0.0,0.00014575406270269246,1.7653700516541293,0.0,0.0,0.0,0.0,-0.00014575406270278535,-1.7653700516541293,1.765370057671068,0.0,0.008351092639749444,101.14825323857374,0.0,0.0,0.0,0.0,-0.008351092639754766,-101.14825323857374,101.14825358331893
70,0.3506913185119629,1775824091.2371876,0.394116513,-19.598840264407826,0.059826083970215535,0.6103322778695941,-19.31,0.92,0.9760079235538438,0.2888402644078276,0.8601739160297845,0.3656756456842497,0.9782875558892649,0.0,0.0,0.0,0.0,0.0,0.0,7.643585051863293e-05,7.643585051863293e-05,0.0,0.0,0.0,0.0,0.00014575406270269246,1.7653700516541293,0.0,0.0,0.0,0.0,-0.00014575406270278535,-1.7653700516541293,1.765370057671068,0.0,0.008351092639749444,101.14825323857374,0.0,0.0,0.0,0.0,-0.008351092639754766,-101.14825323857374,101.14825358331893
71,0.35381126403808594,1775824091.2403076,0.397236355,-19.598840264407826,0.059826083970215535,0.6103322778695941,-19.31,0.92,0.9760082262107015,0.2888402644078276,0.8601739160297845,0.3656759483411074,0.9782876690198885,0.0,0.0,0.0,0.0,0.0,0.0,7.489726891498942e-05,7.489726891498942e-05,0.0,0.0,0.0,0.0,0.00014575406270269246,1.7653700516541293,0.0,0.0,0.0,0.0,-0.00014575406270278535,-1.7653700516541293,1.765370057671068,0.0,0.008351092639749444,101.14825323857374,0.0,0.0,0.0,0.0,-0.008351092639754766,-101.14825323857374,101.14825358331893
72,0.3587923049926758,1775824091.2452886,0.402217376,-19.598840264407826,0.059826083970215535,0.6103322778695941,-19.31,0.92,0.9760085959748516,0.2888402644078276,0.8601739160297845,0.36567631810525747,0.9782878072347708,0.0,0.0,0.0,0.0,0.0,0.0,7.301668973878359e-05,7.301668973878359e-05,0.0,0.0,0.0,0.0,0.00014575406270269246,1.7653700516541293,0.0,0.0,0.0,0.0,-0.00014575406270278535,-1.7653700516541293,1.765370057671068,0.0,0.008351092639749444,101.14825323857374,0.0,0.0,0.0,0.0,-0.008351092639754766,-101.14825323857374,101.14825358331893
73,0.36383676528930664,1775824091.250333,0.407262016,-19.598840264407826,0.059826083970215535,0.6103322778695941,-19.31,0.92,0.9760089564594776,0.2888402644078276,0.8601739160297845,0.3656766785898835,0.978287941981157,0.0,0.0,0.0,0.0,0.0,0.0,7.118550265296158e-05,7.118550265296158e-05,0.0,0.0,0.0,0.0,0.00014575406270269246,1.7653700516541293,0.0,0.0,0.0,0.0,-0.00014575406270278535,-1.7653700516541293,1.765370057671068,0.0,0.008351092639749444,101.14825323857374,0.0,0.0,0.0,0.0,-0.008351092639754766,-101.14825323857374,101.14825358331893
74,0.36879849433898926,1775824091.2552948,0.412223739,-19.598840264407826,0.059826083970215535,0.6103322778695941,-19.31,0.92,0.9760093079099634,0.2888402644078276,0.8601739160297845,0.36567703004036933,0.978288073350761,0.0,0.0,0.0,0.0,0.0,0.0,6.94021437683818e-05,6.94021437683818e-05,0.0,0.0,0.0,0.0,0.00014575406270269246,1.7653700516541293,0.0,0.0,0.0,0.0,-0.00014575406270278535,-1.7653700516541293,1.765370057671068,0.0,0.008351092639749444,101.14825323857374,0.0,0.0,0.0,0.0,-0.008351092639754766,-101.14825323857374,101.14825358331893
75,0.3748164176940918,1775824091.2613127,0.418241591,-19.598840264407826,0.059826083970215535,0.6103322778695941,-19.31,0.92,0.9760096505571891,0.2888402644078276,0.8601739160297845,0.36567737268759504,0.9782882014298756,0.0,0.0,0.0,0.0,0.0,0.0,6.7664746441969e-05,6.7664746441969e-05,0.0,0.0,0.0,0.0,0.00014575406270269246,1.7653700516541293,0.0,0.0,0.0,0.0,-0.00014575406270278535,-1.7653700516541293,1.765370057671068,0.0,0.008351092639749444,101.14825323857374,0.0,0.0,0.0,0.0,-0.008351092639754766,-101.14825323857374,101.14825358331893
76,0.3789701461791992,1775824091.2654665,0.422395408,-19.598840264407826,0.059826083970215535,0.6103322778695941,-19.31,0.92,0.9760099846322364,0.2888402644078276,0.8601739160297845,0.36567770676264233,0.97828832630487,0.0,0.0,0.0,0.0,0.0,0.0,6.597221099886572e-05,6.597221099886572e-05,0.0,0.0,0.0,0.0,0.00014575406270269246,1.7653700516541293,0.0,0.0,0.0,0.0,-0.00014575406270278535,-1.7653700516541293,1.765370057671068,0.0,0.008351092639749444,101.14825323857374,0.0,0.0,0.0,0.0,-0.008351092639754766,-101.14825323857374,101.14825358331893
77,0.38379740715026855,1775824091.2702937,0.427222637,-19.598840264407826,0.059826083970215535,0.6103322778695941,-19.31,0.92,0.9760103103480738,0.2888402644078276,0.8601739160297845,0.36567803247847974,0.9782884480553425,0.0,0.0,0.0,0.0,0.0,0.0,6.432159183528453e-05,6.432159183528453e-05,0.0,0.0,0.0,0.0,0.00014575406270269246,1.7653700516541293,0.0,0.0,0.0,0.0,-0.00014575406270278535,-1.7653700516541293,1.765370057671068,0.0,0.008351092639749444,101.14825323857374,0.0,0.0,0.0,0.0,-0.008351092639754766,-101.14825323857374,101.14825358331893
78,0.38879990577697754,1775824091.2752962,0.432224997,-19.598840264407826,0.059826083970215535,0.6103322778695941,-19.31,0.92,0.9760106279191204,0.2888402644078276,0.8601739160297845,0.3656783500495263,0.9782885667614349,0.0,0.0,0.0,0.0,0.0,0.0,6.271341352384124e-05,6.271341352384124e-05,0.0,0.0,0.0,0.0,0.00014575406270269246,1.7653700516541293,0.0,0.0,0.0,0.0,-0.00014575406270278535,-1.7653700516541293,1.765370057671068,0.0,0.008351092639749444,101.14825323857374,0.0,0.0,0.0,0.0,-0.008351092639754766,-101.14825323857374,101.14825358331893
79,0.3937973976135254,1775824091.2802937,0.437222555,-19.598840264407826,0.059826083970215535,0.6103322778695941,-19.31,0.92,0.9760109375511096,0.2888402644078276,0.8601739160297845,0.36567865968151547,0.9782886825000421,0.0,0.0,0.0,0.0,0.0,0.0,6.114654627148712e-05,6.114654627148712e-05,0.0,0.0,0.0,0.0,0.00014575406270269246,1.7653700516541293,0.0,0.0,0.0,0.0,-0.00014575406270278535,-1.7653700516541293,1.765370057671068,0.0,0.008351092639749444,101.14825323857374,0.0,0.0,0.0,0.0,-0.008351092639754766,-101.14825323857374,101.14825358331893
80,0.3988020420074463,1775824091.2852983,0.442227269,-19.598840264407826,0.059826083970215535,0.6103322778695941,-19.31,0.92,0.976011239451085,0.2888402644078276,0.8601739160297845,0.36567896158149094,0.9782887953485495,0.0,0.0,0.0,0.0,0.0,0.0,5.9619610132853975e-05,5.9619610132853975e-05,0.0,0.0,0.0,0.0,0.00014575406270269246,1.7653700516541293,0.0,0.0,0.0,0.0,-0.00014575406270278535,-1.7653700516541293,1.765370057671068,0.0,0.008351092639749444,101.14825323857374,0.0,0.0,0.0,0.0,-0.008351092639754766,-101.14825323857374,101.14825358331893
81,0.4037938117980957,1775824091.29029,0.447218994,-19.598840264407826,0.059826083970215535,0.6103322778695941,-19.31,0.92,0.9760115338111841,0.2888402644078276,0.8601739160297845,0.36567925594159,0.9782889053787708,0.0,0.0,0.0,0.0,0.0,0.0,5.8131198007397035e-05,5.8131198007397035e-05,0.0,0.0,0.0,0.0,0.00014575406270269246,1.7653700516541293,0.0,0.0,0.0,0.0,-0.00014575406270278535,-1.7653700516541293,1.765370057671068,0.0,0.008351092639749444,101.14825323857374,0.0,0.0,0.0,0.0,-0.008351092639754766,-101.14825323857374,101.14825358331893
82,0.4092674255371094,1775824091.2957637,0.452692494,-19.598840264407826,0.059826083970215535,0.6103322778695941,-19.31,0.92,0.9760117640020384,0.2888402644078276,0.8601739160297845,0.3656794861324443,0.9782889914229267,0.0,0.0,0.0,0.0,0.0,0.0,5.6968038971878216e-05,5.6968038971878216e-05,0.0,0.0,0.0,0.0,0.00014575406270269246,1.7653700516541293,0.0,0.0,0.0,0.0,-0.00014575406270278535,-1.7653700516541293,1.765370057671068,0.0,0.008351092639749444,101.14825323857374,0.0,0.0,0.0,0.0,-0.008351092639754766,-101.14825323857374,101.14825358331893
83,0.4143037796020508,1775824091.3008,0.457728886,-19.598840264407826,0.059826083970215535,0.6103322778695941,-19.31,0.92,0.9760120452722838,0.2888402644078276,0.8601739160297845,0.3656797674026897,0.9782890965603592,0.0,0.0,0.0,0.0,0.0,0.0,5.5546258731433684e-05,5.5546258731433684e-05,0.0,0.0,0.0,0.0,0.00014575406270269246,1.7653700516541293,0.0,0.0,0.0,0.0,-0.00014575406270278535,-1.7653700516541293,1.765370057671068,0.0,0.008351092639749444,101.14825323857374,0.0,0.0,0.0,0.0,-0.008351092639754766,-101.14825323857374,101.14825358331893
84,0.4192521572113037,1775824091.3057485,0.462677292,-19.598840264407826,0.059826083970215535,0.6103322778695941,-19.31,0.92,0.9760123195232677,0.2888402644078276,0.8601739160297845,0.3656800416536736,0.9782891990740934,0.0,0.0,0.0,0.0,0.0,0.0,5.4159576695340646e-05,5.4159576695340646e-05,0.0,0.0,0.0,0.0,0.00014575406270269246,1.7653700516541293,0.0,0.0,0.0,0.0,-0.00014575406270278535,-1.7653700516541293,1.765370057671068,0.0,0.008351092639749444,101.14825323857374,0.0,0.0,0.0,0.0,-0.008351092639754766,-101.14825323857374,101.14825358331893
85,0.42438459396362305,1775824091.310881,0.467809756,-19.598840264407826,0.059826083970215535,0.6103322778695941,-19.31,0.92,0.9760125869249582,0.2888402644078276,0.8601739160297845,0.3656803090553641,0.9782892990276574,0.0,0.0,0.0,0.0,0.0,0.0,5.280723327097715e-05,5.280723327097715e-05,0.0,0.0,0.0,0.0,0.00014575406270269246,1.7653700516541293,0.0,0.0,0.0,0.0,-0.00014575406270278535,-1.7653700516541293,1.765370057671068,0.0,0.008351092639749444,101.14825323857374,0.0,0.0,0.0,0.0,-0.008351092639754766,-101.14825323857374,101.14825358331893
86,0.42925190925598145,1775824091.3157482,0.472676996,-19.598840264407826,0.059826083970215535,0.6103322778695941,-19.31,0.92,0.9760128476530855,0.2888402644078276,0.8601739160297845,0.3656805697834914,0.9782893964867336,0.0,0.0,0.0,0.0,0.0,0.0,5.148935011091637e-05,5.148935011091637e-05,0.0,0.0,0.0,0.0,0.00014575406270269246,1.7653700516541293,0.0,0.0,0.0,0.0,-0.00014575406270278535,-1.7653700516541293,1.765370057671068,0.0,0.008351092639749444,101.14825323857374,0.0,0.0,0.0,0.0,-0.008351092639754766,-101.14825323857374,101.14825358331893
87,0.4343423843383789,1775824091.3208387,0.477767513,-19.598840264407826,0.059826083970215535,0.6103322778695941,-19.31,0.92,0.976013101870868,0.2888402644078276,0.8601739160297845,0.3656808240012739,0.978289491512328,0.0,0.0,0.0,0.0,0.0,0.0,5.0203349746187266e-05,5.0203349746187266e-05,0.0,0.0,0.0,0.0,0.00014575406270269246,1.7653700516541293,0.0,0.0,0.0,0.0,-0.00014575406270278535,-1.7653700516541293,1.765370057671068,0.0,0.008351092639749444,101.14825323857374,0.0,0.0,0.0,0.0,-0.008351092639754766,-101.14825323857374,101.14825358331893
88,0.43927502632141113,1775824091.3257713,0.482700274,-19.598840264407826,0.059826083970215535,0.6103322778695941,-19.31,0.92,0.976013349739539,0.2888402644078276,0.8601739160297845,0.3656810718699449,0.9782895841647045,0.0,0.0,0.0,0.0,0.0,0.0,4.8949033289071933e-05,4.8949033289071933e-05,0.0,0.0,0.0,0.0,0.00014575406270269246,1.7653700516541293,0.0,0.0,0.0,0.0,-0.00014575406270278535,-1.7653700516541293,1.765370057671068,0.0,0.008351092639749444,101.14825323857374,0.0,0.0,0.0,0.0,-0.008351092639754766,-101.14825323857374,101.14825358331893
89,0.44425344467163086,1775824091.3307498,0.487678558,-19.598840264407826,0.059826083970215535,0.6103322778695941,-19.31,0.92,0.9760135914125085,0.2888402644078276,0.8601739160297845,0.36568131354291444,0.9782896745012031,0.0,0.0,0.0,0.0,0.0,0.0,4.772569868057704e-05,4.772569868057704e-05,0.0,0.0,0.0,0.0,0.00014575406270269246,1.7653700516541293,0.0,0.0,0.0,0.0,-0.00014575406270278535,-1.7653700516541293,1.765370057671068,0.0,0.008351092639749444,101.14825323857374,0.0,0.0,0.0,0.0,-0.008351092639754766,-101.14825323857374,101.14825358331893
90,0.4492480754852295,1775824091.3357444,0.492673315,-19.598840264407826,0.059826083970215535,0.6103322778695941,-19.31,0.92,0.9760138270485369,0.2888402644078276,0.8601739160297845,0.3656815491789428,0.978289762581164,0.0,0.0,0.0,0.0,0.0,0.0,4.653353747925789e-05,4.653353747925789e-05,0.0,0.0,0.0,0.0,0.00014575406270269246,1.7653700516541293,0.0,0.0,0.0,0.0,-0.00014575406270278535,-1.7653700516541293,1.765370057671068,0.0,0.008351092639749444,101.14825323857374,0.0,0.0,0.0,0.0,-0.008351092639754766,-101.14825323857374,101.14825358331893
91,0.4542553424835205,1775824091.3407516,0.497680483,-19.598840264407826,0.059826083970215535,0.6103322778695941,-19.31,0.92,0.9760140567973664,0.2888402644078276,0.8601739160297845,0.3656817789277723,0.9782898484605566,0.0,0.0,0.0,0.0,0.0,0.0,4.5371237344451984e-05,4.5371237344451984e-05,0.0,0.0,0.0,0.0,0.00014575406270269246,1.7653700516541293,0.0,0.0,0.0,0.0,-0.00014575406270278535,-1.7653700516541293,1.765370057671068,0.0,0.008351092639749444,101.14825323857374,0.0,0.0,0.0,0.0,-0.008351092639754766,-101.14825323857374,101.14825358331893
92,0.45879316329956055,1775824091.3452895,0.502218344,-19.598840264407826,0.059826083970215535,0.6103322778695941,-19.31,0.92,0.976014236460023,0.2888402644078276,0.8601739160297845,0.36568195859042896,0.978289915617927,0.0,0.0,0.0,0.0,0.0,0.0,4.446311054930629e-05,4.446311054930629e-05,0.0,0.0,0.0,0.0,0.00014575406270269246,1.7653700516541293,0.0,0.0,0.0,0.0,-0.00014575406270278535,-1.7653700516541293,1.765370057671068,0.0,0.008351092639749444,101.14825323857374,0.0,0.0,0.0,0.0,-0.008351092639754766,-101.14825323857374,101.14825358331893
93,0.46425747871398926,1775824091.3507538,0.507682509,-19.598840264407826,0.059826083970215535,0.6103322778695941,-19.31,0.92,0.9760144992326748,0.2888402644078276,0.8601739160297845,0.3656822213630807,0.9782900138416194,0.0,0.0,0.0,0.0,0.0,0.0,4.313468715576839e-05,4.313468715576839e-05,0.0,0.0,0.0,0.0,0.00014575406270269246,1.7653700516541293,0.0,0.0,0.0,0.0,-0.00014575406270278535,-1.7653700516541293,1.765370057671068,0.0,0.008351092639749444,101.14825323857374,0.0,0.0,0.0,0.0,-0.008351092639754766,-101.14825323857374,101.14825358331893
94,0.46924710273742676,1775824091.3557434,0.512672318,-19.598840264407826,0.059826083970215535,0.6103322778695941,-19.31,0.92,0.9760147122025196,0.2888402644078276,0.8601739160297845,0.36568243433292547,0.9782900934492044,0.0,0.0,0.0,0.0,0.0,0.0,4.205739999006581e-05,4.205739999006581e-05,0.0,0.0,0.0,0.0,0.00014575406270269246,1.7653700516541293,0.0,0.0,0.0,0.0,-0.00014575406270278535,-1.7653700516541293,1.765370057671068,0.0,0.008351092639749444,101.14825323857374,0.0,0.0,0.0,0.0,-0.008351092639754766,-101.14825323857374,101.14825358331893
95,0.474259614944458,1775824091.360756,0.517684862,-19.598840264407826,0.059826083970215535,0.6103322778695941,-19.31,0.92,0.9760149198501734,0.2888402644078276,0.8601739160297845,0.3656826419805793,0.9782901710674063,0.0,0.0,0.0,0.0,0.0,0.0,4.1006410980624105e-05,4.1006410980624105e-05,0.0,0.0,0.0,0.0,0.00014575406270269246,1.7653700516541293,0.0,0.0,0.0,0.0,-0.00014575406270278535,-1.7653700516541293,1.765370057671068,0.0,0.008351092639749444,101.14825323857374,0.0,0.0,0.0,0.0,-0.008351092639754766,-101.14825323857374,101.14825358331893
96,0.47925877571105957,1775824091.365755,0.522684015,-19.598840264407826,0.059826083970215535,0.6103322778695941,-19.31,0.92,0.9760151223112646,0.2888402644078276,0.8601739160297845,0.36568284444167054,0.97829024674692,0.0,0.0,0.0,0.0,0.0,0.0,3.998216642295131e-05,3.998216642295131e-05,0.0,0.0,0.0,0.0,0.00014575406270269246,1.7653700516541293,0.0,0.0,0.0,0.0,-0.00014575406270278535,-1.7653700516541293,1.765370057671068,0.0,0.008351092639749444,101.14825323857374,0.0,0.0,0.0,0.0,-0.008351092639754766,-101.14825323857374,101.14825358331893
97,0.48426103591918945,1775824091.3707573,0.527686139,-19.598840264407826,0.059826083970215535,0.6103322778695941,-19.31,0.92,0.9760153197145303,0.2888402644078276,0.8601739160297845,0.36568304184493616,0.9782903205358642,0.0,0.0,0.0,0.0,0.0,0.0,3.898363277255243e-05,3.898363277255243e-05,0.0,0.0,0.0,0.0,0.00014575406270269246,1.7653700516541293,0.0,0.0,0.0,0.0,-0.00014575406270278535,-1.7653700516541293,1.765370057671068,0.0,0.008351092639749444,101.14825323857374,0.0,0.0,0.0,0.0,-0.008351092639754766,-101.14825323857374,101.14825358331893
98,0.4892592430114746,1775824091.3757555,0.532684351,-19.598840264407826,0.059826083970215535,0.6103322778695941,-19.31,0.92,0.9760155121895723,0.2888402644078276,0.8601739160297845,0.3656832343199782,0.9782903924826813,0.0,0.0,0.0,0.0,0.0,0.0,3.801027759237351e-05,3.801027759237351e-05,0.0,0.0,0.0,0.0,0.00014575406270269246,1.7653700516541293,0.0,0.0,0.0,0.0,-0.00014575406270278535,-1.7653700516541293,1.765370057671068,0.0,0.008351092639749444,101.14825323857374,0.0,0.0,0.0,0.0,-0.008351092639754766,-101.14825323857374,101.14825358331893
99,0.4942595958709717,1775824091.380756,0.537684654,-19.598840264407826,0.059826083970215535,0.6103322778695941,-19.31,0.92,0.9760156998580674,0.2888402644078276,0.8601739160297845,0.36568342198847326,0.9782904626328515,0.0,0.0,0.0,0.0,0.0,0.0,3.70615251035907e-05,3.70615251035907e-05,0.0,0.0,0.0,0.0,0.00014575406270269246,1.7653700516541293,0.0,0.0,0.0,0.0,-0.00014575406270278535,-1.7653700516541293,1.765370057671068,0.0,0.008351092639749444,101.14825323857374,0.0,0.0,0.0,0.0,-0.008351092639754766,-101.14825323857374,101.14825358331893
100,0.499286413192749,1775824091.3857827,0.54271148,-19.598840264407826,0.059826083970215535,0.6103322778695941,-19.31,0.92,0.9760158828461218,0.2888402644078276,0.8601739160297845,0.36568360497652774,0.9782905310335104,0.0,0.0,0.0,0.0,0.0,0.0,3.6137527502758945e-05,3.6137527502758945e-05,0.0,0.0,0.0,0.0,0.00014575406270269246,1.7653700516541293,0.0,0.0,0.0,0.0,-0.00014575406270278535,-1.7653700516541293,1.765370057671068,0.0,0.008351092639749444,101.14825323857374,0.0,0.0,0.0,0.0,-0.008351092639754766,-101.14825323857374,101.14825358331893
101,0.504270076751709,1775824091.3907664,0.547695142,-19.598840264407826,0.059826083970215535,0.6103322778695941,-19.31,0.92,0.9760160612720891,0.2888402644078276,0.8601739160297845,0.36568378340249497,0.9782905977288965,0.0,0.0,0.0,0.0,0.0,0.0,3.5236824864147e-05,3.5236824864147e-05,0.0,0.0,0.0,0.0,0.00014575406270269246,1.7653700516541293,0.0,0.0,0.0,0.0,-0.00014575406270278535,-1.7653700516541293,1.765370057671068,0.0,0.008351092639749444,101.14825323857374,0.0,0.0,0.0,0.0,-0.008351092639754766,-101.14825323857374,101.14825358331893
102,0.5092635154724121,1775824091.3957598,0.552688772,-19.598840264407826,0.059826083970215535,0.6103322778695941,-19.31,0.92,0.9760162352513186,0.2888402644078276,0.8601739160297845,0.36568395738172454,0.978290662762125,0.0,0.0,0.0,0.0,0.0,0.0,3.4358293337255716e-05,3.4358293337255716e-05,0.0,0.0,0.0,0.0,0.00014575406270269246,1.7653700516541293,0.0,0.0,0.0,0.0,-0.00014575406270278535,-1.7653700516541293,1.765370057671068,0.0,0.008351092639749444,101.14825323857374,0.0,0.0,0.0,0.0,-0.008351092639754766,-101.14825323857374,101.14825358331893
103,0.5143218040466309,1775824091.400818,0.557747029,-19.598840264407826,0.059826083970215535,0.6103322778695941,-19.31,0.92,0.9760164048910837,0.2888402644078276,0.8601739160297845,0.36568412702148956,0.9782907261732923,0.0,0.0,0.0,0.0,0.0,0.0,3.350149058763311e-05,3.350149058763311e-05,0.0,0.0,0.0,0.0,0.00014575406270269246,1.7653700516541293,0.0,0.0,0.0,0.0,-0.00014575406270278535,-1.7653700516541293,1.765370057671068,0.0,0.008351092639749444,101.14825323857374,0.0,0.0,0.0,0.0,-0.008351092639754766,-101.14825323857374,101.14825358331893
104,0.519662618637085,1775824091.406159,0.56308778,-19.598840264407826,0.059826083970215535,0.6103322778695941,-19.31,0.92,0.9760165375534112,0.2888402644078276,0.8601739160297845,0.3656842596838171,0.9782907757623497,0.0,0.0,0.0,0.0,0.0,0.0,3.283185843933658e-05,3.283185843933658e-05,0.0,0.0,0.0,0.0,0.00014575406270269246,1.7653700516541293,0.0,0.0,0.0,0.0,-0.00014575406270278535,-1.7653700516541293,1.765370057671068,0.0,0.008351092639749444,101.14825323857374,0.0,0.0,0.0,0.0,-0.008351092639754766,-101.14825323857374,101.14825358331893
