sample_idx,t_rel_s,stamp_s,t_in_traj_s,x_des_m,y_des_m,z_des_m,x_act_m,y_act_m,z_act_m,ex_m,ey_m,ez_m,e_pos_norm_m,vx_des_mps,vy_des_mps,vz_des_mps,speed_des_mps,vx_act_mps,vy_act_mps,vz_act_mps,speed_act_mps,wx_act_radps,wy_act_radps,wz_act_radps,roll_des_rad,pitch_des_rad,yaw_des_rad,roll_act_rad,pitch_act_rad,yaw_act_rad,e_roll_rad,e_pitch_rad,e_yaw_rad,e_ang_norm_rad,roll_des_deg,pitch_des_deg,yaw_des_deg,roll_act_deg,pitch_act_deg,yaw_act_deg,e_roll_deg,e_pitch_deg,e_yaw_deg,e_ang_norm_deg
0,0.0,1775825937.3277025,0.047138586,-19.342058663909416,0.844605791633279,0.6643820085551673,-19.31,0.92,0.6633187164624099,0.03205866390941736,0.07539420836672106,-0.0010632920927573508,0.08193396839514154,-1.2311091702819967,-2.938530940869111,0.04123234101353069,3.186266464930858,0.0,0.0,0.0036241313423171825,0.0036241313423171825,0.0,0.0,0.0,0.0,-0.012941005515583642,-1.9675347978500886,0.0,0.0,0.0,0.0,0.012941005515583637,1.9675347978500888,1.9675773556266458,0.0,-0.7414649986984626,-112.73143996193568,0.0,0.0,0.0,0.0,0.7414649986984623,112.73143996193569,112.73387834291786
1,0.005007266998291016,1775825937.3327098,0.052145872,-19.34856097373041,0.8290892913161065,0.6645985552445727,-19.31,0.92,0.6633366109523668,0.03856097373041223,0.0909107086838935,-0.00126194429220583,0.09875878771958434,-1.3254133607190968,-3.1771297927863684,0.044742076373102686,3.442800625999365,0.0,0.0,0.003534066947608181,0.003534066947608181,0.0,0.0,0.0,0.0,-0.012996203021203233,-1.96601896003813,0.0,0.0,0.0,0.0,0.01299620302120319,1.96601896003813,1.9660619147225191,0.0,-0.7446275828101148,-112.6445888528841,0.0,0.0,0.0,0.0,0.7446275828101123,112.6445888528841,112.64704997500992
2,0.010015249252319336,1775825937.3377178,0.057153731,-19.355517770753373,0.8124134776278039,0.6648324673554389,-19.31,0.92,0.6633540608664132,0.045517770753374265,0.10758652237219613,-0.001478406489025641,0.11682856215945904,-1.4123213067103177,-3.4008188531729373,0.048157708638560386,3.682735329939656,0.0,0.0,0.003446244948871405,0.003446244948871405,0.0,0.0,0.0,0.0,-0.013076986779360828,-1.9644126632008878,0.0,0.0,0.0,0.0,0.013076986779360755,1.9644126632008874,1.9644561891086374,0.0,-0.7492561512057505,-112.55255482346492,0.0,0.0,0.0,0.0,0.7492561512057464,112.55255482346489,112.55504867427844
3,0.01501321792602539,1775825937.3427157,0.062151741,-19.36287635660075,0.7946908040432845,0.6650827383666549,-19.31,0.92,0.6633710770539336,0.05287635660075196,0.12530919595671552,-0.0017116613127212688,0.13601923931245125,-1.491672708472436,-3.60917407156344,0.05147239184684072,3.9056208667982286,0.0,0.0,0.0033606124341560074,0.0033606124341560074,0.0,0.0,0.0,0.0,-0.013179436442308337,-1.9627156344058696,0.0,0.0,0.0,0.0,0.013179436442308123,1.9627156344058694,1.962759883196661,0.0,-0.7551260845051806,-112.45532223579819,0.0,0.0,0.0,0.0,0.7551260845051684,112.45532223579818,112.4578575047591
4,0.020015954971313477,1775825937.3477185,0.067154398,-19.370620460924357,0.7759460964675942,0.6653495962769147,-19.31,0.92,0.6633876705402523,0.060620460924358355,0.14405390353240588,-0.0019619257366624288,0.15630168443814524,-1.5637092435643039,-3.80282300418184,0.05469588686729253,4.112133392727338,0.0,0.0,0.003277111214511557,0.003277111214511557,0.0,0.0,0.0,0.0,-0.013301489656066987,-1.9609178305387787,0.0,0.0,0.0,0.0,0.013301489656067034,1.9609178305387784,1.960962944002762,0.0,-0.7621192185295593,-112.35231566182159,0.0,0.0,0.0,0.0,0.762119218529562,112.35231566182158,112.35490047290705
5,0.02504110336303711,1775825937.3527436,0.072179574,-19.378743564721216,0.7561793530736249,0.6656336522935982,-19.31,0.92,0.6634038516370628,0.0687435647212169,0.1638206469263751,-0.00222980065653533,0.17767344782190747,-1.6286279789541778,-3.982335893560667,0.05783894049504189,4.302879687605918,0.0,0.0,0.0031956909109128323,0.0031956909109128323,0.0,0.0,0.0,0.0,-0.013442319239226034,-1.9590054565244843,0.0,0.0,0.0,0.0,0.01344231923922612,1.9590054565244843,1.9590515752882138,0.0,-0.7701881592751594,-112.24274470195203,0.0,0.0,0.0,0.0,0.7701881592751643,112.24274470195203,112.2453871124701
6,0.030022859573364258,1775825937.3577254,0.077161401,-19.387100221980543,0.735729770723078,0.6659306138847938,-19.31,0.92,0.6634196308227291,0.07710022198054389,0.18427022927692205,-0.0025109830620646534,0.19976552921652058,-1.685624159546517,-4.14545287086096,0.06086094395919005,4.475467837698745,0.0,0.0,0.003116296145281805,0.003116296145281805,0.0,0.0,0.0,0.0,-0.013599208424342518,-1.956996564562791,0.0,0.0,0.0,0.0,0.013599208424342368,1.9569965645627914,1.9570438145785944,0.0,-0.7791772474335805,-112.12764367104924,0.0,0.0,0.0,0.0,0.779177247433572,112.12764367104927,112.13035089753672
7,0.035013437271118164,1775825937.362716,0.082151822,-19.395737646987122,0.7144671480010084,0.6662429479857566,-19.31,0.92,0.6634350178967685,0.08573764698712338,0.20553285199899163,-0.002807930088988053,0.2227163708242226,-1.7353690342345902,-4.294029910021584,0.06379438831792537,4.631875244123176,0.0,0.0,0.0030388787437280627,0.0030388787437280627,0.0,0.0,0.0,0.0,-0.013773342764849802,-1.9548625201194714,0.0,0.0,0.0,0.0,0.013773342764849872,1.9548625201194714,1.9549110408248167,0.0,-0.789154410212942,-112.00537193115369,0.0,0.0,0.0,0.0,0.789154410212946,112.00537193115369,112.00815196278897
8,0.04000663757324219,1775825937.3677092,0.087145237,-19.40461034678474,0.6924867017468289,0.6665698872826922,-19.31,0.92,0.6634500228152543,0.09461034678474078,0.22751329825317113,-0.0031198644674378384,0.2464206812649062,-1.7777811700480757,-4.427848636423497,0.06663565503236822,4.771874866986405,0.0,0.0,0.0029633858366251917,0.0029633858366251917,0.0,0.0,0.0,0.0,-0.013964704176427919,-1.9525951269565276,0.0,0.0,0.0,0.0,0.013964704176427922,1.9525951269565276,1.9526450631840682,0.0,-0.8001186114580339,-111.8754598724202,0.0,0.0,0.0,0.0,0.8001186114580341,111.8754598724202,111.87832100750308
9,0.04503798484802246,1775825937.3727405,0.092176558,-19.413745908253233,0.6697012510553665,0.6669134195406909,-19.31,0.92,0.6634646548902311,0.10374590825323438,0.25029874894463355,-0.0034487646504598457,0.27096968682889877,-1.8130663999763814,-4.547661759698389,0.06940345195489138,4.89624898166848,0.0,0.0,0.002889772468548912,0.002889772468548912,0.0,0.0,0.0,0.0,-0.014175295533236664,-1.9501651297824392,0.0,0.0,0.0,0.0,0.01417529553323682,1.9501651297824392,1.9502166475606786,0.0,-0.8121846074051087,-111.73623129011621,0.0,0.0,0.0,0.0,0.8121846074051176,111.73623129011621,111.73918304137922
10,0.05001974105834961,1775825937.3777223,0.097158189,-19.422947745762798,0.6465840407295668,0.6672670441961792,-19.31,0.92,0.663478923587603,0.1129477457627992,0.2734159592704333,-0.003788120608576251,0.2958510265562962,-1.840636519053262,-4.651435982034099,0.0720499245609879,5.00289822821365,0.0,0.0,0.0028179890691588895,0.0028179890691588895,0.0,0.0,0.0,0.0,-0.014402134946244547,-1.9476020862836299,0.0,0.0,0.0,0.0,0.014402134946244427,1.9476020862836299,1.947655336035449,0.0,-0.8251815483976853,-111.589379714926,0.0,0.0,0.0,0.0,0.8251815483976784,111.589379714926,111.59243070096534
11,0.05500173568725586,1775825937.3827043,0.102140301,-19.432269574129386,0.622984385229401,0.6676336556586,-19.31,0.92,0.6634928377607934,0.12226957412938688,0.297015614770599,-0.004140817897806626,0.32122464187574606,-1.8608781667270864,-4.7404361948560645,0.07460311639575777,5.093149172553162,0.0,0.0,0.002747992157266069,0.002747992157266069,0.0,0.0,0.0,0.0,-0.014648262182479084,-1.9448674820813971,0.0,0.0,0.0,0.0,0.014648262182479055,1.9448674820813974,1.944922644848016,0.0,-0.8392836002571437,-111.43269843549932,0.0,0.0,0.0,0.0,0.839283600257142,111.43269843549933,111.43585902921284
12,0.060004472732543945,1775825937.387707,0.107142935,-19.441712843884932,0.5988785262984897,0.6680143411332564,-19.31,0.92,0.6635064064049313,0.13171284388493376,0.32112147370151034,-0.004507934728325114,0.3471132316579153,-1.8738263438795146,-4.814926792615989,0.07707270560563807,5.167270593574284,0.0,0.0,0.0026797340012854882,0.0026797340012854882,0.0,0.0,0.0,0.0,-0.014916107502368629,-1.941932006317415,0.0,0.0,0.0,0.0,0.014916107502368714,1.9419320063174155,1.9419892912740289,0.0,-0.854630006649146,-111.2645080633602,0.0,0.0,0.0,0.0,0.8546300066491509,111.26450806336022,111.26779024960376
13,0.06499671936035156,1775825937.3926992,0.112135149,-19.45118261054153,0.5744885103982283,0.6684063147115142,-19.31,0.92,0.6635196379330187,0.1411826105415308,0.3455114896017717,-0.0048866767784955245,0.3732754995657956,-1.8793786199316815,-4.874401980760292,0.07944313234593268,5.2247650548491755,0.0,0.0,0.002613173802949313,0.002613173802949313,0.0,0.0,0.0,0.0,-0.015205696902772108,-1.9387935354126542,0.0,0.0,0.0,0.0,0.015205696902772292,1.9387935354126542,1.9388531626134553,0.0,-0.8712222570839895,-111.0846869263928,0.0,0.0,0.0,0.0,0.871222257084,111.0846869263928,111.08810331334288
14,0.06999444961547852,1775825937.397697,0.117132945,-19.460672311376733,0.5498109559278515,0.6688103451000024,-19.31,0.92,0.6635325408959365,0.1506723113767343,0.3701890440721486,-0.005277804204065872,0.39971230777132094,-1.877563504315027,-4.91907400289313,0.08172213143697037,5.265853422327797,0.0,0.0,0.0025482666283888184,0.0025482666283888184,0.0,0.0,0.0,0.0,-0.015519879811359927,-1.9354196449724341,0.0,0.0,0.0,0.0,0.015519879811360049,1.9354196449724341,1.9354818699266036,0.0,-0.8892236117412161,-110.89137724362865,0.0,0.0,0.0,0.0,0.889223611741223,110.89137724362865,110.89494247088297
15,0.07503724098205566,1775825937.4027398,0.122175652,-19.470219296610875,0.524723271836009,0.6692293102999287,-19.31,0.92,0.6635451232924168,0.16021929661087597,0.39527672816399106,-0.005684187007511943,0.4265515500106053,-1.8682546138704128,-4.949068334253818,0.08392620668221108,5.290623430894511,0.0,0.0,0.0024849740159293837,0.0024849740159293837,0.0,0.0,0.0,0.0,-0.015863863315337786,-1.9317536703332219,0.0,0.0,0.0,0.0,0.015863863315337845,1.9317536703332223,1.9318188074985614,0.0,-0.908932414741269,-110.68133236899979,0.0,0.0,0.0,0.0,0.9089324147412723,110.68133236899982,110.6850644536632
16,0.0800008773803711,1775825937.4077034,0.127139337,-19.479552529336736,0.49991791693224974,0.6696523311924314,-19.31,0.92,0.663557393254312,0.16955252933673748,0.4200820830677503,-0.006094937938119438,0.45304984823691863,-1.8517563163494624,-4.963800241389544,0.08600215361455334,5.298651777762468,0.0,0.0,0.0024232535110072853,0.0024232535110072853,0.0,0.0,0.0,0.0,-0.01623166303263001,-1.9278581939795725,0.0,0.0,0.0,0.0,0.016231663032630017,1.9278581939795725,1.9279265242687502,0.0,-0.9300057862482182,-110.45813801474267,0.0,0.0,0.0,0.0,0.9300057862482186,110.45813801474267,110.46205305192547
17,0.0849909782409668,1775825937.4126935,0.132129401,-19.488834546278145,0.47494387139708205,0.670087753718164,-19.31,0.92,0.6635693583884448,0.17883454627814643,0.445056128602918,-0.0065183953297192065,0.4796866081382741,-1.8278348707089445,-4.963817665997123,0.08799554133120115,5.290388393222078,0.0,0.0,0.002363068317067205,0.002363068317067205,0.0,0.0,0.0,0.0,-0.016633863672875854,-1.9236199556329658,0.0,0.0,0.0,0.0,0.016633863672876004,1.923619955632966,1.9236918721900507,0.0,-0.9530501854517647,-110.21530484491161,0.0,0.0,0.0,0.0,0.9530501854517732,110.21530484491163,110.21942536010968
18,0.09000420570373535,1775825937.4177067,0.137142613,-19.498020883612575,0.44989126764187426,0.6705349760498449,-19.31,0.92,0.6635810264268789,0.18802088361257674,0.4701087323581258,-0.006953949622966027,0.506361955846978,-1.7963962918209122,-4.948899830654766,0.089903682386433,5.265617897571883,0.0,0.0,0.0023043778809390836,0.0023043778809390836,0.0,0.0,0.0,0.0,-0.017074549028666022,-1.918995468697869,0.0,0.0,0.0,0.0,0.01707454902866612,1.9189954686978687,1.91907142887061,0.0,-0.9782995964317623,-109.95034126111717,0.0,0.0,0.0,0.0,0.9782995964317679,109.95034126111716,109.95469345842632
19,0.09500837326049805,1775825937.422711,0.142146888,-19.507015121982196,0.42499529019689475,0.6709907049837196,-19.31,0.92,0.663592404602497,0.19701512198219717,0.4950047098031053,-0.007398300381222578,0.5328220677350436,-1.757610292340939,-4.919078693636787,0.09171396264521793,5.22445600851211,0.0,0.0,0.0022471474093806267,0.0022471474093806267,0.0,0.0,0.0,0.0,-0.01755564095358832,-1.9139638587746532,0.0,0.0,0.0,0.0,0.017555640953588192,1.913963858774653,1.9140443707565535,0.0,-1.0058641332876348,-109.66205124836077,0.0,0.0,0.0,0.0,1.0058641332876272,109.66205124836075,109.66666424512388
20,0.10003161430358887,1775825937.4277341,0.1471702,-19.515829710081576,0.40019232235623514,0.6714570403864613,-19.31,0.92,0.6636035002684699,0.20582971008157713,0.5198076776437649,-0.007853540117991331,0.5591310842566841,-1.7112376226671175,-4.874142311414454,0.09343621536732354,5.1666553784333455,0.0,0.0,0.0021913385010181004,0.0021913385010181004,0.0,0.0,0.0,0.0,-0.018085454185348775,-1.9084372962094676,0.0,0.0,0.0,0.0,0.01808545418534857,1.9084372962094678,1.908522988390864,0.0,-1.0362201953976953,-109.34540253816063,0.0,0.0,0.0,0.0,1.0362201953976835,109.34540253816064,109.35031233849192
21,0.10500240325927734,1775825937.432705,0.152140959,-19.524304481197163,0.37590793964844516,0.6719267797234043,-19.31,0.92,0.6636143203023256,0.21430448119716416,0.5440920603515549,-0.008312459421078722,0.584834743992192,-1.658013404138182,-4.81488080778129,0.0950468429715801,5.09324253730385,0.0,0.0,0.0021369173687725606,0.0021369173687725606,0.0,0.0,0.0,0.0,-0.01866244534022696,-1.9024306061900067,0.0,0.0,0.0,0.0,0.018662445340226874,1.9024306061900065,1.9025221413257067,0.0,-1.0692793533885945,-109.00124455120218,0.0,0.0,0.0,0.0,1.0692793533885896,109.00124455120216,109.00648912815494
22,0.10999226570129395,1775825937.4376948,0.157130842,-19.532527473605406,0.35186328859192584,0.6724061452314156,-19.31,0.92,0.6636248716916191,0.2225274736054068,0.5681367114080742,-0.00878127353979652,0.6102252945623995,-1.5972441329155993,-4.740588826522945,0.09657001410279535,5.003368566267262,0.0,0.0,0.002083846925199552,0.002083846925199552,0.0,0.0,0.0,0.0,-0.019302198044663745,-1.8957799148675212,0.0,0.0,0.0,0.0,0.019302198044663932,1.8957799148675214,1.8958781765884807,0.0,-1.1059344832849027,-108.62018800757947,0.0,0.0,0.0,0.0,1.1059344832849134,108.62018800757949,108.62581798947814
23,0.11500144004821777,1775825937.442704,0.162139909,-19.540458595478555,0.32813635610910574,0.6728947619679636,-19.31,0.92,0.6636351609728207,0.23045859547855585,0.5918636438908943,-0.009259600995142891,0.6352160871706142,-1.5288443871539499,-4.651094685424324,0.09800466652071799,4.896902270576202,0.0,0.0,0.002032096154826847,0.002032096154826847,0.0,0.0,0.0,0.0,-0.02001494104252172,-1.8883768376492587,0.0,0.0,0.0,0.0,0.020014941042521883,1.8883768376492585,1.8884829040357103,0.0,-1.1467716489396664,-108.19602292756358,0.0,0.0,0.0,0.0,1.1467716489396758,108.19602292756356,108.20210008385546
24,0.12000012397766113,1775825937.4477026,0.167138622,-19.54801328781552,0.3049426248429431,0.6733892969534482,-19.31,0.92,0.663645194793758,0.238013287815523,0.6150573751570569,-0.009744102159690127,0.6595762635501237,-1.453197955988373,-4.546886682690595,0.09934209068082905,4.774498052727502,0.0,0.0,0.0019816307018960507,0.0019816307018960507,0.0,0.0,0.0,0.0,-0.020808315115263577,-1.8801389730909415,0.0,0.0,0.0,0.0,0.020808315115263376,1.8801389730909417,1.880254116898404,0.0,-1.1922286348828801,-107.7240280561716,0.0,0.0,0.0,0.0,1.1922286348828686,107.72402805617162,107.73062531037627
25,0.12499713897705078,1775825937.4526997,0.172135624,-19.555169020954146,0.2823146424260179,0.6738901094549312,-19.31,0.92,0.6636549793725753,0.2451690209541475,0.6376853575739821,-0.010235130082355881,0.6832680454899639,-1.3702007790667998,-4.4278385535138325,0.10058494016505776,4.636089058800181,0.0,0.0,0.0019324198842137342,0.0019324198842137342,0.0,0.0,0.0,0.0,-0.021697778403352543,-1.8709014050057802,0.0,0.0,0.0,0.0,0.02169777840335252,1.87090140500578,1.8710272207641028,0.0,-1.2431911273222067,-107.19475439192712,0.0,0.0,0.0,0.0,1.2431911273222054,107.1947543919271,107.20196310387523
26,0.12999916076660156,1775825937.4577017,0.177137698,-19.56189818057031,0.26029672478569843,0.6743974146372547,-19.31,0.92,0.6636645210260654,0.2518981805703113,0.6597032752143016,-0.010732893611189231,0.706240964337512,-1.2797327504466167,-4.293773687823795,0.10173480705288346,4.481579896172744,0.0,0.0,0.0018844300604832687,0.0018844300604832687,0.0,0.0,0.0,0.0,-0.022702606914803348,-1.8604575040844913,0.0,0.0,0.0,0.0,0.022702606914803525,1.8604575040844917,1.8605960154920853,0.0,-1.3007635601627507,-106.59636294748447,0.0,0.0,0.0,0.0,1.300763560162761,106.5963629474845,106.60429906655402
27,0.13499927520751953,1775825937.4627018,0.182137804,-19.568153964139178,0.23899491880910428,0.6749100329257844,-19.31,0.92,0.6636738256624352,0.25815396413917924,0.6810050811908958,-0.011236207263349285,0.7283801494839464,-1.181914320478939,-4.1448669048474525,0.10278998527596955,4.311311737850318,0.0,0.0,0.0018376328246266004,0.0018376328246266004,0.0,0.0,0.0,0.0,-0.023844187639335344,-1.8485754421549025,0.0,0.0,0.0,0.0,0.023844187639335157,1.8485754421549023,1.848729215061625,0.0,-1.3661713176519208,-105.91557094700596,0.0,0.0,0.0,0.0,1.3661713176519101,105.91557094700595,105.92438148556462
28,0.1400008201599121,1775825937.4677033,0.18713921,-19.573903608749195,0.21846966567009066,0.6754278268709687,-19.31,0.92,0.6636828992882476,0.26390360874919594,0.7015303343299094,-0.011744927582721054,0.7496184816423662,-1.0766830365466444,-3.981023866064821,0.10375118336912464,4.125355947238431,0.0,0.0,0.0017919968202371732,0.0017919968202371732,0.0,0.0,0.0,0.0,-0.025152283823060652,-1.8349310796827993,0.0,0.0,0.0,0.0,0.02515228382306045,1.8349310796827991,1.8351034588184392,0.0,-1.4411197081765503,-105.13380656320776,0.0,0.0,0.0,0.0,1.4411197081765388,105.13380656320776,105.14368316015604
29,0.14500164985656738,1775825937.4727042,0.192140126,-19.57910799079294,0.1988029998357993,0.6759501410390271,-19.31,0.92,0.6636917475229491,0.2691079907929428,0.7211970001642007,-0.012258393516077937,0.769866541659041,-0.9640747662005293,-3.802299591671076,0.10461803442253786,3.92401163005069,0.0,0.0,0.0017474952817231222,0.0017474952817231222,0.0,0.0,0.0,0.0,-0.026664149383061313,-1.8191137867152745,0.0,0.0,0.0,0.0,0.026664149383061275,1.819113786715274,1.8193091946889912,0.0,-1.5277432239557711,-104.22754243284663,0.0,0.0,0.0,0.0,1.527743223955769,104.2275424328466,104.2387384850238
30,0.1500232219696045,1775825937.4777257,0.197161738,-19.583748628920745,0.1799918688683545,0.6764787409878774,-19.31,0.92,0.6637003760810973,0.27374862892074603,0.7400081311316455,-0.012778364906780082,0.7891220644403689,-0.893971463405016,-3.690979602884779,0.1051549823753921,3.7991542449093005,0.0,0.0,0.001704098590489243,0.001704098590489243,0.0,0.0,0.0,0.0,-0.02768205942100094,-1.8084245948555697,0.0,0.0,0.0,0.0,0.027682059421000993,1.8084245948555697,1.8086364509464912,0.0,-1.5860651730537132,-103.61509685287996,0.0,0.0,0.0,0.0,1.5860651730537163,103.61509685287996,103.6272353127539
31,0.15501689910888672,1775825937.4827194,0.202155309,-19.58774479697245,0.16229134263626033,0.6770080156966967,-19.31,0.92,0.6637087903083592,0.2777447969724527,0.7577086573637397,-0.013299225388337499,0.8071192297827873,-0.8368327602823704,-3.5998989526741494,0.10557606815470412,3.697392032813569,0.0,0.0,0.001661780732658847,0.001661780732658847,0.0,0.0,0.0,0.0,-0.028558080738033453,-1.7991999257336317,0.0,0.0,0.0,0.0,0.028558080738033453,1.7991999257336317,1.7994265577498143,0.0,-1.636257497283168,-103.08656224478825,0.0,0.0,0.0,0.0,1.636257497283168,103.08656224478825,103.09954730281805
32,0.1600050926208496,1775825937.4877076,0.207143615,-19.59108412564621,0.14568480449520757,0.6775398737620374,-19.31,0.92,0.6637169956374597,0.28108412564620977,0.7743151955047924,-0.01382287812457772,0.8238709726890286,-0.7773030993144194,-3.503971217203708,0.10596543561410955,3.5907162339484198,0.0,0.0,0.0016205130828572786,0.0016205130828572786,0.0,0.0,0.0,0.0,-0.02951523193478508,-1.789096145685485,0.0,0.0,0.0,0.0,0.029515231934785113,1.7890961456854848,1.7893395897433282,0.0,-1.691098221212932,-102.50765829090096,0.0,0.0,0.0,0.0,1.691098221212934,102.50765829090095,102.52160660796291
33,0.16501331329345703,1775825937.4927158,0.212151788,-19.593743626248042,0.13016781621116552,0.6780765372320383,-19.31,0.92,0.6637249971497969,0.28374362624804306,0.7898321837888345,-0.014351540082241376,0.8393755361503935,-0.7150717838594032,-3.4026913653956705,0.10632490897861692,3.4786407072992507,0.0,0.0,0.001580270971292288,0.001580270971292288,0.0,0.0,0.0,0.0,-0.03056983462759747,-1.77793110969834,0.0,0.0,0.0,0.0,0.030569834627597547,1.77793110969834,1.7781938998945894,0.0,-1.7515225045742138,-101.86794885072587,0.0,0.0,0.0,0.0,1.7515225045742182,101.86794885072587,101.88300561986837
34,0.17001914978027344,1775825937.4977217,0.217157605,-19.594265787297413,0.12668393544477685,0.6782034899152043,-19.31,0.92,0.6637328000098847,0.28426578729741436,0.7933160645552232,-0.014470689905319634,0.8428326150402237,-0.6504020233388488,-3.296482731268706,0.10665272813734744,3.361725151456495,0.0,0.0,0.001541027234953268,0.001541027234953268,0.0,0.0,0.0,0.0,-0.031730918701543806,-1.7655961361550991,0.0,0.0,0.0,0.0,0.031730918701543764,1.7655961361550991,1.7658812438007998,0.0,-1.8180477216711943,-101.16120692629264,0.0,0.0,0.0,0.0,1.8180477216711919,101.16120692629264,101.1775423910982
35,0.17501306533813477,1775825937.5027156,0.222151487,-19.594265787297413,0.12668393544477685,0.6782034899152043,-19.31,0.92,0.6637404090485873,0.28426578729741436,0.7933160645552232,-0.014463080866616962,0.8428324844341016,-0.5834281264472635,-3.1855698449180125,0.10694840049568857,3.240321214933686,0.0,0.0,0.001502758574836441,0.001502758574836441,0.0,0.0,0.0,0.0,-0.03301148883804917,-1.7519359930482896,0.0,0.0,0.0,0.0,0.033011488838049274,1.7519359930482894,1.7522469809171881,0.0,-1.8914189858634434,-100.37853837872773,0.0,0.0,0.0,0.0,1.8914189858634494,100.37853837872771,100.39635667109538
36,0.18001675605773926,1775825937.5077193,0.227155188,-19.594265787297413,0.12668393544477685,0.6782034899152043,-19.31,0.92,0.6637478291767447,0.28426578729741436,0.7933160645552232,-0.014455660738459608,0.8428323571366914,-0.5138599090301276,-3.0694727070453798,0.10721323398103037,3.11403426168461,0.0,0.0,0.0014654392929257264,0.0014654392929257264,0.0,0.0,0.0,0.0,-0.03443585308004974,-1.7366679963615936,0.0,0.0,0.0,0.0,0.03443585308004993,1.7366679963615939,1.7370093717547823,0.0,-1.9730290454194268,-99.50374660696032,0.0,0.0,0.0,0.0,1.9730290454194375,99.50374660696033,99.52330597621965
37,0.18506669998168945,1775825937.5127692,0.232205252,-19.594265787297413,0.12668393544477685,0.6782034899152043,-19.31,0.92,0.6637550649885593,0.28426578729741436,0.7933160645552232,-0.014448424926644998,0.842832233064248,-0.44114766912716813,-2.947259487575062,0.10744863178370329,2.982028665447356,0.0,0.0,0.0014290474836656274,0.0014290474836656274,0.0,0.0,0.0,0.0,-0.036039860006031425,-1.7193739215483914,0.0,0.0,0.0,0.0,0.03603986000603143,1.7193739215483914,1.719751596484198,0.0,-2.0649318725879304,-98.51286910958034,0.0,0.0,0.0,0.0,2.064931872587931,98.51286910958034,98.53450828942994
38,0.18999457359313965,1775825937.517697,0.237133152,-19.594265787297413,0.12668393544477685,0.6782034899152043,-19.31,0.92,0.6637621211558515,0.28426578729741436,0.7933160645552232,-0.014441368759352757,0.8428321121319771,0.0,0.0,0.0,0.0,0.0,0.0,0.001393558913181005,0.001393558913181005,0.0,0.0,0.0,0.0,-0.036039860006031425,-1.7193739215483914,0.0,0.0,0.0,0.0,0.03603986000603143,1.7193739215483914,1.719751596484198,0.0,-2.0649318725879304,-98.51286910958034,0.0,0.0,0.0,0.0,2.064931872587931,98.51286910958034,98.53450828942994
39,0.19500350952148438,1775825937.522706,0.242142031,-19.594265787297413,0.12668393544477685,0.6782034899152043,-19.31,0.92,0.6637690020494306,0.28426578729741436,0.7933160645552232,-0.014434487865773726,0.8428319942605128,0.0,0.0,0.0,0.0,0.0,0.0,0.0013589526711131666,0.0013589526711131666,0.0,0.0,0.0,0.0,-0.036039860006031425,-1.7193739215483914,0.0,0.0,0.0,0.0,0.03603986000603143,1.7193739215483914,1.719751596484198,0.0,-2.0649318725879304,-98.51286910958034,0.0,0.0,0.0,0.0,2.064931872587931,98.51286910958034,98.53450828942994
40,0.20000815391540527,1775825937.5277107,0.247146747,-19.594265787297413,0.12668393544477685,0.6782034899152043,-19.31,0.92,0.6637757121135163,0.28426578729741436,0.7933160645552232,-0.014427777801688024,0.8428318793694866,0.0,0.0,0.0,0.0,0.0,0.0,0.0013252056449596485,0.0013252056449596485,0.0,0.0,0.0,0.0,-0.036039860006031425,-1.7193739215483914,0.0,0.0,0.0,0.0,0.03603986000603143,1.7193739215483914,1.719751596484198,0.0,-2.0649318725879304,-98.51286910958034,0.0,0.0,0.0,0.0,2.064931872587931,98.51286910958034,98.53450828942994
41,0.20500612258911133,1775825937.5327086,0.252144616,-19.594265787297413,0.12668393544477685,0.6782034899152043,-19.31,0.92,0.663782255479965,0.28426578729741436,0.7933160645552232,-0.014421234435239239,0.8428317673841216,0.0,0.0,0.0,0.0,0.0,0.0,0.0012922825794272927,0.0012922825794272927,0.0,0.0,0.0,0.0,-0.036039860006031425,-1.7193739215483914,0.0,0.0,0.0,0.0,0.03603986000603143,1.7193739215483914,1.719751596484198,0.0,-2.0649318725879304,-98.51286910958034,0.0,0.0,0.0,0.0,2.064931872587931,98.51286910958034,98.53450828942994
42,0.21001100540161133,1775825937.5377135,0.257149591,-19.594265787297413,0.12668393544477685,0.6782034899152043,-19.31,0.92,0.6637886362541573,0.28426578729741436,0.7933160645552232,-0.014414853661047,0.8428316582303226,0.0,0.0,0.0,0.0,0.0,0.0,0.0012601490133665335,0.0012601490133665335,0.0,0.0,0.0,0.0,-0.036039860006031425,-1.7193739215483914,0.0,0.0,0.0,0.0,0.03603986000603143,1.7193739215483914,1.719751596484198,0.0,-2.0649318725879304,-98.51286910958034,0.0,0.0,0.0,0.0,2.064931872587931,98.51286910958034,98.53450828942994
43,0.21499371528625488,1775825937.5426962,0.262132128,-19.594265787297413,0.12668393544477685,0.6782034899152043,-19.31,0.92,0.6637948582510707,0.28426578729741436,0.7933160645552232,-0.014408631664133642,0.8428315518391789,0.0,0.0,0.0,0.0,0.0,0.0,0.0012287892267435116,0.0012287892267435116,0.0,0.0,0.0,0.0,-0.036039860006031425,-1.7193739215483914,0.0,0.0,0.0,0.0,0.03603986000603143,1.7193739215483914,1.719751596484198,0.0,-2.0649318725879304,-98.51286910958034,0.0,0.0,0.0,0.0,2.064931872587931,98.51286910958034,98.53450828942994
44,0.21999764442443848,1775825937.5477002,0.267136257,-19.594265787297413,0.12668393544477685,0.6782034899152043,-19.31,0.92,0.6638009254556348,0.28426578729741436,0.7933160645552232,-0.014402564459569445,0.8428314481390795,0.0,0.0,0.0,0.0,0.0,0.0,0.0011982140503089865,0.0011982140503089865,0.0,0.0,0.0,0.0,-0.036039860006031425,-1.7193739215483914,0.0,0.0,0.0,0.0,0.03603986000603143,1.7193739215483914,1.719751596484198,0.0,-2.0649318725879304,-98.51286910958034,0.0,0.0,0.0,0.0,2.064931872587931,98.51286910958034,98.53450828942994
45,0.22524356842041016,1775825937.552946,0.272382044,-19.594265787297413,0.12668393544477685,0.6782034899152043,-19.31,0.92,0.6638068416705811,0.28426578729741436,0.7933160645552232,-0.014396648244623167,0.842831347061727,0.0,0.0,0.0,0.0,0.0,0.0,0.0011684056739167624,0.0011684056739167624,0.0,0.0,0.0,0.0,-0.036039860006031425,-1.7193739215483914,0.0,0.0,0.0,0.0,0.03603986000603143,1.7193739215483914,1.719751596484198,0.0,-2.0649318725879304,-98.51286910958034,0.0,0.0,0.0,0.0,2.064931872587931,98.51286910958034,98.53450828942994
46,0.22999024391174316,1775825937.5576928,0.27712865,-19.594265787297413,0.12668393544477685,0.6782034899152043,-19.31,0.92,0.6638126107538944,0.28426578729741436,0.7933160645552232,-0.014390879161309877,0.8428312485380696,0.0,0.0,0.0,0.0,0.0,0.0,0.0011393427682568904,0.0011393427682568904,0.0,0.0,0.0,0.0,-0.036039860006031425,-1.7193739215483914,0.0,0.0,0.0,0.0,0.03603986000603143,1.7193739215483914,1.719751596484198,0.0,-2.0649318725879304,-98.51286910958034,0.0,0.0,0.0,0.0,2.064931872587931,98.51286910958034,98.53450828942994
47,0.2350001335144043,1775825937.5627027,0.282138586,-19.594265787297413,0.12668393544477685,0.6782034899152043,-19.31,0.92,0.6638182363114212,0.28426578729741436,0.7933160645552232,-0.014385253603783066,0.8428311525035433,0.0,0.0,0.0,0.0,0.0,0.0,0.0011110071778519628,0.0011110071778519628,0.0,0.0,0.0,0.0,-0.036039860006031425,-1.7193739215483914,0.0,0.0,0.0,0.0,0.03603986000603143,1.7193739215483914,1.719751596484198,0.0,-2.0649318725879304,-98.51286910958034,0.0,0.0,0.0,0.0,2.064931872587931,98.51286910958034,98.53450828942994
48,0.2400050163269043,1775825937.5677075,0.287143564,-19.594265787297413,0.12668393544477685,0.6782034899152043,-19.31,0.92,0.6638237220039742,0.28426578729741436,0.7933160645552232,-0.01437976791123008,0.8428310588928167,0.0,0.0,0.0,0.0,0.0,0.0,0.0010833790984091732,0.0010833790984091732,0.0,0.0,0.0,0.0,-0.036039860006031425,-1.7193739215483914,0.0,0.0,0.0,0.0,0.03603986000603143,1.7193739215483914,1.719751596484198,0.0,-2.0649318725879304,-98.51286910958034,0.0,0.0,0.0,0.0,2.064931872587931,98.51286910958034,98.53450828942994
49,0.24503660202026367,1775825937.5727391,0.29217521,-19.594265787297413,0.12668393544477685,0.6782034899152043,-19.31,0.92,0.6638290712548046,0.28426578729741436,0.7933160645552232,-0.01437441866039968,0.8428309676447765,0.0,0.0,0.0,0.0,0.0,0.0,0.0010564419011456106,0.0010564419011456106,0.0,0.0,0.0,0.0,-0.036039860006031425,-1.7193739215483914,0.0,0.0,0.0,0.0,0.03603986000603143,1.7193739215483914,1.719751596484198,0.0,-2.0649318725879304,-98.51286910958034,0.0,0.0,0.0,0.0,2.064931872587931,98.51286910958034,98.53450828942994
50,0.24998855590820312,1775825937.577691,0.297127035,-19.594265787297413,0.12668393544477685,0.6782034899152043,-19.31,0.92,0.6638342875431047,0.28426578729741436,0.7933160645552232,-0.014369202372099599,0.8428308786975097,0.0,0.0,0.0,0.0,0.0,0.0,0.0010301772791648097,0.0010301772791648097,0.0,0.0,0.0,0.0,-0.036039860006031425,-1.7193739215483914,0.0,0.0,0.0,0.0,0.03603986000603143,1.7193739215483914,1.719751596484198,0.0,-2.0649318725879304,-98.51286910958034,0.0,0.0,0.0,0.0,2.064931872587931,98.51286910958034,98.53450828942994
51,0.255002498626709,1775825937.582705,0.302140906,-19.594265787297413,0.12668393544477685,0.6782034899152043,-19.31,0.92,0.6638393741221609,0.28426578729741436,0.7933160645552232,-0.01436411579304342,0.8428307919931034,0.0,0.0,0.0,0.0,0.0,0.0,0.0010045688731469974,0.0010045688731469974,0.0,0.0,0.0,0.0,-0.036039860006031425,-1.7193739215483914,0.0,0.0,0.0,0.0,0.03603986000603143,1.7193739215483914,1.719751596484198,0.0,-2.0649318725879304,-98.51286910958034,0.0,0.0,0.0,0.0,2.064931872587931,98.51286910958034,98.53450828942994
52,0.2600083351135254,1775825937.5877109,0.307146922,-19.594265787297413,0.12668393544477685,0.6782034899152043,-19.31,0.92,0.6638443342949807,0.28426578729741436,0.7933160645552232,-0.014359155620223607,0.8428307074729372,0.0,0.0,0.0,0.0,0.0,0.0,0.0009795988322339347,0.0009795988322339347,0.0,0.0,0.0,0.0,-0.036039860006031425,-1.7193739215483914,0.0,0.0,0.0,0.0,0.03603986000603143,1.7193739215483914,1.719751596484198,0.0,-2.0649318725879304,-98.51286910958034,0.0,0.0,0.0,0.0,2.064931872587931,98.51286910958034,98.53450828942994
53,0.26500773429870605,1775825937.5927103,0.312146226,-19.594265787297413,0.12668393544477685,0.6782034899152043,-19.31,0.92,0.6638491711496636,0.28426578729741436,0.7933160645552232,-0.014354318765540719,0.8428306250821862,0.0,0.0,0.0,0.0,0.0,0.0,0.0009552518012825049,0.0009552518012825049,0.0,0.0,0.0,0.0,-0.036039860006031425,-1.7193739215483914,0.0,0.0,0.0,0.0,0.03603986000603143,1.7193739215483914,1.719751596484198,0.0,-2.0649318725879304,-98.51286910958034,0.0,0.0,0.0,0.0,2.064931872587931,98.51286910958034,98.53450828942994
54,0.27001190185546875,1775825937.5977144,0.317150483,-19.594265787297413,0.12668393544477685,0.6782034899152043,-19.31,0.92,0.663853887822581,0.28426578729741436,0.7933160645552232,-0.01434960209262326,0.8428305447653297,0.0,0.0,0.0,0.0,0.0,0.0,0.000931510977106553,0.000931510977106553,0.0,0.0,0.0,0.0,-0.036039860006031425,-1.7193739215483914,0.0,0.0,0.0,0.0,0.03603986000603143,1.7193739215483914,1.719751596484198,0.0,-2.0649318725879304,-98.51286910958034,0.0,0.0,0.0,0.0,2.064931872587931,98.51286910958034,98.53450828942994
55,0.2750115394592285,1775825937.602714,0.3221501,-19.594265787297413,0.12668393544477685,0.6782034899152043,-19.31,0.92,0.6638584872468772,0.28426578729741436,0.7933160645552232,-0.014345002668327056,0.8428304664704286,0.0,0.0,0.0,0.0,0.0,0.0,0.0009083621407973278,0.0009083621407973278,0.0,0.0,0.0,0.0,-0.036039860006031425,-1.7193739215483914,0.0,0.0,0.0,0.0,0.03603986000603143,1.7193739215483914,1.719751596484198,0.0,-2.0649318725879304,-98.51286910958034,0.0,0.0,0.0,0.0,2.064931872587931,98.51286910958034,98.53450828942994
56,0.2799978256225586,1775825937.6077003,0.327136242,-19.594265787297413,0.12668393544477685,0.6782034899152043,-19.31,0.92,0.6638629724038116,0.28426578729741436,0.7933160645552232,-0.014340517511392648,0.8428303901448384,0.0,0.0,0.0,0.0,0.0,0.0,0.000885789630133345,0.000885789630133345,0.0,0.0,0.0,0.0,-0.036039860006031425,-1.7193739215483914,0.0,0.0,0.0,0.0,0.03603986000603143,1.7193739215483914,1.719751596484198,0.0,-2.0649318725879304,-98.51286910958034,0.0,0.0,0.0,0.0,2.064931872587931,98.51286910958034,98.53450828942994
57,0.28499555587768555,1775825937.612698,0.33213411,-19.594265787297413,0.12668393544477685,0.6782034899152043,-19.31,0.92,0.6638673460821474,0.28426578729741436,0.7933160645552232,-0.014336143833056925,0.8428303157393,0.0,0.0,0.0,0.0,0.0,0.0,0.0008637800451658335,0.0008637800451658335,0.0,0.0,0.0,0.0,-0.036039860006031425,-1.7193739215483914,0.0,0.0,0.0,0.0,0.03603986000603143,1.7193739215483914,1.719751596484198,0.0,-2.0649318725879304,-98.51286910958034,0.0,0.0,0.0,0.0,2.064931872587931,98.51286910958034,98.53450828942994
58,0.29000234603881836,1775825937.6177049,0.337140959,-19.594265787297413,0.12668393544477685,0.6782034899152043,-19.31,0.92,0.663871611117131,0.28426578729741436,0.7933160645552232,-0.014331878798073294,0.8428302432038663,0.0,0.0,0.0,0.0,0.0,0.0,0.0008423185915604911,0.0008423185915604911,0.0,0.0,0.0,0.0,-0.036039860006031425,-1.7193739215483914,0.0,0.0,0.0,0.0,0.03603986000603143,1.7193739215483914,1.719751596484198,0.0,-2.0649318725879304,-98.51286910958034,0.0,0.0,0.0,0.0,2.064931872587931,98.51286910958034,98.53450828942994
59,0.2950003147125244,1775825937.6227028,0.342138862,-19.594265787297413,0.12668393544477685,0.6782034899152043,-19.31,0.92,0.6638757701602709,0.28426578729741436,0.7933160645552232,-0.01432771975493341,0.8428301724918145,0.0,0.0,0.0,0.0,0.0,0.0,0.0008213920353141691,0.0008213920353141691,0.0,0.0,0.0,0.0,-0.036039860006031425,-1.7193739215483914,0.0,0.0,0.0,0.0,0.03603986000603143,1.7193739215483914,1.719751596484198,0.0,-2.0649318725879304,-98.51286910958034,0.0,0.0,0.0,0.0,2.064931872587931,98.51286910958034,98.53450828942994
60,0.3000144958496094,1775825937.627717,0.347152995,-19.594265787297413,0.12668393544477685,0.6782034899152043,-19.31,0.92,0.663879825904216,0.28426578729741436,0.7933160645552232,-0.01432366401098828,0.8428301035558148,0.0,0.0,0.0,0.0,0.0,0.0,0.0008009859083049216,0.0008009859083049216,0.0,0.0,0.0,0.0,-0.036039860006031425,-1.7193739215483914,0.0,0.0,0.0,0.0,0.03603986000603143,1.7193739215483914,1.719751596484198,0.0,-2.0649318725879304,-98.51286910958034,0.0,0.0,0.0,0.0,2.064931872587931,98.51286910958034,98.53450828942994
61,0.30499887466430664,1775825937.6327014,0.352137438,-19.594265787297413,0.12668393544477685,0.6782034899152043,-19.31,0.92,0.6638837808669161,0.28426578729741436,0.7933160645552232,-0.014319709048288165,0.8428300363515965,0.0,0.0,0.0,0.0,0.0,0.0,0.0007810879097757019,0.0007810879097757019,0.0,0.0,0.0,0.0,-0.036039860006031425,-1.7193739215483914,0.0,0.0,0.0,0.0,0.03603986000603143,1.7193739215483914,1.719751596484198,0.0,-2.0649318725879304,-98.51286910958034,0.0,0.0,0.0,0.0,2.064931872587931,98.51286910958034,98.53450828942994
62,0.3100090026855469,1775825937.6377115,0.357147425,-19.594265787297413,0.12668393544477685,0.6782034899152043,-19.31,0.92,0.6638876376070396,0.28426578729741436,0.7933160645552232,-0.014315852308164678,0.842829970834281,0.0,0.0,0.0,0.0,0.0,0.0,0.0007616845174916548,0.0007616845174916548,0.0,0.0,0.0,0.0,-0.036039860006031425,-1.7193739215483914,0.0,0.0,0.0,0.0,0.03603986000603143,1.7193739215483914,1.719751596484198,0.0,-2.0649318725879304,-98.51286910958034,0.0,0.0,0.0,0.0,2.064931872587931,98.51286910958034,98.53450828942994
63,0.3150010108947754,1775825937.6427035,0.362139424,-19.594265787297413,0.12668393544477685,0.6782034899152043,-19.31,0.92,0.6638913984461814,0.28426578729741436,0.7933160645552232,-0.014312091469022903,0.8428299069630975,0.0,0.0,0.0,0.0,0.0,0.0,0.00074272547834322,0.00074272547834322,0.0,0.0,0.0,0.0,-0.036039860006031425,-1.7193739215483914,0.0,0.0,0.0,0.0,0.03603986000603143,1.7193739215483914,1.719751596484198,0.0,-2.0649318725879304,-98.51286910958034,0.0,0.0,0.0,0.0,2.064931872587931,98.51286910958034,98.53450828942994
64,0.31999754905700684,1775825937.6477,0.367135972,-19.594265787297413,0.12668393544477685,0.6782034899152043,-19.31,0.92,0.6638950656269232,0.28426578729741436,0.7933160645552232,-0.014308424288281052,0.8428298446986908,0.0,0.0,0.0,0.0,0.0,0.0,0.0007242243534050008,0.0007242243534050008,0.0,0.0,0.0,0.0,-0.036039860006031425,-1.7193739215483914,0.0,0.0,0.0,0.0,0.03603986000603143,1.7193739215483914,1.719751596484198,0.0,-2.0649318725879304,-98.51286910958034,0.0,0.0,0.0,0.0,2.064931872587931,98.51286910958034,98.53450828942994
65,0.32500386238098145,1775825937.6527064,0.372142338,-19.594265787297413,0.12668393544477685,0.6782034899152043,-19.31,0.92,0.6638986414834988,0.28426578729741436,0.7933160645552232,-0.014304848431705541,0.8428297840002215,0.0,0.0,0.0,0.0,0.0,0.0,0.0007061992795259322,0.0007061992795259322,0.0,0.0,0.0,0.0,-0.036039860006031425,-1.7193739215483914,0.0,0.0,0.0,0.0,0.03603986000603143,1.7193739215483914,1.719751596484198,0.0,-2.0649318725879304,-98.51286910958034,0.0,0.0,0.0,0.0,2.064931872587931,98.51286910958034,98.53450828942994
66,0.33000731468200684,1775825937.6577098,0.37714586,-19.594265787297413,0.12668393544477685,0.6782034899152043,-19.31,0.92,0.6639021283716401,0.28426578729741436,0.7933160645552232,-0.014301361543564206,0.8428297248265545,0.0,0.0,0.0,0.0,0.0,0.0,0.0006886256968897412,0.0006886256968897412,0.0,0.0,0.0,0.0,-0.036039860006031425,-1.7193739215483914,0.0,0.0,0.0,0.0,0.03603986000603143,1.7193739215483914,1.719751596484198,0.0,-2.0649318725879304,-98.51286910958034,0.0,0.0,0.0,0.0,2.064931872587931,98.51286910958034,98.53450828942994
67,0.33501553535461426,1775825937.662718,0.382154087,-19.594265787297413,0.12668393544477685,0.6782034899152043,-19.31,0.92,0.6639055284628368,0.28426578729741436,0.7933160645552232,-0.014297961452367502,0.8428296671397485,0.0,0.0,0.0,0.0,0.0,0.0,0.0006714873483947794,0.0006714873483947794,0.0,0.0,0.0,0.0,-0.036039860006031425,-1.7193739215483914,0.0,0.0,0.0,0.0,0.03603986000603143,1.7193739215483914,1.719751596484198,0.0,-2.0649318725879304,-98.51286910958034,0.0,0.0,0.0,0.0,2.064931872587931,98.51286910958034,98.53450828942994
68,0.33996033668518066,1775825937.6676629,0.387098737,-19.594265787297413,0.12668393544477685,0.6782034899152043,-19.31,0.92,0.6639088439610695,0.28426578729741436,0.7933160645552232,-0.014294645954134766,0.8428296109013731,0.0,0.0,0.0,0.0,0.0,0.0,0.0006547783497293898,0.0006547783497293898,0.0,0.0,0.0,0.0,-0.036039860006031425,-1.7193739215483914,0.0,0.0,0.0,0.0,0.03603986000603143,1.7193739215483914,1.719751596484198,0.0,-2.0649318725879304,-98.51286910958034,0.0,0.0,0.0,0.0,2.064931872587931,98.51286910958034,98.53450828942994
69,0.3451039791107178,1775825937.6728065,0.392242498,-19.594265787297413,0.12668393544477685,0.6782034899152043,-19.31,0.92,0.663912076933336,0.28426578729741436,0.7933160645552232,-0.014291412981868312,0.8428295560753812,0.0,0.0,0.0,0.0,0.0,0.0,0.000638483330363375,0.000638483330363375,0.0,0.0,0.0,0.0,-0.036039860006031425,-1.7193739215483914,0.0,0.0,0.0,0.0,0.03603986000603143,1.7193739215483914,1.719751596484198,0.0,-2.0649318725879304,-98.51286910958034,0.0,0.0,0.0,0.0,2.064931872587931,98.51286910958034,98.53450828942994
70,0.3500216007232666,1775825937.6777241,0.397160093,-19.594265787297413,0.12668393544477685,0.6782034899152043,-19.31,0.92,0.663915229474972,0.28426578729741436,0.7933160645552232,-0.014288260440232348,0.8428295026253019,0.0,0.0,0.0,0.0,0.0,0.0,0.0006225964510689233,0.0006225964510689233,0.0,0.0,0.0,0.0,-0.036039860006031425,-1.7193739215483914,0.0,0.0,0.0,0.0,0.03603986000603143,1.7193739215483914,1.719751596484198,0.0,-2.0649318725879304,-98.51286910958034,0.0,0.0,0.0,0.0,2.064931872587931,98.51286910958034,98.53450828942994
71,0.3549940586090088,1775825937.6826966,0.402132556,-19.594265787297413,0.12668393544477685,0.6782034899152043,-19.31,0.92,0.6639183035628246,0.28426578729741436,0.7933160645552232,-0.014285186352379742,0.8428294505167271,0.0,0.0,0.0,0.0,0.0,0.0,0.0006071082430505221,0.0006071082430505221,0.0,0.0,0.0,0.0,-0.036039860006031425,-1.7193739215483914,0.0,0.0,0.0,0.0,0.03603986000603143,1.7193739215483914,1.719751596484198,0.0,-2.0649318725879304,-98.51286910958034,0.0,0.0,0.0,0.0,2.064931872587931,98.51286910958034,98.53450828942994
72,0.3599967956542969,1775825937.6876993,0.407135184,-19.594265787297413,0.12668393544477685,0.6782034899152043,-19.31,0.92,0.6639213012030409,0.28426578729741436,0.7933160645552232,-0.014282188712163357,0.8428293997148034,0.0,0.0,0.0,0.0,0.0,0.0,0.0005920077085995563,0.0005920077085995563,0.0,0.0,0.0,0.0,-0.036039860006031425,-1.7193739215483914,0.0,0.0,0.0,0.0,0.03603986000603143,1.7193739215483914,1.719751596484198,0.0,-2.0649318725879304,-98.51286910958034,0.0,0.0,0.0,0.0,2.064931872587931,98.51286910958034,98.53450828942994
73,0.36499762535095215,1775825937.6927001,0.412136076,-19.594265787297413,0.12668393544477685,0.6782034899152043,-19.31,0.92,0.6639242242345426,0.28426578729741436,0.7933160645552232,-0.014279265680661735,0.8428293501875601,0.0,0.0,0.0,0.0,0.0,0.0,0.0005772697549366422,0.0005772697549366422,0.0,0.0,0.0,0.0,-0.036039860006031425,-1.7193739215483914,0.0,0.0,0.0,0.0,0.03603986000603143,1.7193739215483914,1.719751596484198,0.0,-2.0649318725879304,-98.51286910958034,0.0,0.0,0.0,0.0,2.064931872587931,98.51286910958034,98.53450828942994
74,0.3699944019317627,1775825937.697697,0.417132911,-19.594265787297413,0.12668393544477685,0.6782034899152043,-19.31,0.92,0.6639270745173409,0.28426578729741436,0.7933160645552232,-0.014276415397863396,0.8428293019027152,0.0,0.0,0.0,0.0,0.0,0.0,0.0005629006094528991,0.0005629006094528991,0.0,0.0,0.0,0.0,-0.036039860006031425,-1.7193739215483914,0.0,0.0,0.0,0.0,0.03603986000603143,1.7193739215483914,1.719751596484198,0.0,-2.0649318725879304,-98.51286910958034,0.0,0.0,0.0,0.0,2.064931872587931,98.51286910958034,98.53450828942994
75,0.37499022483825684,1775825937.7026927,0.422128634,-19.594265787297413,0.12668393544477685,0.6782034899152043,-19.31,0.92,0.6639298538265095,0.28426578729741436,0.7933160645552232,-0.014273636088694808,0.8428292548294692,0.0,0.0,0.0,0.0,0.0,0.0,0.0005488836998096887,0.0005488836998096887,0.0,0.0,0.0,0.0,-0.036039860006031425,-1.7193739215483914,0.0,0.0,0.0,0.0,0.03603986000603143,1.7193739215483914,1.719751596484198,0.0,-2.0649318725879304,-98.51286910958034,0.0,0.0,0.0,0.0,2.064931872587931,98.51286910958034,98.53450828942994
76,0.3800063133239746,1775825937.7077088,0.427144712,-19.594265787297413,0.12668393544477685,0.6782034899152043,-19.31,0.92,0.6639325639194474,0.28426578729741436,0.7933160645552232,-0.014270925995756856,0.8428292089373637,0.0,0.0,0.0,0.0,0.0,0.0,0.00053520588232084,0.00053520588232084,0.0,0.0,0.0,0.0,-0.036039860006031425,-1.7193739215483914,0.0,0.0,0.0,0.0,0.03603986000603143,1.7193739215483914,1.719751596484198,0.0,-2.0649318725879304,-98.51286910958034,0.0,0.0,0.0,0.0,2.064931872587931,98.51286910958034,98.53450828942994
77,0.38499975204467773,1775825937.7127023,0.43213824,-19.594265787297413,0.12668393544477685,0.6782034899152043,-19.31,0.92,0.6639352064508017,0.28426578729741436,0.7933160645552232,-0.014268283464402565,0.8428291641977195,0.0,0.0,0.0,0.0,0.0,0.0,0.0005218669858662791,0.0005218669858662791,0.0,0.0,0.0,0.0,-0.036039860006031425,-1.7193739215483914,0.0,0.0,0.0,0.0,0.03603986000603143,1.7193739215483914,1.719751596484198,0.0,-2.0649318725879304,-98.51286910958034,0.0,0.0,0.0,0.0,2.064931872587931,98.51286910958034,98.53450828942994
78,0.39000535011291504,1775825937.7177079,0.437143916,-19.594265787297413,0.12668393544477685,0.6782034899152043,-19.31,0.92,0.6639377831492969,0.28426578729741436,0.7933160645552232,-0.014265706765907438,0.842829120580641,0.0,0.0,0.0,0.0,0.0,0.0,0.0005088643360171282,0.0005088643360171282,0.0,0.0,0.0,0.0,-0.036039860006031425,-1.7193739215483914,0.0,0.0,0.0,0.0,0.03603986000603143,1.7193739215483914,1.719751596484198,0.0,-2.0649318725879304,-98.51286910958034,0.0,0.0,0.0,0.0,2.064931872587931,98.51286910958034,98.53450828942994
79,0.3950052261352539,1775825937.7227077,0.44214371,-19.594265787297413,0.12668393544477685,0.6782034899152043,-19.31,0.92,0.6639402956318701,0.28426578729741436,0.7933160645552232,-0.014263194283334224,0.8428290780581612,0.0,0.0,0.0,0.0,0.0,0.0,0.000496184119777654,0.000496184119777654,0.0,0.0,0.0,0.0,-0.036039860006031425,-1.7193739215483914,0.0,0.0,0.0,0.0,0.03603986000603143,1.7193739215483914,1.719751596484198,0.0,-2.0649318725879304,-98.51286910958034,0.0,0.0,0.0,0.0,2.064931872587931,98.51286910958034,98.53450828942994
80,0.4000365734100342,1775825937.727739,0.447175062,-19.594265787297413,0.12668393544477685,0.6782034899152043,-19.31,0.92,0.6639427455049991,0.28426578729741436,0.7933160645552232,-0.014260744410205195,0.8428290366025242,0.0,0.0,0.0,0.0,0.0,0.0,0.00048381283791492817,0.00048381283791492817,0.0,0.0,0.0,0.0,-0.036039860006031425,-1.7193739215483914,0.0,0.0,0.0,0.0,0.03603986000603143,1.7193739215483914,1.719751596484198,0.0,-2.0649318725879304,-98.51286910958034,0.0,0.0,0.0,0.0,2.064931872587931,98.51286910958034,98.53450828942994
81,0.4049999713897705,1775825937.7327025,0.452138578,-19.594265787297413,0.12668393544477685,0.6782034899152043,-19.31,0.92,0.6639451342743243,0.28426578729741436,0.7933160645552232,-0.01425835564087996,0.8428289961877129,0.0,0.0,0.0,0.0,0.0,0.0,0.00047174967803070253,0.00047174967803070253,0.0,0.0,0.0,0.0,-0.036039860006031425,-1.7193739215483914,0.0,0.0,0.0,0.0,0.03603986000603143,1.7193739215483914,1.719751596484198,0.0,-2.0649318725879304,-98.51286910958034,0.0,0.0,0.0,0.0,2.064931872587931,98.51286910958034,98.53450828942994
82,0.4099900722503662,1775825937.7376926,0.457128673,-19.594265787297413,0.12668393544477685,0.6782034899152043,-19.31,0.92,0.6639474635103383,0.28426578729741436,0.7933160645552232,-0.014256026404866007,0.8428289567866437,0.0,0.0,0.0,0.0,0.0,0.0,0.0004599918822583511,0.0004599918822583511,0.0,0.0,0.0,0.0,-0.036039860006031425,-1.7193739215483914,0.0,0.0,0.0,0.0,0.03603986000603143,1.7193739215483914,1.719751596484198,0.0,-2.0649318725879304,-98.51286910958034,0.0,0.0,0.0,0.0,2.064931872587931,98.51286910958034,98.53450828942994
83,0.4149916172027588,1775825937.7426941,0.462130212,-19.594265787297413,0.12668393544477685,0.6782034899152043,-19.31,0.92,0.6639497346894094,0.28426578729741436,0.7933160645552232,-0.014253755225794862,0.8428289183738553,0.0,0.0,0.0,0.0,0.0,0.0,0.0004485316115511265,0.0004485316115511265,0.0,0.0,0.0,0.0,-0.036039860006031425,-1.7193739215483914,0.0,0.0,0.0,0.0,0.03603986000603143,1.7193739215483914,1.719751596484198,0.0,-2.0649318725879304,-98.51286910958034,0.0,0.0,0.0,0.0,2.064931872587931,98.51286910958034,98.53450828942994
84,0.42043042182922363,1775825937.748133,0.467568972,-19.594265787297413,0.12668393544477685,0.6782034899152043,-19.31,0.92,0.6639519493079031,0.28426578729741436,0.7933160645552232,-0.01425154060730116,0.842828880923576,0.0,0.0,0.0,0.0,0.0,0.0,0.000437360426984401,0.000437360426984401,0.0,0.0,0.0,0.0,-0.036039860006031425,-1.7193739215483914,0.0,0.0,0.0,0.0,0.03603986000603143,1.7193739215483914,1.719751596484198,0.0,-2.0649318725879304,-98.51286910958034,0.0,0.0,0.0,0.0,2.064931872587931,98.51286910958034,98.53450828942994
85,0.42500782012939453,1775825937.7527103,0.472146247,-19.594265787297413,0.12668393544477685,0.6782034899152043,-19.31,0.92,0.663954108755249,0.28426578729741436,0.7933160645552232,-0.014249381159955332,0.8428288444118697,0.0,0.0,0.0,0.0,0.0,0.0,0.000426467388560033,0.000426467388560033,0.0,0.0,0.0,0.0,-0.036039860006031425,-1.7193739215483914,0.0,0.0,0.0,0.0,0.03603986000603143,1.7193739215483914,1.719751596484198,0.0,-2.0649318725879304,-98.51286910958034,0.0,0.0,0.0,0.0,2.064931872587931,98.51286910958034,98.53450828942994
86,0.4299886226654053,1775825937.7576911,0.477127043,-19.594265787297413,0.12668393544477685,0.6782034899152043,-19.31,0.92,0.663956214438922,0.28426578729741436,0.7933160645552232,-0.01424727547628224,0.8428288088145202,0.0,0.0,0.0,0.0,0.0,0.0,0.00041584848085293605,0.00041584848085293605,0.0,0.0,0.0,0.0,-0.036039860006031425,-1.7193739215483914,0.0,0.0,0.0,0.0,0.03603986000603143,1.7193739215483914,1.719751596484198,0.0,-2.0649318725879304,-98.51286910958034,0.0,0.0,0.0,0.0,2.064931872587931,98.51286910958034,98.53450828942994
87,0.4358491897583008,1775825937.7635517,0.482987729,-19.594265787297413,0.12668393544477685,0.6782034899152043,-19.31,0.92,0.6639582676865425,0.28426578729741436,0.7933160645552232,-0.014245222228661758,0.8428287741086857,0.0,0.0,0.0,0.0,0.0,0.0,0.0004054972532899807,0.0004054972532899807,0.0,0.0,0.0,0.0,-0.036039860006031425,-1.7193739215483914,0.0,0.0,0.0,0.0,0.03603986000603143,1.7193739215483914,1.719751596484198,0.0,-2.0649318725879304,-98.51286910958034,0.0,0.0,0.0,0.0,2.064931872587931,98.51286910958034,98.53450828942994
88,0.43999743461608887,1775825937.7677,0.48713589,-19.594265787297413,0.12668393544477685,0.6782034899152043,-19.31,0.92,0.663960269844826,0.28426578729741436,0.7933160645552232,-0.01424322007037826,0.8428287402712245,0.0,0.0,0.0,0.0,0.0,0.0,0.00039540624325642705,0.00039540624325642705,0.0,0.0,0.0,0.0,-0.036039860006031425,-1.7193739215483914,0.0,0.0,0.0,0.0,0.03603986000603143,1.7193739215483914,1.719751596484198,0.0,-2.0649318725879304,-98.51286910958034,0.0,0.0,0.0,0.0,2.064931872587931,98.51286910958034,98.53450828942994
89,0.44499897956848145,1775825937.7727015,0.492137497,-19.594265787297413,0.12668393544477685,0.6782034899152043,-19.31,0.92,0.663962222171354,0.28426578729741436,0.7933160645552232,-0.014241267743850261,0.8428287072805233,0.0,0.0,0.0,0.0,0.0,0.0,0.0003855684663741219,0.0003855684663741219,0.0,0.0,0.0,0.0,-0.036039860006031425,-1.7193739215483914,0.0,0.0,0.0,0.0,0.03603986000603143,1.7193739215483914,1.719751596484198,0.0,-2.0649318725879304,-98.51286910958034,0.0,0.0,0.0,0.0,2.064931872587931,98.51286910958034,98.53450828942994
90,0.4500095844268799,1775825937.777712,0.497148075,-19.594265787297413,0.12668393544477685,0.6782034899152043,-19.31,0.92,0.6639641259388406,0.28426578729741436,0.7933160645552232,-0.014239363976363717,0.8428286751147337,0.0,0.0,0.0,0.0,0.0,0.0,0.0003759764842907298,0.0003759764842907298,0.0,0.0,0.0,0.0,-0.036039860006031425,-1.7193739215483914,0.0,0.0,0.0,0.0,0.03603986000603143,1.7193739215483914,1.719751596484198,0.0,-2.0649318725879304,-98.51286910958034,0.0,0.0,0.0,0.0,2.064931872587931,98.51286910958034,98.53450828942994
91,0.454998254776001,1775825937.7827008,0.502136728,-19.594265787297413,0.12668393544477685,0.6782034899152043,-19.31,0.92,0.6639659823364913,0.28426578729741436,0.7933160645552232,-0.014237507578713005,0.842828643753438,0.0,0.0,0.0,0.0,0.0,0.0,0.0003666244856376719,0.0003666244856376719,0.0,0.0,0.0,0.0,-0.036039860006031425,-1.7193739215483914,0.0,0.0,0.0,0.0,0.03603986000603143,1.7193739215483914,1.719751596484198,0.0,-2.0649318725879304,-98.51286910958034,0.0,0.0,0.0,0.0,2.064931872587931,98.51286910958034,98.53450828942994
92,0.460003137588501,1775825937.7877057,0.50714152,-19.594265787297413,0.12668393544477685,0.6782034899152043,-19.31,0.92,0.663967792572731,0.28426578729741436,0.7933160645552232,-0.014235697342473319,0.8428286131759128,0.0,0.0,0.0,0.0,0.0,0.0,0.00035750608244486485,0.00035750608244486485,0.0,0.0,0.0,0.0,-0.036039860006031425,-1.7193739215483914,0.0,0.0,0.0,0.0,0.03603986000603143,1.7193739215483914,1.719751596484198,0.0,-2.0649318725879304,-98.51286910958034,0.0,0.0,0.0,0.0,2.064931872587931,98.51286910958034,98.53450828942994
93,0.4651660919189453,1775825937.7928686,0.512304528,-19.594265787297413,0.12668393544477685,0.6782034899152043,-19.31,0.92,0.6639695577773017,0.28426578729741436,0.7933160645552232,-0.014233932137902583,0.842828583362781,0.0,0.0,0.0,0.0,0.0,0.0,0.00034861549060741297,0.00034861549060741297,0.0,0.0,0.0,0.0,-0.036039860006031425,-1.7193739215483914,0.0,0.0,0.0,0.0,0.03603986000603143,1.7193739215483914,1.719751596484198,0.0,-2.0649318725879304,-98.51286910958034,0.0,0.0,0.0,0.0,2.064931872587931,98.51286910958034,98.53450828942994
94,0.4703977108001709,1775825937.7981002,0.517536271,-19.594265787297413,0.12668393544477685,0.6782034899152043,-19.31,0.92,0.6639712790965745,0.28426578729741436,0.7933160645552232,-0.014232210818629798,0.8428285542944021,0.0,0.0,0.0,0.0,0.0,0.0,0.0003399464271472596,0.0003399464271472596,0.0,0.0,0.0,0.0,-0.036039860006031425,-1.7193739215483914,0.0,0.0,0.0,0.0,0.03603986000603143,1.7193739215483914,1.719751596484198,0.0,-2.0649318725879304,-98.51286910958034,0.0,0.0,0.0,0.0,2.064931872587931,98.51286910958034,98.53450828942994
95,0.47465944290161133,1775825937.802362,0.52179788,-19.594265787297413,0.12668393544477685,0.6782034899152043,-19.31,0.92,0.6639722912576477,0.28426578729741436,0.7933160645552232,-0.01423119865755662,0.8428285372034081,0.0,0.0,0.0,0.0,0.0,0.0,0.00033483937849274845,0.00033483937849274845,0.0,0.0,0.0,0.0,-0.036039860006031425,-1.7193739215483914,0.0,0.0,0.0,0.0,0.03603986000603143,1.7193739215483914,1.719751596484198,0.0,-2.0649318725879304,-98.51286910958034,0.0,0.0,0.0,0.0,2.064931872587931,98.51286910958034,98.53450828942994
96,0.4800071716308594,1775825937.8077097,0.527145618,-19.594265787297413,0.12668393544477685,0.6782034899152043,-19.31,0.92,0.6639745942254928,0.28426578729741436,0.7933160645552232,-0.01422889568971153,0.8428284983208355,0.0,0.0,0.0,0.0,0.0,0.0,0.00032321820644457314,0.00032321820644457314,0.0,0.0,0.0,0.0,-0.036039860006031425,-1.7193739215483914,0.0,0.0,0.0,0.0,0.03603986000603143,1.7193739215483914,1.719751596484198,0.0,-2.0649318725879304,-98.51286910958034,0.0,0.0,0.0,0.0,2.064931872587931,98.51286910958034,98.53450828942994
97,0.4849982261657715,1775825937.8127007,0.532136625,-19.594265787297413,0.12668393544477685,0.6782034899152043,-19.31,0.92,0.6639761900785971,0.28426578729741436,0.7933160645552232,-0.014227299836607199,0.8428284713806521,0.0,0.0,0.0,0.0,0.0,0.0,0.00031515870503571563,0.00031515870503571563,0.0,0.0,0.0,0.0,-0.036039860006031425,-1.7193739215483914,0.0,0.0,0.0,0.0,0.03603986000603143,1.7193739215483914,1.719751596484198,0.0,-2.0649318725879304,-98.51286910958034,0.0,0.0,0.0,0.0,2.064931872587931,98.51286910958034,98.53450828942994
98,0.4900026321411133,1775825937.8177052,0.537141098,-19.594265787297413,0.12668393544477685,0.6782034899152043,-19.31,0.92,0.6639777461515947,0.28426578729741436,0.7933160645552232,-0.014225743763609633,0.84282844511492,0.0,0.0,0.0,0.0,0.0,0.0,0.00030730196336308755,0.00030730196336308755,0.0,0.0,0.0,0.0,-0.036039860006031425,-1.7193739215483914,0.0,0.0,0.0,0.0,0.03603986000603143,1.7193739215483914,1.719751596484198,0.0,-2.0649318725879304,-98.51286910958034,0.0,0.0,0.0,0.0,2.064931872587931,98.51286910958034,98.53450828942994
99,0.4949970245361328,1775825937.8226995,0.542135587,-19.594265787297413,0.12668393544477685,0.6782034899152043,-19.31,0.92,0.6639792634298486,0.28426578729741436,0.7933160645552232,-0.014224226485355707,0.8428284195067894,0.0,0.0,0.0,0.0,0.0,0.0,0.0002996440343085817,0.0002996440343085817,0.0,0.0,0.0,0.0,-0.036039860006031425,-1.7193739215483914,0.0,0.0,0.0,0.0,0.03603986000603143,1.7193739215483914,1.719751596484198,0.0,-2.0649318725879304,-98.51286910958034,0.0,0.0,0.0,0.0,2.064931872587931,98.51286910958034,98.53450828942994
100,0.4999959468841553,1775825937.8276985,0.547134545,-19.594265787297413,0.12668393544477685,0.6782034899152043,-19.31,0.92,0.6639807429140093,0.28426578729741436,0.7933160645552232,-0.014222747001194969,0.8428283945391647,0.0,0.0,0.0,0.0,0.0,0.0,0.0002921794932394096,0.0002921794932394096,0.0,0.0,0.0,0.0,-0.036039860006031425,-1.7193739215483914,0.0,0.0,0.0,0.0,0.03603986000603143,1.7193739215483914,1.719751596484198,0.0,-2.0649318725879304,-98.51286910958034,0.0,0.0,0.0,0.0,2.064931872587931,98.51286910958034,98.53450828942994
101,0.5050017833709717,1775825937.8327043,0.552140351,-19.594265787297413,0.12668393544477685,0.6782034899152043,-19.31,0.92,0.6639821855298571,0.28426578729741436,0.7933160645552232,-0.014221304385347189,0.842828370196226,0.0,0.0,0.0,0.0,0.0,0.0,0.00028489890762801914,0.00028489890762801914,0.0,0.0,0.0,0.0,-0.036039860006031425,-1.7193739215483914,0.0,0.0,0.0,0.0,0.03603986000603143,1.7193739215483914,1.719751596484198,0.0,-2.0649318725879304,-98.51286910958034,0.0,0.0,0.0,0.0,2.064931872587931,98.51286910958034,98.53450828942994
102,0.5100095272064209,1775825937.837712,0.557147993,-19.594265787297413,0.12668393544477685,0.6782034899152043,-19.31,0.92,0.6639835922077664,0.28426578729741436,0.7933160645552232,-0.014219897707437923,0.842828346462087,0.0,0.0,0.0,0.0,0.0,0.0,0.0002778005773671175,0.0002778005773671175,0.0,0.0,0.0,0.0,-0.036039860006031425,-1.7193739215483914,0.0,0.0,0.0,0.0,0.03603986000603143,1.7193739215483914,1.719751596484198,0.0,-2.0649318725879304,-98.51286910958034,0.0,0.0,0.0,0.0,2.064931872587931,98.51286910958034,98.53450828942994
103,0.5149967670440674,1775825937.8426993,0.56213518,-19.594265787297413,0.12668393544477685,0.6782034899152043,-19.31,0.92,0.6639849638344996,0.28426578729741436,0.7933160645552232,-0.01421852608070473,0.8428283233216084,0.0,0.0,0.0,0.0,0.0,0.0,0.0002708814229318985,0.0002708814229318985,0.0,0.0,0.0,0.0,-0.036039860006031425,-1.7193739215483914,0.0,0.0,0.0,0.0,0.03603986000603143,1.7193739215483914,1.719751596484198,0.0,-2.0649318725879304,-98.51286910958034,0.0,0.0,0.0,0.0,2.064931872587931,98.51286910958034,98.53450828942994
104,0.5200047492980957,1775825937.8477073,0.567143361,-19.594265787297413,0.12668393544477685,0.6782034899152043,-19.31,0.92,0.6639863013126079,0.28426578729741436,0.7933160645552232,-0.014217188602596353,0.8428283007593941,0.0,0.0,0.0,0.0,0.0,0.0,0.0002641367668035698,0.0002641367668035698,0.0,0.0,0.0,0.0,-0.036039860006031425,-1.7193739215483914,0.0,0.0,0.0,0.0,0.03603986000603143,1.7193739215483914,1.719751596484198,0.0,-2.0649318725879304,-98.51286910958034,0.0,0.0,0.0,0.0,2.064931872587931,98.51286910958034,98.53450828942994
105,0.5249900817871094,1775825937.8526926,0.572128689,-19.594265787297413,0.12668393544477685,0.6782034899152043,-19.31,0.92,0.6639876054854513,0.28426578729741436,0.7933160645552232,-0.014215884429752967,0.8428282787610569,0.0,0.0,0.0,0.0,0.0,0.0,0.00025756195051161604,0.00025756195051161604,0.0,0.0,0.0,0.0,-0.036039860006031425,-1.7193739215483914,0.0,0.0,0.0,0.0,0.03603986000603143,1.7193739215483914,1.719751596484198,0.0,-2.0649318725879304,-98.51286910958034,0.0,0.0,0.0,0.0,2.064931872587931,98.51286910958034,98.53450828942994
