sample_idx,t_rel_s,stamp_s,t_in_traj_s,x_des_m,y_des_m,z_des_m,x_act_m,y_act_m,z_act_m,ex_m,ey_m,ez_m,e_pos_norm_m,vx_des_mps,vy_des_mps,vz_des_mps,speed_des_mps,vx_act_mps,vy_act_mps,vz_act_mps,speed_act_mps,wx_act_radps,wy_act_radps,wz_act_radps,roll_des_rad,pitch_des_rad,yaw_des_rad,roll_act_rad,pitch_act_rad,yaw_act_rad,e_roll_rad,e_pitch_rad,e_yaw_rad,e_ang_norm_rad,roll_des_deg,pitch_des_deg,yaw_des_deg,roll_act_deg,pitch_act_deg,yaw_act_deg,e_roll_deg,e_pitch_deg,e_yaw_deg,e_ang_norm_deg
0,0.0,1775788850.6239102,0.928114808,-17.2841761007885,1.4322107860452513,0.5192708149876258,-18.451399094836756,-1.4438270571660663,0.4343119012578335,-1.167222994048256,-2.876037843211318,-0.08495891372979236,3.1050315957234202,0.0,0.0,0.0,0.0,1.7300608281552248,-0.16993845247821637,1.3560625003427558,2.204743760980781,1.5311544952084704,-6.923759848238803,0.715564438073366,0.0,0.0,0.0,-0.25514733232524683,-0.3383679821259241,-0.7614322399113017,-0.2551473323252469,-0.338367982125924,-0.7614322399113016,0.8714195938220586,0.0,0.0,0.0,-14.618865296258484,-19.387057298173527,-43.62685373211035,-14.618865296258488,-19.387057298173524,-43.62685373211034,49.928664911008426
1,0.0050046443939208984,1775788850.6289148,0.933119306,-17.2841761007885,1.4322107860452513,0.5192708149876258,-18.442768490057226,-1.4445643024095682,0.4412178985412692,-1.1585923892687262,-2.8767750884548198,-0.07805291644635665,3.1022997101813736,0.0,0.0,0.0,0.0,1.7216392958245352,-0.12461609519272072,1.4062083688962965,2.226430554241983,1.557739397072292,-6.980640598791951,0.9967050625031716,0.0,0.0,0.0,-0.2521978034393938,-0.37094816246027223,-0.7477103771512089,-0.2521978034393939,-0.3709481624602722,-0.747710377151209,0.8719386901565447,0.0,0.0,0.0,-14.449869739547182,-21.2537641271068,-42.84064890889929,-14.449869739547188,-21.253764127106795,-42.8406489088993,49.95840694013519
2,0.010002851486206055,1775788850.633913,0.938117592,-17.2841761007885,1.4322107860452513,0.5192708149876258,-18.434188159643142,-1.4450698457876578,0.4483725477138822,-1.1500120588546423,-2.8772806318329094,-0.07089826727374365,3.0994028673494993,0.0,0.0,0.0,0.0,1.7099432990653232,-0.07727085224385127,1.4554922827548875,2.246849940646666,1.5931190690001271,-7.026818621608263,1.278861409554618,0.0,0.0,0.0,-0.2501247885481736,-0.4034597377505926,-0.7323597866486289,-0.25012478854817344,-0.4034597377505924,-0.7323597866486287,0.8727502660739039,0.0,0.0,0.0,-14.331094735412494,-23.11654017656397,-41.961124860067855,-14.331094735412483,-23.11654017656396,-41.96112486006784,50.00490681495433
3,0.015005350112915039,1775788850.6389155,0.943120201,-17.2841761007885,1.4322107860452513,0.5192708149876258,-18.425674588019568,-1.4453337827473316,0.4557710839668867,-1.1414984872310683,-2.877544568792583,-0.06349973102073914,3.096338766604555,0.0,0.0,0.0,0.0,1.694928897585161,-0.027989194500479733,1.5037341325574947,2.266006113031577,1.637397869639132,-7.063333523140839,1.561893203540246,0.0,0.0,0.0,-0.24900872509854335,-0.435844993880747,-0.7152966062892725,-0.24900872509854333,-0.43584499388074693,-0.7152966062892725,0.8738509248350435,0.0,0.0,0.0,-14.267149010079867,-24.972078671271994,-40.98347664040621,-14.267149010079867,-24.97207867127199,-40.98347664040621,50.06796991665173
4,0.0200040340423584,1775788850.6439142,0.948118792,-17.2841761007885,1.4322107860452513,0.5192708149876258,-18.417244466420364,-1.44534667850224,0.4634078703327825,-1.133068365631864,-2.8775574645474915,-0.055862944654843316,3.093105486651589,0.0,0.0,0.0,0.0,1.6765571921329896,0.023127520142952773,1.5507651296421798,2.2839114229748367,1.6906437464705109,-7.091034082806238,1.845679395387345,0.0,0.0,0.0,-0.2489381010221821,-0.46804571310897025,-0.6964255516149495,-0.24893810102218206,-0.46804571310897014,-0.6964255516149493,0.875240262237976,0.0,0.0,0.0,-14.263102548572359,-26.817043980334944,-39.90224485260688,-14.263102548572355,-26.817043980334937,-39.90224485260687,50.147573086159426
5,0.02499985694885254,1775788850.64891,0.953114562,-17.2841761007885,1.4322107860452513,0.5192708149876258,-18.408914669226608,-1.4450996413443178,0.4712764538268018,-1.124738568438108,-2.877310427389569,-0.04799436116082406,3.089701539242939,0.0,0.0,0.0,0.0,1.6547937457106348,0.07596348743647204,1.5964276327628386,2.3005855730477194,1.7528920317123025,-7.110598197245571,2.1301155655621464,0.0,0.0,0.0,-0.25001035090894824,-0.5000016020507078,-0.6756394959836182,-0.2500103509089482,-0.5000016020507076,-0.675639495983618,0.8769238884577653,0.0,0.0,0.0,-14.324537941667439,-28.647981547285283,-38.71129159220746,-14.324537941667437,-28.647981547285276,-38.71129159220745,50.244037762830914
6,0.029998064041137695,1775788850.6539083,0.958112833,-17.2841761007885,1.4322107860452513,0.5192708149876258,-18.400702232635574,-1.4445843938753808,0.4793696209027268,-1.116526131847074,-2.876795179920632,-0.03990119408489906,3.0861259234842273,0.0,0.0,0.0,0.0,1.6296082269071328,0.13038884976502066,1.640575048588429,2.316054989717943,1.8241482184691644,-7.12255065367812,2.4151116677423174,0.0,0.0,0.0,-0.2523326503229733,-0.5316487107134718,-0.652819068465908,-0.25233265032297325,-0.5316487107134718,-0.6528190684659081,0.8789168641999132,0.0,0.0,0.0,-14.45759589685678,-30.461227307453566,-37.40377740875846,-14.457595896856777,-30.461227307453566,-37.403777408758465,50.358226861527946
7,0.03571033477783203,1775788850.6596205,0.963825174,-17.2841761007885,1.4322107860452513,0.5192708149876258,-18.392624334596768,-1.443793342369505,0.48767945261200946,-1.108448233808268,-2.876004128414756,-0.03159136237561638,3.082378180539847,0.0,0.0,0.0,0.0,1.6009742567393224,0.1862600530375056,1.6830718135979734,2.3303523570111735,1.9043898412618396,-7.127278933638678,2.7005900712179995,0.0,0.0,0.0,-0.2560225439802553,-0.5629178262382304,-0.6278323490843994,-0.25602254398025526,-0.5629178262382304,-0.6278323490843993,0.8812476840705633,0.0,0.0,0.0,-14.66901123027113,-32.252815656129236,-35.972143844320286,-14.669011230271128,-32.252815656129236,-35.97214384432028,50.49177300292143
8,0.04118013381958008,1775788850.6650903,0.969294816,-17.2841761007885,1.4322107860452513,0.5192708149876258,-18.3846982750412,-1.4427196444116037,0.49619737988740226,-1.1005221742526992,-2.874930430456855,-0.023073435100223583,3.0784584485414204,0.0,0.0,0.0,0.0,1.5688694417806808,0.2434201819343382,1.7237934626933704,2.3435162923160084,1.9935675697364557,-7.125047254318959,2.9864838644437235,0.0,0.0,0.0,-0.261208311934924,-0.5937328293494089,-0.600534770535564,-0.261208311934924,-0.5937328293494089,-0.6005347705355639,0.8839629321941895,0.0,0.0,0.0,-14.966133847607836,-34.01838528008226,-34.40810780254516,-14.966133847607836,-34.01838528008226,-34.40810780254516,50.647345260736024
9,0.045001983642578125,1775788850.6689122,0.973116856,-17.2841761007885,1.4322107860452513,0.5192708149876258,-18.376941455512604,-1.4413572748794683,0.5049142393934606,-1.0927653547241043,-2.8735680609247196,-0.014356575594165255,3.07436751747652,0.0,0.0,0.0,0.0,1.5332755776809972,0.3016992902119686,1.7626267876861041,2.3555911469302213,2.0916056108344065,-7.116009052403809,3.2727353863525668,0.0,0.0,0.0,-0.26802893710134695,-0.6240090084834135,-0.5707693745133834,-0.2680289371013469,-0.6240090084834136,-0.5707693745133833,0.8871327029675602,0.0,0.0,0.0,-15.356926883284585,-35.753082564242774,-32.70267623493872,-15.356926883284583,-35.75308256424278,-32.702676234938714,50.828959748074084
10,0.0500180721282959,1775788850.6739283,0.978132716,-17.309627665971547,1.44463156171661,0.5192708149876258,-18.369371357386154,-1.4397010902485432,0.5138203303968447,-1.0597436914146066,-2.884332651965153,-0.005450484590781124,3.0728588067901303,0.0,0.0,0.0,0.0,1.4941790083070472,0.36091474450580263,1.799470086742016,2.366626914988173,2.1984015029928257,-7.100218107769728,3.559294955920362,0.0,0.0,0.0,-0.27663348615710454,-0.6536513372902211,-0.5383676204076425,-0.2766334861571047,-0.6536513372902211,-0.5383676204076426,0.8908568072973989,0.0,0.0,0.0,-15.849931228792773,-37.451462899811915,-30.846192475859084,-15.849931228792782,-37.451462899811915,-30.84619247585909,51.04233520864024
11,0.05506443977355957,1775788850.6789746,0.983179244,-17.309627665971547,1.44463156171661,0.5192708149876258,-18.362005517931454,-1.4377468911029336,0.5229054731097181,-1.052377851959907,-2.8823784528195437,0.0036346581220922936,3.0684878848243478,0.0,0.0,0.0,0.0,1.4515711265915738,0.42087160142510127,1.834233503853218,2.3766792352141493,2.3138253759826846,-7.077638493837473,3.846119774004925,0.0,0.0,0.0,-0.28717965407100676,-0.6825527371508232,-0.5031510045289143,-0.28717965407100676,-0.6825527371508233,-0.503151004528914,0.8952716493125867,0.0,0.0,0.0,-16.454182140295657,-39.1073911338444,-28.828429017274555,-16.454182140295657,-39.10739113384441,-28.828429017274544,51.29528702332753
12,0.060013771057128906,1775788850.683924,0.988128557,-17.309627665971547,1.44463156171661,0.5192708149876258,-18.35486150649181,-1.4354914787836783,0.5321590741203137,-1.0452338405202646,-2.8801230405002882,0.012888259132687874,3.063949839180276,0.0,0.0,0.0,0.0,1.4054454995554513,0.48136759171090143,1.8668455438270448,2.385813088881256,2.436910635236499,-7.048156030072167,4.133151438385242,0.0,0.0,0.0,-0.29983182456440566,-0.7105923735174079,-0.464933835632802,-0.2998318245644058,-0.7105923735174078,-0.4649338356328019,0.9005576693576892,0.0,0.0,0.0,-17.179098111247367,-40.71394395673124,-26.63874653458868,-17.179098111247377,-40.713943956731235,-26.638746534588673,51.59815366233345
13,0.06662297248840332,1775788850.6905332,0.994737656,-17.309627665971547,1.44463156171661,0.5192708149876258,-18.353460874301128,-1.435004037849129,0.5340290587311369,-1.0438332083295805,-2.879635599565739,0.01475824374351109,3.0630224874878653,0.0,0.0,0.0,0.0,1.3957949630367499,0.4935168909577031,1.8731096632337425,2.387538965336261,2.4616511565168397,-7.041419650451076,4.190558935389263,0.0,0.0,0.0,-0.3026306122453746,-0.7160851961092738,-0.4569137507422698,-0.3026306122453746,-0.7160851961092738,-0.4569137507422698,0.9017391369859892,0.0,0.0,0.0,-17.339456833120092,-41.02865950885926,-26.179229519024545,-17.339456833120092,-41.02865950885926,-26.179229519024545,51.66584677106637
14,0.06973052024841309,1775788850.6936407,0.997845378,-17.309627665971547,1.44463156171661,0.5192708149876258,-18.34795701112199,-1.4329325661558465,0.5415703809478961,-1.0383293451504443,-2.877564127872456,0.022299565960270273,3.059248340632211,0.0,0.0,0.0,0.0,1.355752641746454,0.5422505901316058,1.8973260918167834,2.394148538998638,2.5547115773972613,-7.0105014514464905,4.4199866736961395,0.0,0.0,0.0,-0.31478312441947576,-0.7376333319140367,-0.4235284346838879,-0.31478312441947587,-0.7376333319140365,-0.4235284346838881,0.9069551713043345,0.0,0.0,0.0,-18.035744491177443,-42.26327674684691,-24.26639181116893,-18.03574449117745,-42.263276746846905,-24.26639181116894,51.96470352330295
15,0.07471036911010742,1775788850.6986206,1.002825075,-17.309627665971547,1.44463156171661,0.5192708149876258,-18.341309928015345,-1.430068679122073,0.5511287098616471,-1.0316822620437982,-2.874700240838683,0.03185789487402124,3.054387776619006,0.0,0.0,0.0,0.0,1.3024788280132062,0.6033252614894902,1.925651731508013,2.401788304500175,2.6428175601701693,-6.94571597281162,4.705446308320005,0.0,0.0,0.0,-0.33230331776588923,-0.7634792690433917,-0.3787732385519143,-0.3323033177658892,-0.7634792690433918,-0.37877323855191447,0.9147651367976125,0.0,0.0,0.0,-19.039577626180122,-43.74413986191943,-21.702107961526615,-19.03957762618012,-43.744139861919436,-21.702107961526625,52.41218158421059
16,0.0797281265258789,1775788850.7036383,1.007842816,-17.309627665971547,1.44463156171661,0.5192708149876258,-18.334938276128213,-1.4268992078646678,0.560823419754022,-1.0253106101566658,-2.8715307695812777,0.041552604766396106,3.0493732842856005,0.0,0.0,0.0,0.0,1.245583219139326,0.6644539038558012,1.9518781046312437,2.408901135681902,2.666718251901029,-6.835410932655863,4.9880967876913305,0.0,0.0,0.0,-0.35275007931922486,-0.787821655976963,-0.3305781110913398,-0.35275007931922486,-0.7878216559769631,-0.3305781110913397,0.9243254121891932,0.0,0.0,0.0,-20.211090767896607,-45.13885589648746,-18.940730564940637,-20.211090767896607,-45.13885589648747,-18.940730564940633,52.95994501513095
17,0.08470988273620605,1775788850.70862,1.012824676,-17.309627665971547,1.44463156171661,0.5192708149876258,-18.328859900496504,-1.4234245070315428,0.5706437950788922,-1.0192322345249565,-2.8680560687481527,0.05137298009126634,3.0442107588768064,0.0,0.0,0.0,0.0,1.1852064345899314,0.7253648620321538,1.9758900557998338,2.4155765333089683,2.595010293851053,-6.63837845022278,5.265951101027012,0.0,0.0,0.0,-0.3765364733043401,-0.8101997658763983,-0.27898383357981754,-0.3765364733043399,-0.8101997658763982,-0.2789838335798174,0.9359676040085637,0.0,0.0,0.0,-21.573950753079078,-46.42102714720504,-15.984596216503679,-21.573950753079068,-46.42102714720503,-15.984596216503668,53.62699347066261
18,0.08971452713012695,1775788850.7136247,1.017829338,-17.309627665971547,1.44463156171661,0.5192708149876258,-18.32309195561386,-1.4196460318364796,0.5805788372108853,-1.0134642896423145,-2.8642775935530898,0.061308022223259484,3.0389068220166617,0.0,0.0,0.0,0.0,1.1213842856493679,0.7859941032645904,1.9978127302376192,2.4220951987004025,2.4019617516229355,-6.333465573258568,5.536973137221145,0.0,0.0,0.0,-0.40402073045475845,-0.8299648022513052,-0.22425215953635164,-0.4040207304547585,-0.8299648022513053,-0.22425215953635158,0.9499280786827823,0.0,0.0,0.0,-23.148682690850304,-47.55348031340976,-12.848702288127365,-23.148682690850308,-47.55348031340976,-12.848702288127361,54.42686974949461
19,0.09471487998962402,1775788850.718625,1.022829527,-17.309627665971547,1.44463156171661,0.5192708149876258,-18.317651710007624,-1.4155649950597784,0.5906187692493174,-1.0080240440360768,-2.8601965567763883,0.0713479542616916,3.033467874780889,0.0,0.0,0.0,0.0,1.0541509519035086,0.8463885479910549,2.0178679060567237,2.4288677794114744,2.0721733372003364,-5.928502046484402,5.798578726812988,0.0,0.0,0.0,-0.43546905268416,-0.846454980937757,-0.1668445038218309,-0.43546905268416003,-0.8464549809377568,-0.1668445038218307,0.9664142067744714,0.0,0.0,0.0,-24.95053882736246,-48.49829795556002,-9.559485903945243,-24.950538827362465,-48.49829795556002,-9.559485903945232,55.37145530966046
20,0.10057234764099121,1775788850.7244825,1.028687145,-17.327162741155327,1.4528676823206554,0.5192708149876258,-18.31255592948714,-1.411182406686087,0.6007547344752785,-0.9853931883318126,-2.864050089006742,0.08148391948765266,3.0299211668103405,0.0,0.0,0.0,0.0,0.9836442207955071,0.9066167994275924,2.0362400464961716,2.4363463425924206,1.6008505718456143,-5.436962385559511,6.047653882057682,0.0,0.0,0.0,-0.4709883088731197,-0.8590715841631013,-0.10742970675610683,-0.4709883088731197,-0.8590715841631011,-0.10742970675610675,0.9855836421660844,0.0,0.0,0.0,-26.98564229843378,-49.221176072163395,-6.155268791452987,-26.98564229843378,-49.22117607216339,-6.155268791452983,56.4697830532486
21,0.10471081733703613,1775788850.728621,1.0328256,-17.327162741155327,1.4528676823206554,0.5192708149876258,-18.307820016853064,-1.4064991818325352,0.6109783338197612,-0.9806572756977374,-2.8593668641531904,0.09170751883213535,3.024248307465262,0.0,0.0,0.0,0.0,0.9102648353234553,0.9666560342129679,2.0529339891620593,2.44490161821772,0.9964774790978296,-4.87454074769222,6.2809761815535206,0.0,0.0,0.0,-0.5104657583164305,-0.8673150878053073,-0.04688628833513796,-0.5104657583164305,-0.8673150878053075,-0.04688628833513775,1.007476588304732,0.0,0.0,0.0,-29.24753353747657,-49.693494039262525,-2.686386438636868,-29.24753353747657,-49.69349403926253,-2.6863864386368563,57.72415646810034
22,0.10973191261291504,1775788850.733642,1.037846686,-17.327162741155327,1.4528676823206554,0.5192708149876258,-18.30345820330411,-1.4015153302475911,0.6212820900373919,-0.9762954621487836,-2.8543830125682463,0.10201127504976604,3.0184534967575307,0.0,0.0,0.0,0.0,0.8339915863247704,1.0269596993217032,2.068383701628812,2.4552798877633353,0.27373432831864686,-4.263836852004449,6.497309844149577,0.0,0.0,0.0,-0.5535633045945925,-0.8708215805179522,0.013741270093204373,-0.5535633045945927,-0.8708215805179522,0.01374127009320425,1.0319648151915086,0.0,0.0,0.0,-31.716841046585,-49.89440127259046,0.7873167814899499,-31.716841046585014,-49.89440127259046,0.7873167814899429,59.127228516471426
23,0.11471271514892578,1775788850.738623,1.042827578,-17.327162741155327,1.4528676823206554,0.5192708149876258,-18.299484396266454,-1.3962286696147157,0.6316603275169717,-0.9723216551111271,-2.849096351935371,0.11238951252934581,3.0125389335469284,0.0,0.0,0.0,0.0,0.7551093566459626,1.08784103816941,2.082753610997949,2.4680864792273334,-0.5492910253688374,-3.620368880604181,6.6944296526538905,0.0,0.0,0.0,-0.5997673235089919,-0.8693805861218062,0.0733143837281699,-0.599767323508992,-0.8693805861218062,0.07331438372817001,1.0587343598542915,0.0,0.0,0.0,-34.36413632692271,-49.811838375389286,4.200604765226733,-34.36413632692272,-49.811838375389286,4.200604765226739,60.661010445135844
24,0.11971282958984375,1775788850.743623,1.047827482,-17.327162741155327,1.4528676823206554,0.5192708149876258,-18.295911281492934,-1.3906350327500032,0.642108326174677,-0.9687485403376073,-2.8435027150706587,0.12283751118705111,3.006504694687018,0.0,0.0,0.0,0.0,0.67375286301878,1.1498356594043877,2.096319533280639,2.484073378480974,-1.4541861052158984,-2.9569070710089926,6.870286317525878,0.0,0.0,0.0,-0.6484468034369685,-0.8629182944414412,0.1306540930183703,-0.6484468034369684,-0.8629182944414411,0.13065409301837017,1.0872818088204184,0.0,0.0,0.0,-37.15326507568758,-49.44157633612187,7.4859281060622935,-37.15326507568757,-49.44157633612186,7.4859281060622855,62.29665878676002
25,0.12471985816955566,1775788850.74863,1.052834574,-17.327162741155327,1.4528676823206554,0.5192708149876258,-18.292750345915422,-1.384727731759283,0.6526222675714556,-0.9655876047600955,-2.8375954140799386,0.13335145258382974,3.0003482741808583,0.0,0.0,0.0,0.0,0.5902707395354156,1.2134115738840512,2.1091600854225163,2.50386570317319,-2.4181463878963423,-2.2852601507032366,7.023044864215495,0.0,0.0,0.0,-0.6989350563228561,-0.8514979335931124,0.18463593673432532,-0.6989350563228562,-0.8514979335931123,0.18463593673432532,1.116982261723138,0.0,0.0,0.0,-40.04602888103814,-48.787237858996185,10.578859921321321,-40.04602888103815,-48.78723785899618,10.578859921321321,63.99836938771293
26,0.129713773727417,1775788850.753624,1.057828452,-17.327162741155327,1.4528676823206554,0.5192708149876258,-18.29001213049692,-1.3784969010052477,0.6631992281774798,-0.9628493893415921,-2.831364583325903,0.14392841318985394,2.9940640838818213,0.0,0.0,0.0,0.0,0.5046886200750027,1.2793738645622525,2.121554164207629,2.5283394076399026,-3.4197140156304404,-1.6161542616297717,7.151588282918413,0.0,0.0,0.0,-0.750611290039554,-0.8353092143032768,0.23427440116395798,-0.7506112900395538,-0.835309214303277,0.23427440116395815,1.1471892987975143,0.0,0.0,0.0,-43.00685897413657,-47.859692567966576,13.422934434649534,-43.00685897413656,-47.85969256796659,13.422934434649543,65.7291051236699
27,0.13471555709838867,1775788850.7586257,1.062830305,-17.327162741155327,1.4528676823206554,0.5192708149876258,-18.287706410659887,-1.37192893270484,0.673837060229288,-0.9605436695045597,-2.8247966150254955,0.15456624524166218,2.9876430143932673,0.0,0.0,0.0,0.0,0.4172945065136873,1.3484076406583834,2.133525968471357,2.558177266862883,-4.434916184297374,-0.9589353781545189,7.255000569127137,0.0,0.0,0.0,-0.8029605589429446,-0.8146530666851832,0.2787889743158804,-0.8029605589429445,-0.8146530666851834,0.27878897431588046,1.1773396156070008,0.0,0.0,0.0,-46.006251142896296,-46.67618248845061,15.973431603081053,-46.00625114289629,-46.67618248845062,15.973431603081057,67.45659102783581
28,0.13973259925842285,1775788850.7636428,1.067847306,-17.327162741155327,1.4528676823206554,0.5192708149876258,-18.2858423443099,-1.3650059458107295,0.6845341506198729,-0.9586796031545717,-2.8178736281313848,0.16526333563224704,2.9810720111609577,0.0,0.0,0.0,0.0,0.3280425346742339,1.4215412772046112,2.1452664713828584,2.5943322340424086,-5.44239705461382,-0.3215924785515813,7.333037716327194,0.0,0.0,0.0,-0.8556035676744971,-0.7899183603444686,0.31763083067562614,-0.8556035676744971,-0.7899183603444686,0.31763083067562636,1.2070285106915701,0.0,0.0,0.0,-49.0224733640846,-45.258988207632186,18.19890604094786,-49.0224733640846,-45.258988207632186,18.198906040947872,69.15763941458833
29,0.14472103118896484,1775788850.7686312,1.072835823,-17.327162741155327,1.4528676823206554,0.5192708149876258,-18.28442830306462,-1.3577055565326883,0.6952889394773942,-0.957265561909292,-2.810573238853344,0.1760181244897684,2.9743338190467092,0.0,0.0,0.0,0.0,0.2373703944039697,1.4994788505581813,2.1565534257921395,2.637328990798568,-6.414698532314506,0.2899387192168965,7.385541683823554,0.0,0.0,0.0,-0.9082905631702203,-0.7615599404585865,0.3504832439538201,-0.9082905631702203,-0.7615599404585867,0.3504832439538199,1.2360436053585466,0.0,0.0,0.0,-52.04121584121431,-43.634170434511276,20.08121066860792,-52.04121584121431,-43.63417043451128,20.08121066860791,70.82008188117862
30,0.14970922470092773,1775788850.7736194,1.077824095,-17.33432848288607,1.456159177380837,0.5192708149876258,-18.283470349534433,-1.3500018660731943,0.706098492653586,-0.9491418666483611,-2.8061610434540314,0.1868276776659602,2.968217422286617,0.0,0.0,0.0,0.0,0.14570197123686052,1.5829646868985539,2.1671033759525526,2.6876278214170752,-7.321000534256064,0.8708693904503958,7.414167518762699,0.0,0.0,0.0,-0.9608269785377818,-0.7300730667721462,0.37723417208399346,-0.9608269785377819,-0.730073066772146,0.37723417208399335,1.2643183088526502,0.0,0.0,0.0,-55.051330712521825,-41.83010546221672,21.613925948524646,-55.05133071252183,-41.83010546221671,21.61392594852464,72.44010305837456
31,0.15471959114074707,1775788850.7786298,1.08283446,-17.33432848288607,1.456159177380837,0.5192708149876258,-18.282971394375355,-1.3418662378051998,0.7169576156312867,-0.9486429114892836,-2.7980254151860366,0.19768680064366084,2.9610723849130376,0.0,0.0,0.0,0.0,0.05398971839218449,1.6722259668452575,2.176222891256409,2.74503199367731,-8.15770904620112,1.4178415612888635,7.420243642932368,0.0,0.0,0.0,-1.0131164480120722,-0.6959734668625034,0.3979468794705598,-1.013116448012072,-0.6959734668625033,0.3979468794705596,1.291954226236195,0.0,0.0,0.0,-58.04729662637682,-39.8763423043095,22.80067666406434,-58.047296626376806,-39.876342304309496,22.80067666406433,74.0235244874239
32,0.15971779823303223,1775788850.783628,1.087832527,-17.33432848288607,1.456159177380837,0.5192708149876258,-18.28292863931432,-1.3332701024593816,0.727856916964244,-0.9486001564282489,-2.7894292798402187,0.2085861019766182,2.9536868699886623,0.0,0.0,0.0,0.0,-0.03665424054722601,1.7672050423081715,2.1830702667693846,2.8089416128787854,-8.926627039807308,1.927384461276271,7.404539008473316,0.0,0.0,0.0,-1.065189890413086,-0.6597852026172569,0.41280840043406947,-1.065189890413086,-0.659785202617257,0.4128084004340695,1.319225830439911,0.0,0.0,0.0,-61.0308851006725,-37.8029074951527,23.652179092418642,-61.0308851006725,-37.8029074951527,23.652179092418645,75.58607230884806
33,0.16472125053405762,1775788850.7886314,1.092836034,-17.33432848288607,1.456159177380837,0.5192708149876258,-18.28333493320875,-1.3241843801395348,0.7387834577801099,-0.9490064503226776,-2.780343557520372,0.21951264279248406,2.946032813962673,0.0,0.0,0.0,0.0,-0.12546528377621224,1.8680275608339216,2.1869813034402306,2.8789157207298213,-9.631264098544843,2.396481542953302,7.368996850197152,0.0,0.0,0.0,-1.1171803617874108,-0.6220291066695753,0.4221000807578373,-1.117180361787411,-0.6220291066695753,0.4221000807578372,1.3465439645564392,0.0,0.0,0.0,-64.00971968531702,-35.639642546459555,24.184553159555286,-64.00971968531704,-35.639642546459555,24.184553159555286,77.15128609789748
34,0.16972064971923828,1775788850.7936308,1.097835372,-17.33432848288607,1.456159177380837,0.5192708149876258,-18.284178767202786,-1.3145803744853513,0.7497205404023736,-0.9498502843167138,-2.770739551866188,0.23044972541474773,2.9380810579076813,0.0,0.0,0.0,0.0,-0.21157527536355805,1.9745330261472178,2.187185326793658,2.9542045329043716,-10.276044571615696,2.823749557203322,7.314838609636565,0.0,0.0,0.0,-1.1692838751561958,-0.5832119273804827,0.4261538933572652,-1.1692838751561958,-0.5832119273804826,0.4261538933572653,1.3743973492999406,0.0,0.0,0.0,-66.99503109915187,-33.41558200059191,24.416819512439467,-66.99503109915187,-33.41558200059191,24.41681951243947,78.74716748885419
35,0.17484498023986816,1775788850.7987552,1.102959651,-17.33432848288607,1.456159177380837,0.5192708149876258,-18.285445067105456,-1.3044297855456044,0.7606479919871472,-0.9511165842193847,-2.7605889629264415,0.24137717699952133,2.929801549693203,0.0,0.0,0.0,0.0,-0.2943044413693908,2.086575768514212,2.1829921699194585,3.0341173932282333,-10.865718475551086,3.2070903386619745,7.243696463084989,0.0,0.0,0.0,-1.221735159791996,-0.5438219494984958,0.42533372067085656,-1.221735159791996,-0.5438219494984957,0.4253337206708565,1.4033131822113099,0.0,0.0,0.0,-70.00026833882261,-31.158702512840406,24.369827079036344,-70.00026833882261,-31.1587025128404,24.36982707903634,80.40392267578113
36,0.17971372604370117,1775788850.803624,1.107828514,-17.33432848288607,1.456159177380837,0.5192708149876258,-18.287115012309087,-1.2937060125009798,0.7715419248828842,-0.9527865294230153,-2.7498651898818167,0.25227110989525836,2.921164399013089,0.0,0.0,0.0,0.0,-0.3729632050239319,2.2037887978125164,2.1736805408661013,3.117799498268868,-11.40501198098534,3.5449175476628927,7.156732668314719,0.0,0.0,0.0,-1.2747824950895252,-0.5043267765407556,0.42001404562222966,-1.2747824950895252,-0.5043267765407555,0.42001404562222966,1.4338157851839326,0.0,0.0,0.0,-73.03965676578639,-28.895795791222675,24.06503215036897,-73.03965676578639,-28.895795791222668,24.06503215036897,82.15159309027561
37,0.18660569190979004,1775788850.8105159,1.114720543,-17.33432848288607,1.456159177380837,0.5192708149876258,-18.288727275106467,-1.2846971773397344,0.7802148440840413,-0.9543987922203954,-2.7408563547205715,0.26094402909641545,2.9139770757720385,0.0,0.0,0.0,0.0,-0.4326446417402751,2.3011028875242143,2.1621311903340357,3.18701540147112,-11.803171528380696,3.780732678360042,7.076942624290916,0.0,0.0,0.0,-1.3178172404285158,-0.472953742213711,0.41277706755053506,-1.3178172404285158,-0.4729537422137109,0.4127770675505351,1.4596960056601516,0.0,0.0,0.0,-75.50536604613083,-27.09825333376396,23.650383850432146,-75.50536604613083,-27.098253333763953,23.65038385043215,83.634420496431
38,0.18969154357910156,1775788850.8136017,1.117806404,-17.33432848288607,1.456159177380837,0.5192708149876258,-18.290571789869418,-1.2752936467201255,0.7888335687214904,-0.956243306983346,-2.7314528241009626,0.2695627537338645,2.906527115070519,0.0,0.0,0.0,0.0,-0.48905435128946295,2.4010926142116142,2.146533610481966,3.2576105417108208,-12.174042901809253,3.985833036579987,6.988131561184082,0.0,0.0,0.0,-1.3615130973106178,-0.44201328830378106,0.40310219955254945,-1.3615130973106178,-0.44201328830378106,0.4031021995525492,1.4871398873238444,0.0,0.0,0.0,-78.00895422768295,-25.32549590850593,23.096054746801386,-78.00895422768295,-25.32549590850593,23.09605474680137,85.20683908921708
39,0.19474267959594727,1775788850.8186529,1.122857348,-17.33432848288607,1.456159177380837,0.5192708149876258,-18.29318352706781,-1.262968673867139,0.799505142420442,-0.958855044181739,-2.7191278512479764,0.2802343274328162,2.896824217217352,0.0,0.0,0.0,0.0,-0.5546954765906198,2.52943588646688,2.120917005994445,3.3472409417030358,-12.60216352019225,4.197353245681704,6.865492347754111,0.0,0.0,0.0,-1.4172296839470582,-0.4042560208273981,0.38787898735800375,-1.4172296839470582,-0.4042560208273982,0.38787898735800397,1.523946526709435,0.0,0.0,0.0,-81.201279490826,-23.162163836162616,22.22382893742183,-81.201279490826,-23.162163836162623,22.223828937421843,87.31570418407141
40,0.19969534873962402,1775788850.8236055,1.127810159,-17.332319907662765,1.4552408748009475,0.5192708149876258,-18.296109001124698,-1.2499946164378393,0.8100305283430839,-0.9637890934619335,-2.7052354912387866,0.290759713355458,2.8864735735226614,0.0,0.0,0.0,0.0,-0.6145102609243563,2.660614067944209,2.087981973341115,3.4374640071310436,-12.993961467177492,4.358561551137962,6.730150310499762,0.0,0.0,0.0,-1.4743384747250625,-0.36786458767915725,0.3695362284518391,-1.4743384747250625,-0.3678645876791573,0.36953622845183887,1.5638271378452895,0.0,0.0,0.0,-84.47337217550128,-21.077088306335934,21.172866267472592,-84.47337217550128,-21.077088306335938,21.17286626747258,89.6006948865583
41,0.20469427108764648,1775788850.8286045,1.13280905,-17.332319907662765,1.4552408748009475,0.5192708149876258,-18.299318669926297,-1.2363588318253367,0.8203720720125023,-0.9669987622635325,-2.6915997066262842,0.30110125702487645,2.875840321351633,0.0,0.0,0.0,0.0,-0.6683067412797572,2.7938952794364056,2.04730877426295,3.5275994599828167,-13.352303573467749,4.4682279900652055,6.583138403178954,0.0,0.0,0.0,-1.5329918354641296,-0.33317463835097844,0.3484637113424712,-1.5329918354641296,-0.3331746383509784,0.34846371134247134,1.6070147060193805,0.0,0.0,0.0,-87.83396220010815,-19.089500618308602,19.965499973388596,-87.83396220010815,-19.0895006183086,19.965499973388603,92.07516027036723
42,0.20969629287719727,1775788850.8336065,1.137811156,-17.332319907662765,1.4552408748009475,0.5192708149876258,-18.30278088821304,-1.2220561650685082,0.8304900899717998,-0.9704609805502749,-2.6772970398694556,0.311219274984174,2.8647113976081475,0.0,0.0,0.0,0.0,-0.7154709017740369,2.9270537445445717,1.9985365241060158,3.6157558646738734,-13.679692568553218,4.532148449110481,6.421482807748921,0.0,0.0,0.0,-1.5932967766461061,-0.3004890821851106,0.325041459966825,-1.5932967766461061,-0.3004890821851105,0.3250414599668252,1.6536445378861464,0.0,0.0,0.0,-91.28918081362006,-17.21675619896657,18.62350382286958,-91.28918081362006,-17.216756198966564,18.62350382286959,94.74685283573756
43,0.2147083282470703,1775788850.8386185,1.142823192,-17.332319907662765,1.4552408748009475,0.5192708149876258,-18.306462432641336,-1.2070900845287174,0.8403437749961215,-0.9741425249785713,-2.662330959329665,0.3210729600084956,2.853076872715745,0.0,0.0,0.0,0.0,-0.7560546927671786,3.0590900543984083,1.9415719662183621,3.7012636165746917,-13.974720457143475,4.55016372737533,6.245884575503523,0.0,0.0,0.0,-1.6553115151772746,-0.27007734155582797,0.2996434675161532,-1.6553115151772746,-0.27007734155582774,0.299643467516153,1.703755906908455,0.0,0.0,0.0,-94.84236359906335,-15.474291813262145,17.16830604734096,-94.84236359906335,-15.474291813262132,17.16830604734095,97.61802278633844
44,0.2196946144104004,1775788850.8436048,1.1478093839999999,-17.332319907662765,1.4552408748009475,0.5192708149876258,-18.310330712044816,-1.1914688244078413,0.8498922010213594,-0.9780108043820519,-2.646709699208789,0.3306213860337336,2.8409308098362365,0.0,0.0,0.0,0.0,-0.7902137253783412,3.1890164739609133,1.8764425968403573,3.7835566101496876,-14.223367031706658,4.521819340917723,6.057679833754316,0.0,0.0,0.0,-1.719000353724779,-0.2421568742773977,0.2726597748975348,-1.719000353724779,-0.24215687427739763,0.27265977489753457,1.7572551097415792,0.0,0.0,0.0,-98.49146524992547,-13.874566876174976,15.622254344615811,-98.49146524992547,-13.87456687617497,15.622254344615799,100.6833013159908
45,0.22470331192016602,1775788850.8486135,1.152818035,-17.332319907662765,1.4552408748009475,0.5192708149876258,-18.314354359078994,-1.1752046733564785,0.8590947819250138,-0.9820344514162294,-2.630445548157426,0.3398239669373879,2.828270809893328,0.0,0.0,0.0,0.0,-0.8182281004954821,3.3159948929188863,1.8032845084915508,3.862273213131121,-14.3998250651057,4.440157929701016,5.859106166610061,0.0,0.0,0.0,-1.7842109570542735,-0.21687901946925173,0.24451054233019037,-1.7842109570542735,-0.2168790194692516,0.24451054233019054,1.8138992953494066,0.0,0.0,0.0,-102.22775760020724,-12.426252480523736,14.009422121974769,-102.22775760020724,-12.426252480523727,14.00942212197478,103.928774085275
46,0.22969841957092285,1775788850.8536086,1.15781312,-17.332319907662765,1.4552408748009475,0.5192708149876258,-18.318503091530538,-1.1583164375907615,0.8679123846840329,-0.986183183867773,-2.613557312391709,0.348641569696407,2.815100360807786,0.0,0.0,0.0,0.0,-0.8403155244499068,3.438487962331325,1.7225256440015262,3.936549789088387,-14.449117706912666,4.285658360715282,5.65187160539352,0.0,0.0,0.0,-1.8505139980265959,-0.19429719475477725,0.21570665892682764,-1.8505139980265959,-0.19429719475477736,0.21570665892682772,1.8731478370612733,0.0,0.0,0.0,-106.02664201680429,-11.132409230680132,12.359081169375168,-106.02664201680429,-11.132409230680139,12.359081169375171,107.32346546766976
47,0.23470425605773926,1775788850.8586144,1.16281907,-17.332319907662765,1.4552408748009475,0.5192708149876258,-18.322748452651066,-1.140828484997852,0.8763081621708531,-0.9904285449883012,-2.5960693597987996,0.3570373471832272,2.801428294798464,0.0,0.0,0.0,0.0,-0.8569644128542507,3.555742487508342,1.6346547097655284,4.006218748711716,-14.332614466070964,4.064689375856683,5.438615121042572,0.0,0.0,0.0,-1.917279183735547,-0.1743507086186675,0.18680526274251583,-1.917279183735547,-0.1743507086186673,0.18680526274251585,1.9342321071086006,0.0,0.0,0.0,-109.85200537633435,-9.989559758964836,10.703153145978598,-109.85200537633435,-9.989559758964823,10.7031531459786,110.82333633601901
48,0.23970270156860352,1775788850.863613,1.167817359,-17.332319907662765,1.4552408748009475,0.5192708149876258,-18.3270645694538,-1.1227691080371205,0.8842482508064008,-0.9947446617910352,-2.578009982838068,0.36497743581877495,2.7872676481513836,0.0,0.0,0.0,0.0,-0.8687176591208543,3.6669628236358225,1.5403753071427346,4.071123040151291,-13.95275954976296,3.798891485646071,5.224625321393628,0.0,0.0,0.0,-1.9834010217774105,-0.1568769019211456,0.15826815822731718,-1.9834010217774105,-0.15687690192114578,0.1582681582273171,1.995880453697746,0.0,0.0,0.0,-113.6405076297807,-8.988384383169398,9.06809749773399,-113.6405076297807,-8.988384383169409,9.068097497733987,114.35552640953676
49,0.24468779563903809,1775788850.868598,1.172802583,-17.332319907662765,1.4552408748009475,0.5192708149876258,-18.331428504449406,-1.1041697713095562,0.8917026482612185,-0.9991085967866411,-2.5594106461105035,0.37243183327359264,2.7726352652363575,0.0,0.0,0.0,0.0,-0.876191650926554,3.771557983603223,1.4405818168952123,4.13129972333208,-13.280149954810643,3.4986695999459356,5.013272110729169,0.0,0.0,0.0,-2.0475080928934886,-0.1416250669604849,0.13047762039451496,-2.0475080928934886,-0.14162506696048505,0.13047762039451483,2.0565435710141684,0.0,0.0,0.0,-117.313572241677,-8.114518610093464,7.475816969515783,-117.313572241677,-8.114518610093471,7.475816969515775,117.83126700387476
50,0.24970364570617676,1775788850.8736138,1.1778183580000001,-17.323160558449413,1.4510106705629013,0.5192708149876258,-18.335820394082738,-1.0850662236906103,0.8986471903499081,-1.0126598356333254,-2.5360768942535117,0.3793763753622823,2.757007869131765,0.0,0.0,0.0,0.0,-0.8800146067058183,3.8686069900735234,1.3366350719402302,4.186542614998919,-12.247283975263889,3.185391455656846,4.813565524997784,0.0,0.0,0.0,-2.107864335270471,-0.12826857529012797,0.10369654011861537,-2.107864335270471,-0.1282685752901278,0.1036965401186154,2.114307890479709,0.0,0.0,0.0,-120.77173019714675,-7.349248008280372,5.941374098905682,-120.77173019714675,-7.349248008280362,5.941374098905683,121.1409187156956
51,0.25466394424438477,1775788850.8785741,1.182778707,-17.323160558449413,1.4510106705629013,0.5192708149876258,-18.340223709859316,-1.0654973396419687,0.905064756132446,-1.0170631514099036,-2.51650801020487,0.38579394114482013,2.741544634764346,0.0,0.0,0.0,0.0,-0.8808742138104269,3.9573988668349522,1.2302054482921256,4.236785410755463,-10.876998885584591,2.86569766564176,4.630767468970852,0.0,0.0,0.0,-2.162701871548688,-0.11642836559623228,0.07809603047268024,-2.162701871548688,-0.11642836559623237,0.07809603047268032,2.1672410893786593,0.0,0.0,0.0,-123.91368958478412,-6.670853964270264,4.474572942809645,-123.91368958478412,-6.67085396427027,4.47457294280965,124.173767608732
52,0.26076650619506836,1775788850.8846767,1.188881355,-17.323160558449413,1.4510106705629013,0.5192708149876258,-18.344625366432776,-1.045507272172981,0.910948534007369,-1.0214648079833637,-2.496517942735882,0.39167771901974313,2.7256932380455434,0.0,0.0,0.0,0.0,-0.8794680561681767,4.0372455481410325,1.1232978994700484,4.2818937222633915,-9.186362163257055,2.552699654605325,4.472416408791275,0.0,0.0,0.0,-2.2102737946829167,-0.10568883780556844,0.053745966104360526,-2.2102737946829167,-0.10568883780556826,0.053745966104360665,2.2134518306869033,0.0,0.0,0.0,-126.63936000369618,-6.055524347901769,3.0794170236330367,-126.63936000369618,-6.055524347901758,3.0794170236330447,126.82144805386524
53,0.2646982669830322,1775788850.8886085,1.1928129570000001,-17.323160558449413,1.4510106705629013,0.5192708149876258,-18.349015732214948,-1.0251390246775918,0.9162993910614029,-1.0258551737655353,-2.476149695240493,0.39702857607377706,2.7094884832750767,0.0,0.0,0.0,0.0,-0.8764729978593466,4.108399700774122,1.0175485854993611,4.322332488500763,-7.240471394958497,2.245485056440861,4.3394501146757225,0.0,0.0,0.0,-2.249134725763092,-0.0956378684642827,0.030658975938922625,-2.249134725763092,-0.09563786846428268,0.030658975938922417,2.251375932474058,0.0,0.0,0.0,-128.865927342539,-5.47964622463071,1.7566299254934068,-128.865927342539,-5.479646224630709,1.7566299254933948,128.99433902809375
54,0.26939821243286133,1775788850.8933084,1.197512932,-17.323160558449413,1.4510106705629013,0.5192708149876258,-18.35164178858417,-1.0127557392267377,0.9192589113765847,-1.0284812301347586,-2.4637664097896392,0.3999880963889588,2.699612757415422,0.0,0.0,0.0,0.0,-0.8741824637804654,4.146620965829468,0.9556660486869923,4.3441866915282095,-5.960355528642054,2.063108889109314,4.274545726887814,0.0,0.0,0.0,-2.2677255014018685,-0.08976035379328912,0.017406648371250624,-2.2677255014018685,-0.08976035379328895,0.01740664837125072,2.2695679902194983,0.0,0.0,0.0,-129.9311003245155,-5.142889439956556,0.9973274871409293,-129.9311003245155,-5.142889439956546,0.9973274871409349,130.03666715756574
55,0.2749764919281006,1775788850.8988867,1.203091184,-17.323160558449413,1.4510106705629013,0.5192708149876258,-18.35426059107873,-1.0002623032630715,0.9220347777460297,-1.0311000326293183,-2.451272973825973,0.40276396275840387,2.68963292647801,0.0,0.0,0.0,0.0,-0.8716554614606776,4.181839346480497,0.8951714909048752,4.364504045294896,-4.6640041223529805,1.8812415246720553,4.220444689365624,0.0,0.0,0.0,-2.282543405030276,-0.08388683119653807,0.004598376879377269,-2.282543405030276,-0.08388683119653795,0.004598376879377142,2.2840889959380584,0.0,0.0,0.0,-130.78010366365484,-4.806361384288001,0.2634675877988556,-130.78010366365484,-4.806361384287994,0.26346758779884827,130.86865949952457
56,0.2794344425201416,1775788850.9033446,1.207549128,-17.323160558449413,1.4510106705629013,0.5192708149876258,-18.357740097777675,-0.9834479793090561,0.9254580099732667,-1.0345795393282629,-2.4344586498719574,0.4061871949856408,2.6761785774688835,0.0,0.0,0.0,0.0,-0.8680660926257063,4.224593439670181,0.8168882577465629,4.38953697983227,-2.991789035367345,1.637234040060649,4.164676698702197,0.0,0.0,0.0,-2.2965218272081867,-0.0759111218257035,-0.011794052202589634,-2.2965218272081867,-0.07591112182570336,-0.011794052202589445,2.2978063671527726,0.0,0.0,0.0,-131.5810082587012,-4.349386898716239,-0.6757494145653585,-131.5810082587012,-4.349386898716231,-0.6757494145653478,131.65460697614196
57,0.2872350215911865,1775788850.9111452,1.215349689,-17.323160558449413,1.4510106705629013,0.5192708149876258,-18.363793838954745,-0.9536407720646599,0.9307149188622171,-1.0406332805053324,-2.404651442627561,0.4114441038745913,2.652273069583761,0.0,0.0,0.0,0.0,-0.8615829003260662,4.2897090200987815,0.6866965141331057,4.428936743031411,-0.3676418870537966,1.1962891622037262,4.106938730021495,0.0,0.0,0.0,-2.3060885245374996,-0.061035239960863144,-0.038576198190479825,-2.3060885245374996,-0.06103523996086313,-0.03857619819047997,2.3072186083220316,0.0,0.0,0.0,-132.12913963954992,-3.4970616513256862,-2.210253345974697,-132.12913963954992,-3.4970616513256854,-2.2102533459747056,132.19388867089978
58,0.2893345355987549,1775788850.9132447,1.217449283,-17.323160558449413,1.4510106705629013,0.5192708149876258,-18.36637450712066,-0.9407346789477483,0.9326954142384954,-1.043213948671248,-2.3917453495106495,0.4134245992508696,2.6419048163917296,0.0,0.0,0.0,0.0,-0.8588740864135584,4.314034846049096,0.633925298631106,4.444144758385252,0.5483104322475941,0.9982842151337372,4.09738471871091,0.0,0.0,0.0,-2.3051688047561045,-0.054116565231859724,-0.049288678329788775,-2.3051688047561045,-0.05411656523185959,-0.04928867832978856,2.306330677692312,0.0,0.0,0.0,-132.0764435777413,-3.1006507895299715,-2.8240332460748165,-132.0764435777413,-3.100650789529964,-2.824033246074804,132.14301399331643
59,0.2953319549560547,1775788850.9192421,1.223446601,-17.323160558449413,1.4510106705629013,0.5192708149876258,-18.371512282104458,-0.9147190045956275,0.9361960539714944,-1.0483517236550455,-2.365729675158529,0.4169252389838686,2.6209816648191073,0.0,0.0,0.0,0.0,-0.8538150800306266,4.356463744620927,0.5343167304958164,4.471383557420682,1.9919448203222867,0.570790882467753,4.098307564217081,0.0,0.0,0.0,-2.2963663472797946,-0.038973277316586445,-0.06923463499982944,-2.2963663472797946,-0.03897327731658651,-0.0692346349998294,2.297740357818416,0.0,0.0,0.0,-131.57209991500534,-2.23300430403335,-3.9668523816189603,-131.57209991500534,-2.2330043040333534,-3.966852381618958,131.65082491987485
60,0.29978322982788086,1775788850.9236934,1.227898,-17.323160558449413,1.4510106705629013,0.5192708149876258,-18.374921350317344,-0.8972437891803121,0.9382077360360775,-1.051760791867931,-2.3482544597432136,0.4189369210484517,2.6069154023159453,0.0,0.0,0.0,0.0,-0.8507597100599994,4.380685075927388,0.4720036286634101,4.487424789808264,2.7140327777795936,0.26061450152469917,4.109429758519455,0.0,0.0,0.0,-2.2864949280940365,-0.027745328980522708,-0.0813275374494232,-2.2864949280940365,-0.027745328980522732,-0.08132753744942312,2.288109050685211,0.0,0.0,0.0,-131.00650925785695,-1.5896902517859621,-4.659724654044097,-131.00650925785695,-1.5896902517859637,-4.659724654044092,131.09899166994796
61,0.30660080909729004,1775788850.930511,1.234715587,-17.310184011992735,1.4448968656022316,0.5192708149876258,-18.37747039311107,-0.884076629588318,0.939555921091749,-1.0672863811183362,-2.3289734951905494,0.4202851061041232,2.5961235199877746,0.0,0.0,0.0,0.0,-0.8486236019636506,4.397212020236944,0.42701459271102515,4.4986639162215925,3.158952292869216,0.017348674563264874,4.121959418115422,0.0,0.0,0.0,-2.2774716881970063,-0.01866671185873695,-0.08970662004980691,-2.2774716881970063,-0.018666711858736917,-0.08970662004980712,2.279314154378746,0.0,0.0,0.0,-130.48951569422306,-1.0695238068924313,-5.139810723237587,-130.48951569422306,-1.0695238068924295,-5.1398107232375985,130.5950812303323
62,0.31052374839782715,1775788850.934434,1.238638398,-17.310184011992735,1.4448968656022316,0.5192708149876258,-18.380859544950738,-0.8664469834530901,0.941147542461686,-1.0706755329580027,-2.311343849055322,0.42187672747406013,2.5819830477028693,0.0,0.0,0.0,0.0,-0.8460066432862444,4.417130040847448,0.3692901650000884,4.512553630064382,3.6845443916559155,-0.2894789183816873,4.1393243789272285,0.0,0.0,0.0,-2.2636579098400924,-0.005661877463053534,-0.09991602909483949,-2.2636579098400924,-0.005661877463053688,-0.09991602909483932,2.2658690170678675,0.0,0.0,0.0,-129.69804449524273,-0.3244016827532052,-5.724766772840642,-129.69804449524273,-0.324401682753214,-5.724766772840632,129.8247316074451
63,0.3146939277648926,1775788850.938604,1.242808799,-17.310184011992735,1.4448968656022316,0.5192708149876258,-18.385082185782935,-0.8443057250606634,0.9428206665373966,-1.0748981737901993,-2.289202590662895,0.42354985154977076,2.5642248461987585,0.0,0.0,0.0,0.0,-0.8430787931171431,4.439197089518636,0.3002438960241943,4.528509583526834,4.355364377632863,-0.5640463747414118,4.1475312838621265,0.0,0.0,0.0,-2.2435944815933,0.011787425997791026,-0.11130500344120506,-2.2435944815933,0.011787425997790812,-0.11130500344120486,2.246384638711414,0.0,0.0,0.0,-128.54849473413796,0.675369760996209,-6.377306935870155,-128.54849473413796,0.6753697609961968,-6.377306935870143,128.70835896118427
64,0.31969356536865234,1775788850.9436038,1.247808225,-17.310184011992735,1.4448968656022316,0.5192708149876258,-18.38929050266731,-0.8220554607531867,0.9441518169425732,-1.079106490674576,-2.266952326355418,0.4248810019549474,2.546383226069179,0.0,0.0,0.0,0.0,-0.8402574735986694,4.460946749226902,0.23234220578524564,4.54533402754579,5.023558783842668,-0.7399365342240626,4.136929932394363,0.0,0.0,0.0,-2.2203511284632254,0.03015926887752986,-0.12143174992148915,-2.2203511284632254,0.030159268877529843,-0.1214317499214892,2.2238737340631864,0.0,0.0,0.0,-127.21674869805248,1.7279988198827168,-6.9575267693893945,-127.21674869805248,1.7279988198827156,-6.957526769389396,127.4185791318194
65,0.3246879577636719,1775788850.9485981,1.252802736,-17.310184011992735,1.4448968656022316,0.5192708149876258,-18.39348477782735,-0.7996950547905917,0.9451448318109948,-1.0833007658346148,-2.244591920392823,0.425874016823369,2.5284584466737585,0.0,0.0,0.0,0.0,-0.8374371008581327,4.483513515956682,0.16481989082777762,4.564028915560506,5.665079601365293,-0.839742889293978,4.109212747451083,0.0,0.0,0.0,-2.193969800805568,0.04910488600344428,-0.13050028357153898,-2.193969800805568,0.049104886003444204,-0.1305002835715392,2.198396029083133,0.0,0.0,0.0,-125.70520996531698,2.8135027214683856,-7.477115473909617,-125.70520996531698,2.813502721468381,-7.477115473909629,125.95881416478291
66,0.32968831062316895,1775788850.9535985,1.257803178,-17.310184011992735,1.4448968656022316,0.5192708149876258,-18.397664611769624,-0.7772162476630485,0.9457989920302284,-1.0874805997768888,-2.22211311326528,0.4265281770426026,2.5104435920466135,0.0,0.0,0.0,0.0,-0.8344668992232899,4.5084477727551215,0.09674447174881096,4.586043590980564,6.250213450844244,-0.8810824417161547,4.063596027518082,0.0,0.0,0.0,-2.164629966121569,0.0683432543949848,-0.13865532710529635,-2.164629966121569,0.06834325439498468,-0.13865532710529616,2.1701426198265032,0.0,0.0,0.0,-124.02416126631228,3.9157800350215437,-7.944365050139367,-124.02416126631228,3.9157800350215366,-7.944365050139355,124.34001305752217
67,0.3345828056335449,1775788850.958493,1.262697637,-17.310184011992735,1.4448968656022316,0.5192708149876258,-18.400165221544004,-0.763666770608952,0.9460276150368849,-1.0899812095512686,-2.2085636362111836,0.4267568000492591,2.4995867135903675,0.0,0.0,0.0,0.0,-0.8325932199693327,4.524712480029291,0.05563795748708943,4.601014027275406,6.565122182461244,-0.8837801770044683,4.028505871692997,0.0,0.0,0.0,-2.145732383529945,0.07993013954714655,-0.1431548320386001,-2.145732383529945,0.07993013954714634,-0.14315483203860024,2.151987359366482,0.0,0.0,0.0,-122.94140954081232,4.57965965194321,-8.202167692715966,-122.94140954081232,4.5796596519431985,-8.202167692715973,123.29979325720221
68,0.3396894931793213,1775788850.9635997,1.267804322,-17.310184011992735,1.4448968656022316,0.5192708149876258,-18.405977076447076,-0.7318485159854792,0.9460789421279028,-1.095793064454341,-2.1767453815877107,0.42680812714027694,2.4740954051456168,0.0,0.0,0.0,0.0,-0.8278424297917247,4.567315945396761,-0.041130976586729324,4.641916607488113,7.161153752315986,-0.8418190740336087,3.9251622778903674,0.0,0.0,0.0,-2.0984505935506896,0.10683308838913055,-0.15262319373635172,-2.0984505935506896,0.10683308838913064,-0.15262319373635158,2.1067040707261864,0.0,0.0,0.0,-120.23236252717705,6.121085077045259,-8.744664856900455,-120.23236252717705,6.121085077045264,-8.744664856900448,120.70525193564056
69,0.34471631050109863,1775788850.9686265,1.272830976,-17.310184011992735,1.4448968656022316,0.5192708149876258,-18.410107022468026,-0.7089273490340722,0.9456997492381164,-1.0999230104752904,-2.1538242146363036,0.42642893425049055,2.45573431227662,0.0,0.0,0.0,0.0,-0.8240765750878796,4.601730416324351,-0.11057027260547159,4.67624323697103,7.456856481645171,-0.7818602746100247,3.8353825304206373,0.0,0.0,0.0,-2.0625480717833202,0.12575592263068905,-0.158585473002953,-2.0625480717833202,0.12575592263068902,-0.15858547300295278,2.0724546925666094,0.0,0.0,0.0,-118.17529955603021,7.205283615512199,-9.086278295155065,-118.17529955603021,7.205283615512197,-9.086278295155052,118.74290711614927
70,0.34969496726989746,1775788850.9736052,1.277809692,-17.293169448435663,1.4366634935220464,0.5192708149876258,-18.41421719404625,-0.6858253781851249,0.9449732429073708,-1.1210477456105856,-2.122488871707171,0.425702427919745,2.4378124652228936,0.0,0.0,0.0,0.0,-0.819925032291946,4.6396062249451635,-0.17998848421196237,4.714935719135287,7.633941848842903,-0.7057308401572309,3.7336052751062745,0.0,0.0,0.0,-2.025493688910734,0.1442991910572557,-0.16394836547716554,-2.025493688910734,0.14429919105725553,-0.1639483654771654,2.0372348924214965,0.0,0.0,0.0,-116.05223980496916,8.267734634732662,-9.393549399909915,-116.05223980496916,8.267734634732653,-9.393549399909906,116.72496121254005
71,0.35474109649658203,1775788850.9786513,1.282855744,-17.293169448435663,1.4366634935220464,0.5192708149876258,-18.418305580308445,-0.6625261886234274,0.9439007076219018,-1.1251361318727824,-2.099189682145474,0.424629892634276,2.419264182058309,0.0,0.0,0.0,0.0,-0.8153543061307623,4.680578211919357,-0.24892094304975093,4.757580969180553,7.697088394100356,-0.6196463962998465,3.621957672323724,0.0,0.0,0.0,-1.9878528119804153,0.16237178579714512,-0.16876637408598272,-1.9878528119804153,0.16237178579714495,-0.16876637408598283,2.001600731400628,0.0,0.0,0.0,-113.89557641969057,9.303218038178658,-9.669600958852836,-113.89557641969057,9.303218038178649,-9.669600958852842,114.68327417955469
72,0.3596951961517334,1775788850.9836054,1.287809846,-17.293169448435663,1.4366634935220464,0.5192708149876258,-18.422369944921954,-0.6390147311803316,0.9424853479721645,-1.1292004964862912,-2.075678224702378,0.4232145329845387,2.4005508523457326,0.0,0.0,0.0,0.0,-0.8103112090125677,4.7244397671491205,-0.31705480969911726,4.803900407088472,7.645497997979908,-0.5286526641571897,3.5017605243296472,0.0,0.0,0.0,-1.950187340845814,0.17990370056107238,-0.17309137262633575,-1.950187340845814,0.1799037005610722,-0.1730913726263359,1.9661018867669355,0.0,0.0,0.0,-111.73750389030607,10.307722760934787,-9.917405121615307,-111.73750389030607,10.307722760934777,-9.917405121615314,112.64934020445348
73,0.3646547794342041,1775788850.988565,1.292769615,-17.293169448435663,1.4366634935220464,0.5192708149876258,-18.424796036483343,-0.6248004319457433,0.9414735796009089,-1.1316265880476806,-2.06146392546779,0.4222027646132831,2.3892399262586843,0.0,0.0,0.0,0.0,-0.8070545293146081,4.751880418911875,-0.3573772402739096,4.833158700145394,7.56632025461508,-0.47340656996003083,3.4264784437150784,0.0,0.0,0.0,-1.9277990770754627,0.19014098154398337,-0.1754706345364332,-1.9277990770754627,0.1901409815439834,-0.17547063453643297,1.945084270159042,0.0,0.0,0.0,-110.45475086563931,10.894275754945127,-10.053726787420125,-110.45475086563931,10.894275754945129,-10.053726787420112,111.44511947739713
74,0.3706393241882324,1775788850.9945495,1.298754202,-17.293169448435663,1.4366634935220464,0.5192708149876258,-18.426407891992675,-0.6152780521385818,0.9407321859770221,-1.133238443557012,-2.051941545660628,0.4214613709893963,2.3816639485871867,0.0,0.0,0.0,0.0,-0.8047883935645417,4.77054362292844,-0.38397656674800384,4.85316482519304,7.49633677954965,-0.4367392004857161,3.375287034594105,0.0,0.0,0.0,-1.9130232430678524,0.19684312452994318,-0.17697358151351317,-1.9130232430678524,0.19684312452994313,-0.17697358151351317,1.931249541811279,0.0,0.0,0.0,-109.60815793821736,11.278280261733832,-10.139839306038752,-109.60815793821736,11.278280261733828,-10.139839306038752,110.6524479323603
75,0.37503910064697266,1775788850.9989493,1.303153916,-17.293169448435663,1.4366634935220464,0.5192708149876258,-18.430417051271416,-0.5913067863924735,0.938648160492529,-1.1372476028357532,-2.02797027991452,0.41937734550490313,2.362598764982108,0.0,0.0,0.0,0.0,-0.7987997305116228,4.818151539531205,-0.44935470101648894,4.904547371030071,7.271422656175656,-0.3468108419881353,3.2448171797613115,0.0,0.0,0.0,-1.8767868556875245,0.21315634469990666,-0.18046261994793752,-1.8767868556875245,0.21315634469990652,-0.18046261994793733,1.8974538956627547,0.0,0.0,0.0,-107.53196587652346,12.212958927740425,-10.3397464828902,-107.53196587652346,12.212958927740418,-10.339746482890188,108.7161000421323
76,0.3800849914550781,1775788851.0039952,1.308199676,-17.293169448435663,1.4366634935220464,0.5192708149876258,-18.43439516039002,-0.5670952291626375,0.9362415760690109,-1.141225711954359,-2.003758722684684,0.4169707610813851,2.3433543820680387,0.0,0.0,0.0,0.0,-0.7923742339402022,4.866545338621772,-0.5129739760643636,4.957243463820684,6.992166401128393,-0.26084826921155485,3.1123960675804168,0.0,0.0,0.0,-1.8417983991505116,0.22882483076940605,-0.18360668995266352,-1.8417983991505116,0.22882483076940607,-0.1836066899526636,1.8650183813800356,0.0,0.0,0.0,-105.5272749852757,13.110697050882264,-10.519888424654676,-105.5272749852757,13.110697050882266,-10.519888424654681,106.8576819673962
77,0.3846895694732666,1775788851.0085998,1.312804426,-17.293169448435663,1.4366634935220464,0.5192708149876258,-18.43755388483523,-0.5475513637832035,0.9340901729635559,-1.1443844363995659,-1.9842148573052498,0.41481935797593006,2.3278314883118165,0.0,0.0,0.0,0.0,-0.7869485612218471,4.905369309035025,-0.5625249098668469,4.999837034369481,6.743640318275977,-0.19578057014867148,3.006281376787816,0.0,0.0,0.0,-1.8148562536708288,0.24089093759166055,-0.18590452820851153,-1.8148562536708288,0.24089093759166058,-0.18590452820851144,1.840188077048195,0.0,0.0,0.0,-103.9836037582624,13.802034046951457,-10.65154485871847,-103.9836037582624,13.802034046951459,-10.651544858718465,105.43501032515633
78,0.3900313377380371,1775788851.0139415,1.318146054,-17.293169448435663,1.4366634935220464,0.5192708149876258,-18.4422501693373,-0.5179456575224983,0.9304975242176874,-1.1490807209016367,-1.9546091510445447,0.41122670923006155,2.3043417374337265,0.0,0.0,0.0,0.0,-0.7784059082721858,4.963017168647286,-0.6345706551482332,5.06360889985552,6.353876399947219,-0.1051095219962661,2.8487920210315107,0.0,0.0,0.0,-1.7763337653539675,0.25821354420569,-0.1890408115376101,-1.7763337653539675,0.25821354420568987,-0.18904081153760988,1.8049300010733562,0.0,0.0,0.0,-101.77642776136423,14.79454629610075,-10.831240656833057,-101.77642776136423,14.794546296100743,-10.831240656833044,103.41487137804646
79,0.3976418972015381,1775788851.021552,1.325756752,-17.27582961517626,1.428015227474729,0.5192708149876258,-18.446123756109404,-0.4930127839761036,0.9271789318925907,-1.1702941409331444,-1.9210280114508327,0.40790811690496487,2.2861159263952784,0.0,0.0,0.0,0.0,-0.7709910547058502,5.009908755340681,-0.6925632026542341,5.115980525074967,6.033116823275282,-0.036074222617144484,2.720609547499695,0.0,0.0,0.0,-1.7459935849242239,0.2719507299861233,-0.1914136845661671,-1.7459935849242239,0.27195072998612346,-0.19141368456616714,1.7773829066286546,0.0,0.0,0.0,-100.0380634730745,15.581629063706705,-10.9671962666898,-100.0380634730745,15.581629063706716,-10.967196266689802,101.83653912851678
80,0.3996860980987549,1775788851.0235963,1.32780097,-17.27582961517626,1.428015227474729,0.5192708149876258,-18.448429927882337,-0.47794178802710663,0.925050174608729,-1.1726003127060771,-1.9059570155018357,0.4057793596211031,2.274273626236203,0.0,0.0,0.0,0.0,-0.7664468765474259,5.037320165096233,-0.7265045024796787,5.146828543130002,5.849669305933635,0.00257897288164173,2.64557873742115,0.0,0.0,0.0,-1.7285353206532408,0.27989666369566585,-0.19274881414873998,-1.7285353206532408,0.2798966636956659,-0.1927488141487399,1.7616266921369896,0.0,0.0,0.0,-99.03777861272313,16.036897529554224,-11.043693556874288,-99.03777861272313,16.036897529554228,-11.043693556874283,100.93377453704151
81,0.4046924114227295,1775788851.0286026,1.332807174,-17.27582961517626,1.428015227474729,0.5192708149876258,-18.45224300668,-0.45264385601453305,0.9212788988106799,-1.1764133915037398,-1.8806590834892623,0.4020080838230541,2.254426214245897,0.0,0.0,0.0,0.0,-0.7587675559333471,5.081519351751637,-0.7817352258861441,5.1969873089661,5.568110197515146,0.06267963170087502,2.524333269650971,0.0,0.0,0.0,-1.7005985582684031,0.29266261692139955,-0.194849367878317,-1.7005985582684031,0.2926626169213997,-0.1948493678783172,1.736563600876868,0.0,0.0,0.0,-97.43712003481211,16.768332770850183,-11.164046420219515,-97.43712003481211,16.768332770850193,-11.164046420219528,99.49776518628532
82,0.4096848964691162,1775788851.033595,1.3377996300000001,-17.27582961517626,1.428015227474729,0.5192708149876258,-18.456017499711436,-0.42713021469384627,0.9172354082410635,-1.1801878845351759,-1.8551454421685754,0.3979645932534377,2.2344538195912276,0.0,0.0,0.0,0.0,-0.7510257201157933,5.1235502320785065,-0.8354150190615771,5.24525736899352,5.3262503278905395,0.11787938148008162,2.4085903411021317,0.0,0.0,0.0,-1.673960939840945,0.3048565302546481,-0.19681995088427887,-1.673960939840945,0.3048565302546482,-0.19681995088427895,1.7128399882120258,0.0,0.0,0.0,-95.91089692263884,17.466992540593626,-11.276952509641333,-95.91089692263884,17.466992540593633,-11.276952509641339,98.13850230578676
83,0.4146881103515625,1775788851.0385983,1.342802821,-17.27582961517626,1.428015227474729,0.5192708149876258,-18.45975328739175,-0.401412437949146,0.9129270787390188,-1.1839236722154887,-1.829427665423875,0.39365626375139295,2.2143726196467393,0.0,0.0,0.0,0.0,-0.7432978646262997,5.163132711833701,-0.8876968430507522,5.291354911620228,5.1323150396065165,0.1688427209164708,2.2990189298485726,0.0,0.0,0.0,-1.648407077086565,0.31651024439918257,-0.19868715329576422,-1.648407077086565,0.31651024439918274,-0.19868715329576414,1.6902370281955954,0.0,0.0,0.0,-94.44676843655633,18.134701176727365,-11.383935327316095,-94.44676843655633,18.134701176727372,-11.38393532731609,96.84344809234234
84,0.41969776153564453,1775788851.043608,1.347812513,-17.27582961517626,1.428015227474729,0.5192708149876258,-18.463450622862865,-0.3755033280427713,0.9083605085854689,-1.1876210076866052,-1.8035185555175004,0.38908969359784307,2.194199997187709,0.0,0.0,0.0,0.0,-0.7356565651248387,5.200052701139951,-0.9387373011122303,5.335069483797156,4.992759976230586,0.2162855136568449,2.196131111947818,0.0,0.0,0.0,-1.6236834407455774,0.327658706615519,-0.20047409055798296,-1.6236834407455774,0.327658706615519,-0.20047409055798315,1.668501724529346,0.0,0.0,0.0,-93.03020842000147,18.773461009784505,-11.48631929069589,-93.03020842000147,18.773461009784505,-11.486319290695901,95.59810692583103
