sample_idx,t_rel_s,stamp_s,t_in_traj_s,x_des_m,y_des_m,z_des_m,x_act_m,y_act_m,z_act_m,ex_m,ey_m,ez_m,e_pos_norm_m,vx_des_mps,vy_des_mps,vz_des_mps,speed_des_mps,vx_act_mps,vy_act_mps,vz_act_mps,speed_act_mps,wx_act_radps,wy_act_radps,wz_act_radps,roll_des_rad,pitch_des_rad,yaw_des_rad,roll_act_rad,pitch_act_rad,yaw_act_rad,e_roll_rad,e_pitch_rad,e_yaw_rad,e_ang_norm_rad,roll_des_deg,pitch_des_deg,yaw_des_deg,roll_act_deg,pitch_act_deg,yaw_act_deg,e_roll_deg,e_pitch_deg,e_yaw_deg,e_ang_norm_deg
0,0.0002453327178955078,1775721619.4263425,0.012089328,-19.301899293603913,-0.9207353122926085,0.7342572175141319,-19.31,-0.92,0.732683686319444,-0.0081007063960854,0.000735312292608481,-0.0015735311946878383,0.008284813136329375,1.6854483709867403,-0.14993762947389677,0.33218008246758535,1.7244016675885814,0.0,0.0,0.004975036226368618,0.004975036226368618,0.0,0.0,0.0,0.0,-0.19384671724888583,-0.08872651889420075,0.0,0.0,0.0,0.0,0.1938467172488858,0.0887265188942008,0.2131875815877943,0.0,-11.106598770826974,-5.083655063525459,0.0,0.0,0.0,0.0,11.106598770826974,5.083655063525462,12.21474866958151
1,0.005256175994873047,1775721619.4313533,0.017100284,-19.2940048458339,-0.9214449320699528,0.7358097794820989,-19.31,-0.92,0.7327082496410678,-0.015995154166098757,0.0014449320699527757,-0.00310152984103107,0.01635702518304752,1.9216574945702238,-0.17001761133469356,0.37864259009938445,1.9659714457842554,0.0,0.0,0.004850794888935846,0.004850794888935846,0.0,0.0,0.0,0.0,-0.19380924906659777,-0.08824468793764398,0.0,0.0,0.0,0.0,0.1938092490665979,0.08824468793764417,0.2129533985945535,0.0,-11.104452002115842,-5.056048183276005,0.0,0.0,0.0,0.0,11.104452002115849,5.056048183276015,12.201330972435073
2,0.010247468948364258,1775721619.4363446,0.022091428,-19.28365859588112,-0.9223678260900903,0.7378411729598183,-19.31,-0.92,0.7327321993616772,-0.02634140411887742,0.0023678260900902304,-0.005108973598141109,0.026936551051933637,2.255864714420852,-0.19844164674565068,0.4443722431023228,2.307763286685181,0.0,0.0,0.004729608510117979,0.004729608510117979,0.0,0.0,0.0,0.0,-0.1937656004162436,-0.0877411438029714,0.0,0.0,0.0,0.0,0.1937656004162438,0.0877411438029716,0.21270546824311123,0.0,-11.101951118669106,-5.0271972295606995,0.0,0.0,0.0,0.0,11.101951118669117,5.02719722956071,12.187125609684236
3,0.01524043083190918,1775721619.4413376,0.027084399,-19.270937602574715,-0.9234934236956459,0.7403391198447749,-19.31,-0.92,0.7327555505082594,-0.03906239742528328,0.0034934236956458697,-0.007583569336515494,0.03994477970410922,2.7199573735041227,-0.23763837950390443,0.5358354078678157,2.782401785763076,0.0,0.0,0.004611293535947285,0.004611293535947285,0.0,0.0,0.0,0.0,-0.1937908599981046,-0.08714713169246084,0.0,0.0,0.0,0.0,0.19379085999810464,0.0871471316924608,0.2124841640711799,0.0,-11.103398386102006,-4.993162842648785,0.0,0.0,0.0,0.0,11.103398386102008,4.993162842648783,12.174445814643931
4,0.020241975784301758,1775721619.4463391,0.032086149,-19.255925334892435,-0.9248105032050409,0.7432900773043412,-19.31,-0.92,0.7327783168217926,-0.054074665107563646,0.004810503205040839,-0.010511760482548538,0.05529654108552667,3.1630974074657208,-0.27421467112885295,0.6237546930486227,3.2356527644478246,0.0,0.0,0.00449569227065415,0.00449569227065415,0.0,0.0,0.0,0.0,-0.19398995611805286,-0.0864756174577326,0.0,0.0,0.0,0.0,0.19398995611805292,0.08647561745773258,0.21239146755314867,0.0,-11.114805753492472,-4.9546879111159,0.0,0.0,0.0,0.0,11.114805753492476,4.954687911115898,12.169134695385184
5,0.025240421295166016,1775721619.4513376,0.037084524,-19.238763372979736,-0.9263027325146842,0.7466690892874377,-19.31,-0.92,0.7328005117047047,-0.07123662702026223,0.006302732514684162,-0.013868577582732966,0.07284722994420513,3.5841727270571337,-0.308077284318975,0.7079104548609328,3.666380089760872,0.0,0.0,0.004382657170618132,0.004382657170618132,0.0,0.0,0.0,0.0,-0.19430185924003135,-0.08574416922761018,0.0,0.0,0.0,0.0,0.1943018592400314,0.08574416922761019,0.21238002509809165,0.0,-11.132676485998793,-4.912779014597571,0.0,0.0,0.0,0.0,11.132676485998797,4.912779014597572,12.16847909100315
6,0.030246973037719727,1775721619.4563441,0.042091154,-19.2195177312814,-0.9279603617605463,0.7504660790057875,-19.31,-0.92,0.7328221474616852,-0.0904822687185991,0.007960361760546264,-0.017643931544102376,0.09252954464470532,3.984131182588069,-0.33930106942215993,0.7884930761600824,4.0755549103078,0.0,0.0,0.004272061780371378,0.004272061780371378,0.0,0.0,0.0,0.0,-0.1946966119616642,-0.08495812903800554,0.0,0.0,0.0,0.0,0.194696611961664,0.08495812903800548,0.21242564440055053,0.0,-11.155294150899659,-4.867742229205562,0.0,0.0,0.0,0.0,11.155294150899646,4.867742229205559,12.171092884498375
7,0.03524947166442871,1775721619.4613466,0.047093564,-19.19834294674902,-0.9297659831080758,0.7546535224178235,-19.31,-0.92,0.7328432361856222,-0.11165705325097974,0.009765983108075749,-0.02181028623220127,0.11418564074475343,4.3619498305259805,-0.3678049685983093,0.8652972819986561,4.462132472841376,0.0,0.0,0.004163785995801709,0.004163785995801709,0.0,0.0,0.0,0.0,-0.19515655846215582,-0.08412223351972062,0.0,0.0,0.0,0.0,0.19515655846215596,0.0841222335197207,0.21251501707676876,0.0,-11.18164714417964,-4.819848943893936,0.0,0.0,0.0,0.0,11.181647144179648,4.81984894389394,12.176213561649467
8,0.040251731872558594,1775721619.466349,0.052095785,-19.175333571107675,-0.9317073825716773,0.759215715941044,-19.31,-0.92,0.7328637890230141,-0.1346664288923236,0.01170738257167725,-0.0263519269180299,0.1377190398223283,4.717961941630301,-0.3936155111406076,0.9383898668510611,4.8264555934444475,0.0,0.0,0.004057729770592498,0.004057729770592498,0.0,0.0,0.0,0.0,-0.19567254773618808,-0.08323637786417179,0.0,0.0,0.0,0.0,0.19567254773618803,0.08323637786417182,0.21264063707936443,0.0,-11.211211151855709,-4.769093153573193,0.0,0.0,0.0,0.0,11.211211151855705,4.769093153573195,12.18341105762062
9,0.04522967338562012,1775721619.4713268,0.057073834,-19.150721353923675,-0.9337609131097513,0.7641096641794497,-19.31,-0.92,0.7328838170183006,-0.15927864607632358,0.01376091310975125,-0.031225847161149067,0.16289291990891536,5.050619562665482,-0.4166285846187862,1.0074474390794481,5.16694181182723,0.0,0.0,0.003953796118704136,0.003953796118704136,0.0,0.0,0.0,0.0,-0.19623649136797533,-0.08230424181403326,0.0,0.0,0.0,0.0,0.1962364913679755,0.0823042418140334,0.21279743599253353,0.0,-11.243522741840398,-4.71568569196826,0.0,0.0,0.0,0.0,11.243522741840406,4.715685691968268,12.19239497357745
10,0.05027127265930176,1775721619.4763684,0.062115321,-19.12416292852345,-0.9359505509974143,0.7694069533067645,-19.31,-0.92,0.7329033303883429,-0.1858370714765485,0.01595055099741427,-0.036503622918421574,0.19005881115662915,5.365520375276488,-0.4372174704744962,1.0736416494790595,5.48932367468811,0.0,0.0,0.0038519036701877545,0.0038519036701877545,0.0,0.0,0.0,0.0,-0.19685621633199724,-0.08130685599140945,0.0,0.0,0.0,0.0,0.19685621633199712,0.08130685599140941,0.21298632524121786,0.0,-11.279030366737748,-4.658539693785732,0.0,0.0,0.0,0.0,11.279030366737743,4.65853969378573,12.203217530322458
11,0.055253028869628906,1775721619.4813502,0.067097027,-19.096414361214524,-0.9382094665091119,0.7749599792336631,-19.31,-0.92,0.7329223393204216,-0.21358563878547443,0.018209466509111816,-0.0420376399132415,0.21844352344581192,5.6549439990965835,-0.4548760044159299,1.1353505796571348,5.785700022559038,0.0,0.0,0.0037519719417438914,0.0037519719417438914,0.0,0.0,0.0,0.0,-0.19751567598497552,-0.08026582101842707,0.0,0.0,0.0,0.0,0.19751567598497566,0.08026582101842727,0.2132018862101461,0.0,-11.316814621612567,-4.598892783508326,0.0,0.0,0.0,0.0,11.316814621612574,4.5988927835083375,12.215568264069798
12,0.06026339530944824,1775721619.4863605,0.072107484,-19.06710583077817,-0.9405634170210682,0.7808458584760066,-19.31,-0.92,0.7329408532672149,-0.24289416922182738,0.02056341702106812,-0.04790500520879171,0.24842568523725245,5.924237038419199,-0.46994309958353897,1.1937054556017066,6.061547963924508,0.0,0.0,0.0036539345929788563,0.0036539345929788563,0.0,0.0,0.0,0.0,-0.19822642163488802,-0.0791597449933346,0.0,0.0,0.0,0.0,0.1982264216348879,0.07915974499333478,0.21344783780020388,0.0,-11.357537347659836,-4.535519295449921,0.0,0.0,0.0,0.0,11.357537347659829,4.535519295449932,12.22966025214464
13,0.06525754928588867,1775721619.4913547,0.077101626,-19.036604424337934,-0.9429781080829609,0.7869942742175147,-19.31,-0.92,0.7329588817094016,-0.2733955756620645,0.022978108082960857,-0.05403539250811307,0.279630037524887,6.17089621216289,-0.4822732105723786,1.248167599527694,6.314306760637529,0.0,0.0,0.003557724443264542,0.003557724443264542,0.0,0.0,0.0,0.0,-0.19898345125262984,-0.07799432843620695,0.0,0.0,0.0,0.0,0.19898345125263006,0.07799432843620702,0.2137230196787953,0.0,-11.400911949722843,-4.46874584535184,0.0,0.0,0.0,0.0,11.400911949722856,4.468745845351844,12.245427012386411
14,0.07025146484375,1775721619.4963486,0.082095628,-19.004926310670953,-0.9454476066083258,0.7934052675350003,-19.31,-0.92,0.7329764334691423,-0.30507368932904555,0.02544760660832579,-0.06042883406585797,0.3120403508995048,6.395827868660041,-0.4919195492291,1.2989316929178343,6.544908136200889,0.0,0.0,0.0034632874885021565,0.0034632874885021565,0.0,0.0,0.0,0.0,-0.199790972084169,-0.07676144467845139,0.0,0.0,0.0,0.0,0.19979097208416885,0.07676144467845125,0.21402979212123732,0.0,-11.447179485238932,-4.3981068094022175,0.0,0.0,0.0,0.0,11.447179485238923,4.3981068094022095,12.263003778609258
15,0.07525420188903809,1775721619.5013514,0.087098164,-18.97212231038063,-0.947962897260817,0.8000721181540298,-19.31,-0.92,0.7329935174437061,-0.3378776896193685,0.02796289726081691,-0.06707860071032368,0.3456049702174382,6.599367894556528,-0.49889210077770907,1.3460765820603318,6.753700622672957,0.0,0.0,0.0033705674714537837,0.0033705674714537837,0.0,0.0,0.0,0.0,-0.2006532158507095,-0.07545343456656259,0.0,0.0,0.0,0.0,0.20065321585070972,0.07545343456656273,0.21437101907469225,0.0,-11.496582413973167,-4.323163350430554,0.0,0.0,0.0,0.0,11.49658241397318,4.323163350430562,12.282554642898331
16,0.08025026321411133,1775721619.5063474,0.09209439,-18.938397762410485,-0.9505031132542594,0.8069567052782227,-19.31,-0.92,0.7330101419334376,-0.3716022375895136,0.030503113254259362,-0.07394656334478511,0.38011413697761864,6.780897806945862,-0.5031683818063458,1.3894599031406465,6.940054200878292,0.0,0.0,0.0032795199022161684,0.0032795199022161684,0.0,0.0,0.0,0.0,-0.2015710280416485,-0.07406805400991108,0.0,0.0,0.0,0.0,0.2015710280416485,0.07406805400991123,0.21474858781976233,0.0,-11.549169178899627,-4.243786891514938,0.0,0.0,0.0,0.0,11.549169178899627,4.243786891514947,12.304187738466899
17,0.08525896072387695,1775721619.511356,0.097102983,-18.90373400227331,-0.9530643161973502,0.8140665998418812,-19.31,-0.92,0.7330263153484736,-0.40626599772668825,0.033064316197350174,-0.08104028449340761,0.4155873405497721,6.941056622655049,-0.5047594878987037,1.429237096322319,7.104630029567418,0.0,0.0,0.0031900969975014,0.0031900969975014,0.0,0.0,0.0,0.0,-0.20255200225515943,-0.07259305768482749,0.0,0.0,0.0,0.0,0.20255200225515946,0.07259305768482749,0.21516752924548538,0.0,-11.605374861144968,-4.159275827290342,0.0,0.0,0.0,0.0,11.60537486114497,4.159275827290342,12.328191314024023
18,0.09025859832763672,1775721619.5163558,0.102102733,-18.86838589947253,-0.9556222117769433,0.8213533662187412,-19.31,-0.92,0.7330420455508648,-0.4416141005274703,0.03562221177694325,-0.08831132066787639,0.451764147664102,7.079143088688687,-0.5036558365988429,1.4652357977459032,7.246713187015542,0.0,0.0,0.0031022612759753192,0.0031022612759753192,0.0,0.0,0.0,0.0,-0.20359681301703325,-0.07102676094169184,0.0,0.0,0.0,0.0,0.20359681301703336,0.07102676094169169,0.2156303852441976,0.0,-11.665238108190186,-4.069533634443583,0.0,0.0,0.0,0.0,11.665238108190193,4.069533634443575,12.354711009272545
19,0.09524846076965332,1775721619.5213456,0.107092546,-18.83247389913707,-0.9581628273252657,0.8287958762639471,-19.31,-0.92,0.7330573405354992,-0.4775261008629279,0.03816282732526566,-0.09573853572844793,0.4885216941121822,7.1952496414220395,-0.4998728220857894,1.4974690039141756,7.36640371268964,0.0,0.0,0.003015971271635482,0.003015971271635482,0.0,0.0,0.0,0.0,-0.2047103757863223,-0.06936117091290833,0.0,0.0,0.0,0.0,0.20471037578632245,0.0693611709129085,0.21614187466797605,0.0,-11.72904055509335,-3.974102355395215,0.0,0.0,0.0,0.0,11.729040555093357,3.974102355395224,12.384017194520629
20,0.10026264190673828,1775721619.5263598,0.112106619,-18.795858387143397,-0.9606900264635004,0.8364272794289604,-19.31,-0.92,0.7330722077887102,-0.5141416128566014,0.040690026463500395,-0.10335507164025026,0.5260033718125284,7.290078424264566,-0.4933729572182909,1.5261416952850406,7.4644335874150265,0.0,0.0,0.0029311950730836265,0.0029311950730836265,0.0,0.0,0.0,0.0,-0.20590704057094034,-0.06757427557110574,0.0,0.0,0.0,0.0,0.20590704057094023,0.06757427557110596,0.2167117718898597,0.0,-11.797604396743894,-3.8717207938783393,0.0,0.0,0.0,0.0,11.797604396743887,3.8717207938783518,12.416669900090794
21,0.10525631904602051,1775721619.5313535,0.117100337,-18.758973342228153,-0.9631678515850601,0.8441613351596767,-19.31,-0.92,0.7330866549467155,-0.5510266577718461,0.04316785158506009,-0.11107468021296119,0.5637653994083821,7.362760152483184,-0.4842109268640871,1.5509944033858,7.539912527610838,0.0,0.0,0.0028478962729812686,0.0028478962729812686,0.0,0.0,0.0,0.0,-0.20718361171096705,-0.06567029880241972,0.0,0.0,0.0,0.0,0.2071836117109669,0.06567029880241959,0.21734221197549217,0.0,-11.870746535315629,-3.7626309607416744,0.0,0.0,0.0,0.0,11.87074653531562,3.762630960741667,12.452791456233399
22,0.11025142669677734,1775721619.5363486,0.122095525,-18.721768588081282,-0.965593929747646,0.8520125953777591,-19.31,-0.92,0.7331006891708909,-0.5882314119187164,0.04559392974764598,-0.1189119062068682,0.6018596529386822,7.413735857539459,-0.47236193075863564,1.5721567436223407,7.593305076546942,0.0,0.0,0.0027660478846305804,0.0027660478846305804,0.0,0.0,0.0,0.0,-0.2085536606890813,-0.06362841937572455,0.0,0.0,0.0,0.0,0.20855366068908143,0.06362841937572439,0.2180440440348453,0.0,-11.949244559487786,-3.6456398873174494,0.0,0.0,0.0,0.0,11.949244559487795,3.6456398873174396,12.49300347116131
23,0.11524319648742676,1775721619.5413404,0.12708731,-18.684389000981298,-0.9679525323295992,0.8599548857054439,-19.31,-0.92,0.7331143177879023,-0.6256109990187007,0.04795253232959917,-0.1268405679175416,0.6401383421727231,7.442968420274277,-0.45783908588759586,1.5896102172796942,7.624582360801577,0.0,0.0,0.0026856179632755123,0.0026856179632755123,0.0,0.0,0.0,0.0,-0.21002555190068234,-0.06143555950472692,0.0,0.0,0.0,0.0,0.2100255519006824,0.0614355595047269,0.2188265532855761,0.0,-12.033577713814923,-3.5199982716456826,0.0,0.0,0.0,0.0,12.033577713814926,3.5199982716456817,12.537837948658128
24,0.12024927139282227,1775721619.5463464,0.132093293,-18.646811048153687,-0.9702383060922619,0.8679979873986099,-19.31,-0.92,0.7331275476770482,-0.6631889518463119,0.050238306092261875,-0.13487043972156165,0.6786261922153587,7.450490437364189,-0.4405824778468099,1.6034043710253245,7.633795009958282,0.0,0.0,0.0026065827214773463,0.0026065827214773463,0.0,0.0,0.0,0.0,-0.21161614919067068,-0.05906590941665887,0.0,0.0,0.0,0.0,0.21161614919067073,0.05906590941665879,0.2197047479084263,0.0,-12.124712225436202,-3.3842273226765793,0.0,0.0,0.0,0.0,12.124712225436205,3.384227322676575,12.588154794138529
25,0.12524700164794922,1775721619.5513442,0.137091129,-18.609311122930485,-0.9724274593548112,0.8760876202038785,-19.31,-0.92,0.7331403858896329,-0.7006888770695134,0.05242745935481119,-0.1429472343142456,0.7170407608647,7.43622882104873,-0.4206642528132632,1.6134709081011946,7.620875662539024,0.0,0.0,0.002528913212305354,0.002528913212305354,0.0,0.0,0.0,0.0,-0.2133317171639014,-0.056509340653288886,0.0,0.0,0.0,0.0,0.2133317171639013,0.05650934065328883,0.2206892093627784,0.0,-12.223007029770134,-3.2377467225004994,0.0,0.0,0.0,0.0,12.223007029770129,3.2377467225004963,12.644560280566214
26,0.13026928901672363,1775721619.5563664,0.142113333,-18.571755095120324,-0.9745202219822646,0.8842580257347825,-19.31,-0.92,0.7331528390530614,-0.7382449048796751,0.05452022198226458,-0.15110518668172113,0.7555201993513566,7.399984652535175,-0.3979417142149361,1.6198572568837752,7.585648818548582,0.0,0.0,0.002452588819611532,0.002452588819611532,0.0,0.0,0.0,0.0,-0.21519951716484723,-0.0537242710393759,0.0,0.0,0.0,0.0,0.2151995171648471,0.053724271039375715,0.22180425939709908,0.0,-12.330024086798861,-3.078173987973156,0.0,0.0,0.0,0.0,12.330024086798854,3.078173987973145,12.708447941478706
27,0.13524723052978516,1775721619.5613444,0.147091362,-18.534763153662634,-0.976475275310014,0.8923790069535361,-19.31,-0.92,0.7331649139746866,-0.7752368463373642,0.05647527531001395,-0.15921409297884948,0.7934297398279961,7.342381949683311,-0.3727409603095118,1.622498271300766,7.528745523585037,0.0,0.0,0.002377583529507406,0.002377583529507406,0.0,0.0,0.0,0.0,-0.21721112387564614,-0.05072212989163383,0.0,0.0,0.0,0.0,0.217211123875646,0.05072212989163383,0.22305471704508967,0.0,-12.445280661367834,-2.906163970704974,0.0,0.0,0.0,0.0,12.445280661367825,2.906163970704974,12.780093887168423
28,0.14024806022644043,1775721619.5663452,0.152092025,-18.497945972277027,-0.9783062089419126,0.9005409171755867,-19.31,-0.92,0.7331766170576575,-0.8120540277229722,0.05830620894191252,-0.16736430011792924,0.8311691566078736,7.2627883485155955,-0.3447411610679076,1.621453342364638,7.449567236083838,0.0,0.0,0.002303878628931464,0.002303878628931464,0.0,0.0,0.0,0.0,-0.21941366981195315,-0.04743117690586848,0.0,0.0,0.0,0.0,0.21941366981195332,0.04743117690586862,0.22448179223051629,0.0,-12.571477247701914,-2.7176062540446426,0.0,0.0,0.0,0.0,12.571477247701925,2.7176062540446506,12.861859272341217
29,0.14525437355041504,1775721619.5713515,0.15709855,-18.46153894439681,-0.9799922806450145,0.9086978699903142,-19.31,-0.92,0.7331879548864454,-0.8484610556031882,0.059992280645014495,-0.17550991510386882,0.8684981099070014,7.161284857067955,-0.3140132543336978,1.6166943295862832,7.348217857636263,0.0,0.0,0.002231449965840714,0.002231449965840714,0.0,0.0,0.0,0.0,-0.2218265238989831,-0.04382066070255367,0.0,0.0,0.0,0.0,0.22182652389898294,0.04382066070255375,0.2261133720272076,0.0,-12.709723603469623,-2.5107389137311062,0.0,0.0,0.0,0.0,12.709723603469612,2.5107389137311107,12.955341908630443
30,0.15025734901428223,1775721619.5763545,0.162101368,-18.4257210460202,-0.9815166945778493,0.9168156986682312,-19.31,-0.92,0.7331989336581286,-0.8842789539797984,0.06151669457784925,-0.1836167650101026,0.9052340518098985,7.038051394233417,-0.28061423039088557,1.6082279317831802,7.224908916708668,0.0,0.0,0.002160280623354182,0.002160280623354182,0.0,0.0,0.0,0.0,-0.22447535179240857,-0.039849904340754715,0.0,0.0,0.0,0.0,0.22447535179240852,0.03984990434075453,0.227985083806579,0.0,-12.86149026241943,-2.2832313327253044,0.0,0.0,0.0,0.0,12.861490262419427,2.2832313327252938,13.062583094053346
31,0.1553032398223877,1775721619.5814004,0.167147393,-18.390273879325555,-0.9828781513089944,0.9249512773612245,-19.31,-0.92,0.7332095597526648,-0.9197261206744436,0.06287815130899432,-0.19174171760855974,0.9416021905424704,6.8916733798753995,-0.2441988971534249,1.59593068463424,7.078261780014304,0.0,0.0,0.0020903481989093756,0.0020903481989093756,0.0,0.0,0.0,0.0,-0.22742470669143613,-0.035419085956340024,0.0,0.0,0.0,0.0,0.2274247066914361,0.03541908595633991,0.2301662635219774,0.0,-13.030475850419943,-2.0293641395093687,0.0,0.0,0.0,0.0,13.030475850419942,2.029364139509362,13.18755548610522
32,0.16025757789611816,1775721619.5863547,0.172101667,-18.356243617806065,-0.9840294384465469,0.9328694070343959,-19.31,-0.92,0.733219839177524,-0.9537563821939337,0.06402943844654685,-0.19964956785687193,0.976530058681696,6.7263828969967,-0.20578037838341623,1.5801854560998982,6.912565263113759,0.0,0.0,0.002021637077715269,0.002021637077715269,0.0,0.0,0.0,0.0,-0.23063535307258942,-0.030583482784144363,0.0,0.0,0.0,0.0,0.2306353530725893,0.030583482784144245,0.2326542832318502,0.0,-13.214432337568978,-1.7523044863424846,0.0,0.0,0.0,0.0,13.21443233756897,1.7523044863424777,13.330108514826295
33,0.16526556015014648,1775721619.5913627,0.177109587,-18.322731315182587,-0.9849930570382622,0.940784773683009,-19.31,-0.92,0.7332297781223179,-0.9872686848174119,0.06499305703826219,-0.207554995560691,1.0109414570915962,6.537578063732056,-0.1642619411442615,1.5605725394899193,6.723265246568,0.0,0.0,0.001954126181429096,0.001954126181429096,0.0,0.0,0.0,0.0,-0.234251786155542,-0.02512052416011509,0.0,0.0,0.0,0.0,0.23425178615554199,0.02512052416011512,0.23559486422912682,0.0,-13.421638690113646,-1.4393000135310117,0.0,0.0,0.0,0.0,13.421638690113644,1.4393000135310134,13.498591395286615
34,0.17026901245117188,1775721619.5963662,0.18211305,-18.290247680733195,-0.9857414309140011,0.9485857173542307,-19.31,-0.92,0.7332393824178076,-1.0197523192668037,0.06574143091400109,-0.21534633493642308,1.0443135412122144,6.327128880989367,-0.12008568930183544,1.5372649345724139,6.512308648128617,0.0,0.0,0.0018878012490855308,0.0018878012490855308,0.0,0.0,0.0,0.0,-0.23830440974381426,-0.01897721313140881,0.0,0.0,0.0,0.0,0.23830440974381428,0.018977213131408988,0.23905883443533862,0.0,-13.653836917676808,-1.0873142193499699,0.0,0.0,0.0,0.0,13.65383691767681,1.0873142193499798,13.697062268461613
35,0.17528891563415527,1775721619.601386,0.187132904,-18.25877071915526,-0.9862633483272795,0.9562856752737369,-19.31,-0.92,0.7332486580770762,-1.051229280844737,0.06626334832727943,-0.2230370171966607,1.0766704896470736,6.09408035493946,-0.07305790282833295,1.510152231677179,6.278830511525557,0.0,0.0,0.001822642550739909,0.001822642550739909,0.0,0.0,0.0,0.0,-0.24289627797045252,-0.011987764996160569,0.0,0.0,0.0,0.0,0.24289627797045243,0.01198776499616061,0.24319191672730917,0.0,-13.916931587143402,-0.6868483400746621,0.0,0.0,0.0,0.0,13.916931587143397,0.6868483400746644,13.933870440171782
36,0.18025612831115723,1775721619.6063533,0.192100284,-18.22882822916432,-0.9865407740609962,0.9637620047076885,-19.31,-0.92,0.7332576107660161,-1.0811717708356774,0.06654077406099612,-0.23050439394167233,1.1074711500942176,5.841865106957747,-0.02385283283357632,1.479646462374557,6.026384532963539,0.0,0.0,0.0017586363848816216,0.0017586363848816216,0.0,0.0,0.0,0.0,-0.24806438260745023,-0.004083062488323009,0.0,0.0,0.0,0.0,0.24806438260745,0.004083062488323019,0.24809798330034627,0.0,-14.213042170925362,-0.2339422480690924,0.0,0.0,0.0,0.0,14.213042170925348,0.23394224806909297,14.21496734881702
37,0.18525433540344238,1775721619.6113515,0.197098295,-18.200019651124336,-0.9865665424787798,0.971122292994264,-19.31,-0.92,0.7332662463286556,-1.1099803488756628,0.0665665424787798,-0.23785604666560844,1.1371292707529383,5.566406071443988,0.02833511985490257,1.4452615175917762,5.751039930782725,0.0,0.0,0.0016957637066106392,0.0016957637066106392,0.0,0.0,0.0,0.0,-0.254027646616678,0.005090335623289955,0.0,0.0,0.0,0.0,0.2540276466166782,-0.005090335623290088,0.25407864286941884,0.0,-14.554712030776374,0.29165474751960974,0.0,0.0,0.0,0.0,14.554712030776388,-0.29165474751961734,14.557633900829408
38,0.19025349617004395,1775721619.6163507,0.202097492,-18.172635868622866,-0.9863246681714236,0.9783031532294761,-19.31,-0.92,0.7332745702732076,-1.137364131377133,0.06632466817142357,-0.2450285829562685,1.1653476457336096,5.269118742117487,0.0832241122432437,1.4071646863503546,5.454415736438133,0.0,0.0,0.0016340120358883396,0.0016340120358883396,0.0,0.0,0.0,0.0,-0.2609373948917287,0.015793379623350264,0.0,0.0,0.0,0.0,0.26093739489172885,-0.01579337962335048,0.26141490946923684,0.0,-14.95061144443458,0.9048939966658839,0.0,0.0,0.0,0.0,14.950611444434589,-0.9048939966658962,14.97797101438177
39,0.19524431228637695,1775721619.6213415,0.207088506,-18.14683367278818,-0.9858027647136653,0.9852730470520128,-19.31,-0.92,0.7332825882862651,-1.163166327211819,0.06580276471366531,-0.25199045876574766,1.1919669038661964,4.950605932230004,0.1407056350100939,1.3654351377657894,5.137383603294578,0.0,0.0,0.001573363541951646,0.001573363541951646,0.0,0.0,0.0,0.0,-0.26901723807145633,0.02841425226335044,0.0,0.0,0.0,0.0,0.26901723807145617,-0.02841425226335037,0.27051366714323294,0.0,-15.413552357760537,1.6280167327100272,0.0,0.0,0.0,0.0,15.413552357760528,-1.6280167327100232,15.499291427914017
40,0.20024967193603516,1775721619.6263468,0.212093686,-18.1226091908314,-0.9849845366537859,0.9920442929117823,-19.31,-0.92,0.7332903057282592,-1.1873908091685976,0.0649845366537859,-0.25875398718352316,1.2169936522371574,4.609402322505754,0.20104190816143408,1.3198793645786944,4.798863319224594,0.0,0.0,0.0015138057912046478,0.0015138057912046478,0.0,0.0,0.0,0.0,-0.2786313061225536,0.043587987614330734,0.0,0.0,0.0,0.0,0.2786313061225538,-0.0435879876143308,0.2820200656262376,0.0,-15.964397881039975,2.497407727769657,0.0,0.0,0.0,0.0,15.96439788103999,-2.497407727769661,16.158559498385916
41,0.2052469253540039,1775721619.631344,0.217090973,-18.100181072244908,-0.983859596484409,0.9985681244772607,-19.31,-0.92,0.7332977281314306,-1.2098189277550908,0.06385959648440898,-0.26527039634583016,1.2402049303220428,4.246970721262768,0.2639720754238629,1.2706911716663694,4.440844246043496,0.0,0.0,0.0014553211963947005,0.0014553211963947005,0.0,0.0,0.0,0.0,-0.29019314273106106,0.06207552273250734,0.0,0.0,0.0,0.0,0.2901931427310611,-0.06207552273250716,0.2967582022634657,0.0,-16.626842322127303,3.55666546364107,0.0,0.0,0.0,0.0,16.626842322127306,-3.55666546364106,17.00299252558622
42,0.21025490760803223,1775721619.636352,0.222098877,-18.079576847879913,-0.9824100387033219,1.0048499338938184,-19.31,-0.92,0.7333048607111858,-1.2304231521200855,0.062410038703321846,-0.27154507318263255,1.2615755518294727,3.8619508735084924,0.32973143040933034,1.2176853353694956,4.062775521926693,0.0,0.0,0.0013978981653811654,0.0013978981653811654,0.0,0.0,0.0,0.0,-0.30439663385469445,0.085172939141093,0.0,0.0,0.0,0.0,0.3043966338546946,-0.08517293914109292,0.31608818431570856,0.0,-17.440642417863025,4.8800499415092435,0.0,0.0,0.0,0.0,17.44064241786303,-4.880049941509239,18.110518915243365
43,0.21525073051452637,1775721619.641348,0.22709489,-18.060997236512467,-0.9806290564361057,1.0108430644537163,-19.31,-0.92,0.7333117088532191,-1.2490027634875318,0.06062905643610561,-0.27753135560049724,1.2809010262410103,3.4560815711816257,0.3980233898800536,1.1611015064606385,3.6675712881766906,0.0,0.0,0.0013415199979827609,0.0013415199979827609,0.0,0.0,0.0,0.0,-0.32212812746348546,0.11466094255212901,0.0,0.0,0.0,0.0,0.3221281274634853,-0.114660942552129,0.3419263988785804,0.0,-18.456582166109943,6.569588083228982,0.0,0.0,0.0,0.0,18.456582166109932,-6.5695880832289815,19.59093955984938
44,0.22024822235107422,1775721619.6463454,0.23209223,-18.044495558853853,-0.9784995652701833,1.016545734106491,-19.31,-0.92,0.7333182776359366,-1.2655044411461454,0.058499565270183296,-0.28322745647055436,1.298129994182477,3.230752604127372,0.43604957746627,1.1297646634591911,3.450256485811652,0.0,0.0,0.0012861757025856946,0.0012861757025856946,0.0,0.0,0.0,0.0,-0.33359682637524435,0.1341577140016625,0.0,0.0,0.0,0.0,0.33359682637524424,-0.13415771400166232,0.35956242127589844,0.0,-19.113690210260007,7.686670801418411,0.0,0.0,0.0,0.0,19.11369021026,-7.686670801418401,20.601409210613898
45,0.22524762153625488,1775721619.6513448,0.237091633,-18.030180265871714,-0.976007460656908,1.021939975908133,-19.31,-0.92,0.7333245723053928,-1.279819734128285,0.05600746065690798,-0.2886154036027401,1.3131543087962672,3.02543082554207,0.47049662754599636,1.101070732572507,3.2537602116320867,0.0,0.0,0.0012318492587182594,0.0012318492587182594,0.0,0.0,0.0,0.0,-0.3452154992476948,0.15427813030033594,0.0,0.0,0.0,0.0,0.3452154992476948,-0.154278130300336,0.3781209891156568,0.0,-19.779391129394558,8.839485737378633,0.0,0.0,0.0,0.0,19.779391129394558,-8.839485737378636,21.664736821639274
46,0.2302534580230713,1775721619.6563506,0.242097489,-18.01815346011286,-0.9731361551760626,1.0270111706399208,-19.31,-0.92,0.7333305978075283,-1.291846539887139,0.053136155176062516,-0.29368057283239246,1.325873000126494,2.8125742046844495,0.5058862753785883,1.0711025491442614,3.051844565382732,0.0,0.0,0.0011785292611410313,0.0011785292611410313,0.0,0.0,0.0,0.0,-0.35860563155856345,0.17796307286352236,0.0,0.0,0.0,0.0,0.3586056315585635,-0.17796307286352242,0.40033592680215896,0.0,-20.546589197929087,10.196532984258981,0.0,0.0,0.0,0.0,20.54658919792909,-10.196532984258985,22.937558993221963
47,0.235245943069458,1775721619.661343,0.247090069,-18.008566496295952,-0.9698843081581088,1.0317215123137307,-19.31,-0.92,0.7333363592472233,-1.3014335037040468,0.04988430815810874,-0.29838515306650737,1.3361329680590655,2.5930365019206727,0.5420772088347019,1.0399807511026076,2.845917420322481,0.0,0.0,0.0011261995369394662,0.0011261995369394662,0.0,0.0,0.0,0.0,-0.37409363362072345,0.20608322798854103,0.0,0.0,0.0,0.0,0.37409363362072323,-0.20608322798854095,0.42710226360174314,0.0,-21.43398634918077,11.807699192175724,0.0,0.0,0.0,0.0,21.43398634918076,-11.807699192175718,24.47115712486384
48,0.24025583267211914,1775721619.666353,0.252099965,-18.007554735803186,-0.9694551835634656,1.0322782248052262,-19.31,-0.92,0.7333418614367339,-1.3024452641968125,0.049455183563465566,-0.2989363633684924,1.3372256469100419,2.3654637004913903,0.5792922749114466,1.0075131420460883,2.635541839832956,0.0,0.0,0.0010748491815552564,0.0010748491815552564,0.0,0.0,0.0,0.0,-0.39226171310038005,0.24016903051391655,0.0,0.0,0.0,0.0,0.39226171310038005,-0.24016903051391658,0.4599460998665381,0.0,-22.474940625223333,13.760671818196103,0.0,0.0,0.0,0.0,22.474940625223333,-13.760671818196105,26.35297032585531
49,0.2452526092529297,1775721619.6713498,0.257096696,-18.007554735803186,-0.9694551835634656,1.0322782248052262,-19.31,-0.92,0.7333471093441516,-1.3024452641968125,0.049455183563465566,-0.29893111546107465,1.3372244737518093,2.1312313520423856,0.6173061677511054,0.97389572203352,2.423156383328811,0.0,0.0,0.0010244626158660375,0.0010244626158660375,0.0,0.0,0.0,0.0,-0.4136040034091036,0.2819323817178785,0.0,0.0,0.0,0.0,0.4136040034091035,-0.2819323817178785,0.5005538327664201,0.0,-23.69776378505615,16.15353558050573,0.0,0.0,0.0,0.0,23.697763785056146,-16.15353558050573,28.679622036613086
50,0.25023913383483887,1775721619.6763363,0.26208311,-18.007554735803186,-0.9694551835634656,1.0322782248052262,-19.31,-0.92,0.7333521076538341,-1.3024452641968125,0.049455183563465566,-0.29892611715139217,1.337223356408797,1.8902570530165632,0.6561342408840183,0.9391180269366293,2.210322722377132,0.0,0.0,0.0009750297012373842,0.0009750297012373842,0.0,0.0,0.0,0.0,-0.4388273765690867,0.33410125212574143,0.0,0.0,0.0,0.0,0.4388273765690869,-0.3341012521257416,0.5515370459892024,0.0,-25.14295661220674,19.142591676841207,0.0,0.0,0.0,0.0,25.14295661220675,-19.142591676841217,31.600744980294085
51,0.25525403022766113,1775721619.6813512,0.267098073,-18.007554735803186,-0.9694551835634656,1.0322782248052262,-19.31,-0.92,0.7333568612047809,-1.3024452641968125,0.049455183563465566,-0.2989213636004453,1.3372222937966411,1.6406228677984673,0.6960840385187911,0.9029022314692419,1.9978510511587277,0.0,0.0,0.0009265356602778379,0.0009265356602778379,0.0,0.0,0.0,0.0,-0.4689352260806524,0.4012609364149252,0.0,0.0,0.0,0.0,0.4689352260806525,-0.40126093641492533,0.6171795406135037,0.0,-26.86800931943447,22.990558140042502,0.0,0.0,0.0,0.0,26.868009319434478,-22.990558140042506,35.36178287897674
52,0.2602579593658447,1775721619.686355,0.272102101,-18.007554735803186,-0.9694551835634656,1.0322782248052262,-19.31,-0.92,0.7333613745607303,-1.3024452641968125,0.049455183563465566,-0.298916850244496,1.337221284892703,0.0,0.0,0.0,0.0,0.0,0.0,0.000878970901790119,0.000878970901790119,0.0,0.0,0.0,0.0,-0.4689352260806524,0.4012609364149252,0.0,0.0,0.0,0.0,0.4689352260806525,-0.40126093641492533,0.6171795406135037,0.0,-26.86800931943447,22.990558140042502,0.0,0.0,0.0,0.0,26.868009319434478,-22.990558140042506,35.36178287897674
53,0.26525115966796875,1775721619.6913483,0.277095279,-18.007554735803186,-0.9694551835634656,1.0322782248052262,-19.31,-0.92,0.7333656524378541,-1.3024452641968125,0.049455183563465566,-0.2989125723673721,1.3372203286404527,0.0,0.0,0.0,0.0,0.0,0.0,0.0008323212620659328,0.0008323212620659328,0.0,0.0,0.0,0.0,-0.4689352260806524,0.4012609364149252,0.0,0.0,0.0,0.0,0.4689352260806525,-0.40126093641492533,0.6171795406135037,0.0,-26.86800931943447,22.990558140042502,0.0,0.0,0.0,0.0,26.868009319434478,-22.990558140042506,35.36178287897674
54,0.27025341987609863,1775721619.6963506,0.282097521,-18.007554735803186,-0.9694551835634656,1.0322782248052262,-19.31,-0.92,0.7333696992825464,-1.3024452641968125,0.049455183563465566,-0.2989085255226799,1.3372194240438415,0.0,0.0,0.0,0.0,0.0,0.0,0.0007865762818890916,0.0007865762818890916,0.0,0.0,0.0,0.0,-0.4689352260806524,0.4012609364149252,0.0,0.0,0.0,0.0,0.4689352260806525,-0.40126093641492533,0.6171795406135037,0.0,-26.86800931943447,22.990558140042502,0.0,0.0,0.0,0.0,26.868009319434478,-22.990558140042506,35.36178287897674
55,0.27524280548095703,1775721619.70134,0.287086876,-18.007554735803186,-0.9694551835634656,1.0322782248052262,-19.31,-0.92,0.7333735196828156,-1.3024452641968125,0.049455183563465566,-0.29890470512241063,1.337218570075332,0.0,0.0,0.0,0.0,0.0,0.0,0.0007417212540472085,0.0007417212540472085,0.0,0.0,0.0,0.0,-0.4689352260806524,0.4012609364149252,0.0,0.0,0.0,0.0,0.4689352260806525,-0.40126093641492533,0.6171795406135037,0.0,-26.86800931943447,22.990558140042502,0.0,0.0,0.0,0.0,26.868009319434478,-22.990558140042506,35.36178287897674
56,0.2802431583404541,1775721619.7063403,0.292087319,-18.007554735803186,-0.9694551835634656,1.0322782248052262,-19.31,-0.92,0.7333771179632739,-1.3024452641968125,0.049455183563465566,-0.29890110684195237,1.3372177657664233,0.0,0.0,0.0,0.0,0.0,0.0,0.0006977463013238536,0.0006977463013238536,0.0,0.0,0.0,0.0,-0.4689352260806524,0.4012609364149252,0.0,0.0,0.0,0.0,0.4689352260806525,-0.40126093641492533,0.6171795406135037,0.0,-26.86800931943447,22.990558140042502,0.0,0.0,0.0,0.0,26.868009319434478,-22.990558140042506,35.36178287897674
57,0.28523969650268555,1775721619.7113369,0.297083653,-18.007554735803186,-0.9694551835634656,1.0322782248052262,-19.31,-0.92,0.7333804985880995,-1.3024452641968125,0.049455183563465566,-0.29889772621712674,1.3372170101175684,0.0,0.0,0.0,0.0,0.0,0.0,0.0006546373599565599,0.0006546373599565599,0.0,0.0,0.0,0.0,-0.4689352260806524,0.4012609364149252,0.0,0.0,0.0,0.0,0.4689352260806525,-0.40126093641492533,0.6171795406135037,0.0,-26.86800931943447,22.990558140042502,0.0,0.0,0.0,0.0,26.868009319434478,-22.990558140042506,35.36178287897674
58,0.2902402877807617,1775721619.7163374,0.302084462,-18.007554735803186,-0.9694551835634656,1.0322782248052262,-19.31,-0.92,0.7333836657658105,-1.3024452641968125,0.049455183563465566,-0.29889455903941575,1.3372163021865116,0.0,0.0,0.0,0.0,0.0,0.0,0.0006123849639135354,0.0006123849639135354,0.0,0.0,0.0,0.0,-0.4689352260806524,0.4012609364149252,0.0,0.0,0.0,0.0,0.4689352260806525,-0.40126093641492533,0.6171795406135037,0.0,-26.86800931943447,22.990558140042502,0.0,0.0,0.0,0.0,26.868009319434478,-22.990558140042506,35.36178287897674
59,0.29524707794189453,1775721619.7213442,0.307091053,-18.007554735803186,-0.9694551835634656,1.0322782248052262,-19.31,-0.92,0.7333866238416494,-1.3024452641968125,0.049455183563465566,-0.2988916009635768,1.337215641000572,0.0,0.0,0.0,0.0,0.0,0.0,0.0005709755458661282,0.0005709755458661282,0.0,0.0,0.0,0.0,-0.4689352260806524,0.4012609364149252,0.0,0.0,0.0,0.0,0.4689352260806525,-0.40126093641492533,0.6171795406135037,0.0,-26.86800931943447,22.990558140042502,0.0,0.0,0.0,0.0,26.868009319434478,-22.990558140042506,35.36178287897674
60,0.30025219917297363,1775721619.7263494,0.312096247,-18.007554735803186,-0.9694551835634656,1.0322782248052262,-19.31,-0.92,0.7333893769122556,-1.3024452641968125,0.049455183563465566,-0.29888884789297065,1.3372150256427677,0.0,0.0,0.0,0.0,0.0,0.0,0.0005303999244228063,0.0005303999244228063,0.0,0.0,0.0,0.0,-0.4689352260806524,0.4012609364149252,0.0,0.0,0.0,0.0,0.4689352260806525,-0.40126093641492533,0.6171795406135037,0.0,-26.86800931943447,22.990558140042502,0.0,0.0,0.0,0.0,26.868009319434478,-22.990558140042506,35.36178287897674
61,0.30525660514831543,1775721619.7313538,0.317100631,-18.007554735803186,-0.9694551835634656,1.0322782248052262,-19.31,-0.92,0.7333919292075631,-1.3024452641968125,0.049455183563465566,-0.2988862955976631,1.3372144551664458,0.0,0.0,0.0,0.0,0.0,0.0,0.0004906449197771504,0.0004906449197771504,0.0,0.0,0.0,0.0,-0.4689352260806524,0.4012609364149252,0.0,0.0,0.0,0.0,0.4689352260806525,-0.40126093641492533,0.6171795406135037,0.0,-26.86800931943447,22.990558140042502,0.0,0.0,0.0,0.0,26.868009319434478,-22.990558140042506,35.36178287897674
62,0.31025123596191406,1775721619.7363484,0.322095403,-18.007554735803186,-0.9694551835634656,1.0322782248052262,-19.31,-0.92,0.7333942847147479,-1.3024452641968125,0.049455183563465566,-0.29888394009047836,1.3372139286793305,0.0,0.0,0.0,0.0,0.0,0.0,0.00045170112353747104,0.00045170112353747104,0.0,0.0,0.0,0.0,-0.4689352260806524,0.4012609364149252,0.0,0.0,0.0,0.0,0.4689352260806525,-0.40126093641492533,0.6171795406135037,0.0,-26.86800931943447,22.990558140042502,0.0,0.0,0.0,0.0,26.868009319434478,-22.990558140042506,35.36178287897674
63,0.31525158882141113,1775721619.7413487,0.327095588,-18.007554735803186,-0.9694551835634656,1.0322782248052262,-19.31,-0.92,0.7333964475477954,-1.3024452641968125,0.049455183563465566,-0.2988817772574308,1.3372134452609132,0.0,0.0,0.0,0.0,0.0,0.0,0.00041355532342221004,0.00041355532342221004,0.0,0.0,0.0,0.0,-0.4689352260806524,0.4012609364149252,0.0,0.0,0.0,0.0,0.4689352260806525,-0.40126093641492533,0.6171795406135037,0.0,-26.86800931943447,22.990558140042502,0.0,0.0,0.0,0.0,26.868009319434478,-22.990558140042506,35.36178287897674
64,0.32024693489074707,1775721619.746344,0.332091071,-18.007554735803186,-0.9694551835634656,1.0322782248052262,-19.31,-0.92,0.7333984215846233,-1.3024452641968125,0.049455183563465566,-0.2988798032206029,1.3372130040435544,0.0,0.0,0.0,0.0,0.0,0.0,0.0003761987558392653,0.0003761987558392653,0.0,0.0,0.0,0.0,-0.4689352260806524,0.4012609364149252,0.0,0.0,0.0,0.0,0.4689352260806525,-0.40126093641492533,0.6171795406135037,0.0,-26.86800931943447,22.990558140042502,0.0,0.0,0.0,0.0,26.868009319434478,-22.990558140042506,35.36178287897674
65,0.32525134086608887,1775721619.7513485,0.337095351,-18.007554735803186,-0.9694551835634656,1.0322782248052262,-19.31,-0.92,0.73340021082888,-1.3024452641968125,0.049455183563465566,-0.2988780139763463,1.3372126041316115,0.0,0.0,0.0,0.0,0.0,0.0,0.0003396188856660366,0.0003396188856660366,0.0,0.0,0.0,0.0,-0.4689352260806524,0.4012609364149252,0.0,0.0,0.0,0.0,0.4689352260806525,-0.40126093641492533,0.6171795406135037,0.0,-26.86800931943447,22.990558140042502,0.0,0.0,0.0,0.0,26.868009319434478,-22.990558140042506,35.36178287897674
66,0.3302419185638428,1775721619.756339,0.342086026,-18.007554735803186,-0.9694551835634656,1.0322782248052262,-19.31,-0.92,0.7334018190539522,-1.3024452641968125,0.049455183563465566,-0.29887640575127405,1.3372122446810009,0.0,0.0,0.0,0.0,0.0,0.0,0.0003038065740675283,0.0003038065740675283,0.0,0.0,0.0,0.0,-0.4689352260806524,0.4012609364149252,0.0,0.0,0.0,0.0,0.4689352260806525,-0.40126093641492533,0.6171795406135037,0.0,-26.86800931943447,22.990558140042502,0.0,0.0,0.0,0.0,26.868009319434478,-22.990558140042506,35.36178287897674
67,0.33524060249328613,1775721619.7613378,0.347084781,-18.007554735803186,-0.9694551835634656,1.0322782248052262,-19.31,-0.92,0.7334032501517833,-1.3024452641968125,0.049455183563465566,-0.2988749746534429,1.3372119248212293,0.0,0.0,0.0,0.0,0.0,0.0,0.0002687491258661019,0.0002687491258661019,0.0,0.0,0.0,0.0,-0.4689352260806524,0.4012609364149252,0.0,0.0,0.0,0.0,0.4689352260806525,-0.40126093641492533,0.6171795406135037,0.0,-26.86800931943447,22.990558140042502,0.0,0.0,0.0,0.0,26.868009319434478,-22.990558140042506,35.36178287897674
68,0.34025001525878906,1775721619.7663472,0.35209415,-18.007554735803186,-0.9694551835634656,1.0322782248052262,-19.31,-0.92,0.733404507790156,-1.3024452641968125,0.049455183563465566,-0.29887371701507026,1.3372116437319879,0.0,0.0,0.0,0.0,0.0,0.0,0.00023443793723414854,0.00023443793723414854,0.0,0.0,0.0,0.0,-0.4689352260806524,0.4012609364149252,0.0,0.0,0.0,0.0,0.4689352260806525,-0.40126093641492533,0.6171795406135037,0.0,-26.86800931943447,22.990558140042502,0.0,0.0,0.0,0.0,26.868009319434478,-22.990558140042506,35.36178287897674
69,0.34525418281555176,1775721619.7713513,0.357098278,-18.007554735803186,-0.9694551835634656,1.0322782248052262,-19.31,-0.92,0.7334055957538176,-1.3024452641968125,0.049455183563465566,-0.29887262905140866,1.3372114005669042,0.0,0.0,0.0,0.0,0.0,0.0,0.00020086089566564506,0.00020086089566564506,0.0,0.0,0.0,0.0,-0.4689352260806524,0.4012609364149252,0.0,0.0,0.0,0.0,0.4689352260806525,-0.40126093641492533,0.6171795406135037,0.0,-26.86800931943447,22.990558140042502,0.0,0.0,0.0,0.0,26.868009319434478,-22.990558140042506,35.36178287897674
70,0.35025525093078613,1775721619.7763524,0.362099225,-18.007554735803186,-0.9694551835634656,1.0322782248052262,-19.31,-0.92,0.733406517608723,-1.3024452641968125,0.049455183563465566,-0.29887170719650324,1.3372111945285805,0.0,0.0,0.0,0.0,0.0,0.0,0.00016800894072984516,0.00016800894072984516,0.0,0.0,0.0,0.0,-0.4689352260806524,0.4012609364149252,0.0,0.0,0.0,0.0,0.4689352260806525,-0.40126093641492533,0.6171795406135037,0.0,-26.86800931943447,22.990558140042502,0.0,0.0,0.0,0.0,26.868009319434478,-22.990558140042506,35.36178287897674
71,0.3552544116973877,1775721619.7813516,0.367098411,-18.007554735803186,-0.9694551835634656,1.0322782248052262,-19.31,-0.92,0.7334072770302414,-1.3024452641968125,0.049455183563465566,-0.2988709477749848,1.3372110247952333,0.0,0.0,0.0,0.0,0.0,0.0,0.0001358697298522361,0.0001358697298522361,0.0,0.0,0.0,0.0,-0.4689352260806524,0.4012609364149252,0.0,0.0,0.0,0.0,0.4689352260806525,-0.40126093641492533,0.6171795406135037,0.0,-26.86800931943447,22.990558140042502,0.0,0.0,0.0,0.0,26.868009319434478,-22.990558140042506,35.36178287897674
72,0.36026787757873535,1775721619.786365,0.372111963,-18.007554735803186,-0.9694551835634656,1.0322782248052262,-19.31,-0.92,0.733407877481428,-1.3024452641968125,0.049455183563465566,-0.29887034732379825,1.3372108905925977,0.0,0.0,0.0,0.0,0.0,0.0,0.00010443509529057163,0.00010443509529057163,0.0,0.0,0.0,0.0,-0.4689352260806524,0.4012609364149252,0.0,0.0,0.0,0.0,0.4689352260806525,-0.40126093641492533,0.6171795406135037,0.0,-26.86800931943447,22.990558140042502,0.0,0.0,0.0,0.0,26.868009319434478,-22.990558140042506,35.36178287897674
73,0.3652472496032715,1775721619.7913444,0.377091416,-18.007554735803186,-0.9694551835634656,1.0322782248052262,-19.31,-0.92,0.7334083225355023,-1.3024452641968125,0.049455183563465566,-0.298869902269724,1.3372107911218467,0.0,0.0,0.0,0.0,0.0,0.0,7.36935646406728e-05,7.36935646406728e-05,0.0,0.0,0.0,0.0,-0.4689352260806524,0.4012609364149252,0.0,0.0,0.0,0.0,0.4689352260806525,-0.40126093641492533,0.6171795406135037,0.0,-26.86800931943447,22.990558140042502,0.0,0.0,0.0,0.0,26.868009319434478,-22.990558140042506,35.36178287897674
74,0.37024497985839844,1775721619.7963421,0.38208895,-18.007554735803186,-0.9694551835634656,1.0322782248052262,-19.31,-0.92,0.7334086155593937,-1.3024452641968125,0.049455183563465566,-0.2988696092458325,1.3372107256303165,0.0,0.0,0.0,0.0,0.0,0.0,4.3636781371964365e-05,4.3636781371964365e-05,0.0,0.0,0.0,0.0,-0.4689352260806524,0.4012609364149252,0.0,0.0,0.0,0.0,0.4689352260806525,-0.40126093641492533,0.6171795406135037,0.0,-26.86800931943447,22.990558140042502,0.0,0.0,0.0,0.0,26.868009319434478,-22.990558140042506,35.36178287897674
75,0.3752739429473877,1775721619.801371,0.387118035,-18.007554735803186,-0.9694551835634656,1.0322782248052262,-19.31,-0.92,0.7334087600245671,-1.3024452641968125,0.049455183563465566,-0.2988694647806591,1.3372106933420322,0.0,0.0,0.0,0.0,0.0,0.0,1.425325316170166e-05,1.425325316170166e-05,0.0,0.0,0.0,0.0,-0.4689352260806524,0.4012609364149252,0.0,0.0,0.0,0.0,0.4689352260806525,-0.40126093641492533,0.6171795406135037,0.0,-26.86800931943447,22.990558140042502,0.0,0.0,0.0,0.0,26.868009319434478,-22.990558140042506,35.36178287897674
76,0.3802530765533447,1775721619.8063502,0.392097269,-18.007554735803186,-0.9694551835634656,1.0322782248052262,-19.31,-0.92,0.7334087592015627,-1.3024452641968125,0.049455183563465566,-0.29886946560366356,1.3372106935259755,0.0,0.0,0.0,0.0,0.0,0.0,-1.4465118400046823e-05,1.4465118400046823e-05,0.0,0.0,0.0,0.0,-0.4689352260806524,0.4012609364149252,0.0,0.0,0.0,0.0,0.4689352260806525,-0.40126093641492533,0.6171795406135037,0.0,-26.86800931943447,22.990558140042502,0.0,0.0,0.0,0.0,26.868009319434478,-22.990558140042506,35.36178287897674
77,0.3852524757385254,1775721619.8113496,0.397096524,-18.007554735803186,-0.9694551835634656,1.0322782248052262,-19.31,-0.92,0.7334086164625812,-1.3024452641968125,0.049455183563465566,-0.2988696083426451,1.337210725428452,0.0,0.0,0.0,0.0,0.0,0.0,-4.2529481094004775e-05,4.2529481094004775e-05,0.0,0.0,0.0,0.0,-0.4689352260806524,0.4012609364149252,0.0,0.0,0.0,0.0,0.4689352260806525,-0.40126093641492533,0.6171795406135037,0.0,-26.86800931943447,22.990558140042502,0.0,0.0,0.0,0.0,26.868009319434478,-22.990558140042506,35.36178287897674
78,0.39024949073791504,1775721619.8163466,0.402093661,-18.007554735803186,-0.9694551835634656,1.0322782248052262,-19.31,-0.92,0.733408334984572,-1.3024452641968125,0.049455183563465566,-0.2988698898206542,1.337210788339449,0.0,0.0,0.0,0.0,0.0,0.0,-6.994775890181347e-05,6.994775890181347e-05,0.0,0.0,0.0,0.0,-0.4689352260806524,0.4012609364149252,0.0,0.0,0.0,0.0,0.4689352260806525,-0.40126093641492533,0.6171795406135037,0.0,-26.86800931943447,22.990558140042502,0.0,0.0,0.0,0.0,26.868009319434478,-22.990558140042506,35.36178287897674
79,0.39528512954711914,1775721619.8213823,0.407129102,-18.007554735803186,-0.9694551835634656,1.0322782248052262,-19.31,-0.92,0.7334079180428811,-1.3024452641968125,0.049455183563465566,-0.29887030676234516,1.337210881527001,0.0,0.0,0.0,0.0,0.0,0.0,-9.673082740109015e-05,9.673082740109015e-05,0.0,0.0,0.0,0.0,-0.4689352260806524,0.4012609364149252,0.0,0.0,0.0,0.0,0.4689352260806525,-0.40126093641492533,0.6171795406135037,0.0,-26.86800931943447,22.990558140042502,0.0,0.0,0.0,0.0,26.868009319434478,-22.990558140042506,35.36178287897674
80,0.4002556800842285,1775721619.8263528,0.412099809,-18.007554735803186,-0.9694551835634656,1.0322782248052262,-19.31,-0.92,0.7334073687229405,-1.3024452641968125,0.049455183563465566,-0.2988708560822857,1.3372110043016245,0.0,0.0,0.0,0.0,0.0,0.0,-0.00012288649873239352,0.00012288649873239352,0.0,0.0,0.0,0.0,-0.4689352260806524,0.4012609364149252,0.0,0.0,0.0,0.0,0.4689352260806525,-0.40126093641492533,0.6171795406135037,0.0,-26.86800931943447,22.990558140042502,0.0,0.0,0.0,0.0,26.868009319434478,-22.990558140042506,35.36178287897674
81,0.40524911880493164,1775721619.8313463,0.019076219,-19.291359740354974,-0.9178873389748539,0.7387499679065495,-19.31,-0.92,0.7334066902050236,-0.018640259645025026,-0.0021126610251461786,-0.0053432777015258726,0.0195057230790541,1.9166672658502066,0.21914027260270114,0.5498887622417873,2.005994396277791,0.0,0.0,-0.00014842543000651815,0.00014842543000651815,0.0,0.0,0.0,0.0,-0.2776774239351256,0.11383968933507653,0.0,0.0,0.0,0.0,0.27767742393512584,-0.1138396893350766,0.3001070252945678,0.0,-15.909744457547646,6.522533739980334,0.0,0.0,0.0,0.0,15.909744457547658,-6.522533739980338,17.194865951604577
82,0.41027021408081055,1775721619.8363674,0.024097285,-19.280572614146557,-0.9166576234277652,0.7418437321809267,-19.31,-0.92,0.7334058856705734,-0.029427385853441734,-0.0033423765722347953,-0.008437846510353286,0.030795125800201693,2.3357907924721033,0.26772007835390854,0.670348097499357,2.4447820431221037,0.0,0.0,-0.00017307712289590075,0.00017307712289590075,0.0,0.0,0.0,0.0,-0.27775298203919024,0.11411847913035492,0.0,0.0,0.0,0.0,0.2777529820391904,-0.11411847913035489,0.3002827772461952,0.0,-15.91407361801856,6.538507218621102,0.0,0.0,0.0,0.0,15.914073618018568,-6.5385072186211,17.20493579667401
83,0.4152841567993164,1775721619.8413813,0.029111396,-19.26751400465602,-0.9151639350295364,0.7455905458994627,-19.31,-0.92,0.7334049653586968,-0.04248599534397712,-0.004836064970463627,-0.012185580540765906,0.044462745055636,2.7832673956861953,0.3199233601065332,0.7990575930726745,2.9133179348088265,0.0,0.0,-0.00019443758341474416,0.00019443758341474416,0.0,0.0,0.0,0.0,-0.27783832127070396,0.11444298874207072,0.0,0.0,0.0,0.0,0.27783832127070385,-0.11444298874207082,0.30048515843339185,0.0,-15.918963195811184,6.557100249783846,0.0,0.0,0.0,0.0,15.918963195811179,-6.557100249783852,17.216531384553228
84,0.42028093338012695,1775721619.846378,0.034108044,-19.252309681555342,-0.913418769062325,0.7499548881567893,-19.31,-0.92,0.7334039470768583,-0.05769031844465644,-0.006581230937675042,-0.016550941079931047,0.06037730611357406,3.212875280549366,0.37046257996426474,0.9227537579696855,3.3632253253931887,0.0,0.0,-0.0002123270996362969,0.0002123270996362969,0.0,0.0,0.0,0.0,-0.2779300549182165,0.11479864838103905,0.0,0.0,0.0,0.0,0.27793005491821665,-0.11479864838103904,0.30070557875928466,0.0,-15.924219146652993,6.577478046039879,0.0,0.0,0.0,0.0,15.924219146653002,-6.577478046039878,17.229160538945784
85,0.42528319358825684,1775721619.8513803,0.03911034,-19.234978708673786,-0.9114223811528641,0.7549318652046318,-19.31,-0.92,0.733402847175161,-0.07502129132621249,-0.008577618847135926,-0.021529018029470826,0.07851922258054053,3.6266593513754057,0.4195767533006545,1.0420249125639327,3.796645706572167,0.0,0.0,-0.00022716185160888644,0.00022716185160888644,0.0,0.0,0.0,0.0,-0.27802741640063466,0.11518028895305138,0.0,0.0,0.0,0.0,0.27802741640063466,-0.11518028895305132,0.30094142824430187,0.0,-15.929797548682691,6.599344440107143,0.0,0.0,0.0,0.0,15.929797548682691,-6.59934444010714,17.242673719037604
86,0.4302487373352051,1775721619.856346,0.044075955,-19.21576783203445,-0.9092012951169901,0.7604511869053637,-19.31,-0.92,0.733401679926155,-0.09423216796554712,-0.010798704883009935,-0.027049506979208715,0.09863056997937146,4.021269629643153,0.46686404161311024,1.1559041772941312,4.210069587872359,0.0,0.0,-0.0002393145981393882,0.0002393145981393882,0.0,0.0,0.0,0.0,-0.2781289926383462,0.11558121742534387,0.0,0.0,0.0,0.0,0.27812899263834634,-0.11558121742534366,0.30118890146807514,0.0,-15.935617438402378,6.622315949456131,0.0,0.0,0.0,0.0,15.935617438402389,-6.6223159494561195,17.25685289030231
87,0.43524861335754395,1775721619.8613458,0.049075732,-19.19448556196447,-0.9067313720521073,0.7665684677717725,-19.31,-0.92,0.7334004579572084,-0.11551443803552885,-0.013268627947892742,-0.033168009814564026,0.12091219441124476,4.402348200751226,0.5130001963047636,1.2660196758487976,4.609408281081486,0.0,0.0,-0.0002491087607584719,0.0002491087607584719,0.0,0.0,0.0,0.0,-0.2782359947655514,0.11600557425554259,0.0,0.0,0.0,0.0,0.2782359947655513,-0.11600557425554259,0.3014507622175371,0.0,-15.941748208690159,6.646629804834067,0.0,0.0,0.0,0.0,15.941748208690154,-6.646629804834067,17.27185640606661
88,0.4402463436126709,1775721619.8663435,0.054073389,-19.171348936031148,-0.9040356727165163,0.7732219615724057,-19.31,-0.92,0.7333991922822833,-0.13865106396885096,-0.015964327283483737,-0.039822769290122406,0.14513728066641907,4.766973348318969,0.5576362126261363,1.3715285741525831,4.991601314100757,0.0,0.0,-0.00025683562145933605,0.00025683562145933605,0.0,0.0,0.0,0.0,-0.2783476287074408,0.11644984550909114,0.0,0.0,0.0,0.0,0.2783476287074409,-0.11644984550909099,0.30172498889907434,0.0,-15.948144362410831,6.672084672621386,0.0,0.0,0.0,0.0,15.948144362410837,-6.672084672621377,17.287568437548575
89,0.44524621963500977,1775721619.8713434,0.059073316,-19.14641902993469,-0.9011192240133382,0.7803947308421995,-19.31,-0.92,0.7333978926233431,-0.1635809700653077,-0.018880775986661824,-0.04699683821885636,0.17124228529173208,5.115464629779164,0.600811232710302,1.4725233471394703,5.356983995098677,0.0,0.0,-0.000262747713314585,0.000262747713314585,0.0,0.0,0.0,0.0,-0.2784640355137244,0.11691435454421614,0.0,0.0,0.0,0.0,0.27846403551372445,-0.11691435454421617,0.30201189607874634,0.0,-15.954813981117479,6.698699079879742,0.0,0.0,0.0,0.0,15.954813981117482,-6.698699079879744,17.304007008055784
90,0.45024776458740234,1775721619.876345,0.064074997,-19.119777818696534,-0.897989473428564,0.7880638323790282,-19.31,-0.92,0.7333965674502868,-0.19022218130346502,-0.022010526571436095,-0.05466726492874141,0.19914178716329078,5.447766399491626,0.6425190122697876,1.5689880635499918,5.705498485506805,0.0,0.0,-0.00026707187366200425,0.00026707187366200425,0.0,0.0,0.0,0.0,-0.2785853235988338,0.11739938632767896,0.0,0.0,0.0,0.0,0.2785853235988336,-0.11739938632767899,0.3023117570237427,0.0,-15.961763276499472,6.726489354001865,0.0,0.0,0.0,0.0,15.96176327649946,-6.726489354001867,17.321187774644876
91,0.4552345275878906,1775721619.8813317,0.069061674,-19.09160246503582,-0.894665123984028,0.7961788995988496,-19.31,-0.92,0.7333952242219036,-0.21839753496417913,-0.025334876015972063,-0.06278367537694596,0.22865067048887536,5.762830045595634,0.6826256954508141,1.6606176455260466,6.036044974910471,0.0,0.0,-0.00027000461316878757,0.00027000461316878757,0.0,0.0,0.0,0.0,-0.2787112344826266,0.11790381193505951,0.0,0.0,0.0,0.0,0.2787112344826266,-0.11790381193505972,0.30262395988362784,0.0,-15.968977438735559,6.755390812383094,0.0,0.0,0.0,0.0,15.968977438735559,-6.755390812383106,17.33907568086821
92,0.46024489402770996,1775721619.886342,0.074072093,-19.061751459956934,-0.8911272299889738,0.8047813646441375,-19.31,-0.92,0.7333938694262073,-0.24824854004306474,-0.028872770011026283,-0.0713874952179302,0.2599175810812203,6.063060847345091,0.7214390236379985,1.7481120850502236,6.351147688830371,0.0,0.0,-0.00027172342581925207,0.00027172342581925207,0.0,0.0,0.0,0.0,-0.2788429708472487,0.11843239899201398,0.0,0.0,0.0,0.0,0.27884297084724885,-0.11843239899201397,0.30295153989033174,0.0,-15.976525376436802,6.785676619851826,0.0,0.0,0.0,0.0,15.976525376436813,-6.7856766198518255,17.357844632705213
93,0.4652392864227295,1775721619.8913364,0.079066518,-19.03053938821112,-0.8874107902256003,0.8137812560136541,-19.31,-0.92,0.7333925087535842,-0.2794606117888776,-0.03258920977439972,-0.08038874726006995,0.2926134665752364,6.346039897301202,0.7586477389755346,1.8307668914924493,6.648268660408985,0.0,0.0,-0.00027238188081129004,0.00027238188081129004,0.0,0.0,0.0,0.0,-0.2789797481687197,0.11898197653657021,0.0,0.0,0.0,0.0,0.2789797481687195,-0.11898197653657006,0.30329261551978326,0.0,-15.984362139690194,6.817165093670061,0.0,0.0,0.0,0.0,15.984362139690186,-6.817165093670052,17.37738682676755
94,0.4702281951904297,1775721619.8963253,0.084055353,-18.997991829293394,-0.8835166686234592,0.8231718523265636,-19.31,-0.92,0.7333911471435957,-0.3120081707066049,-0.036483331376540806,-0.08978070518296799,0.32671196347725534,6.612462200516677,0.7943389417200213,1.9087837802518517,6.928137284100776,0.0,0.0,-0.0002721180529624952,0.0002721180529624952,0.0,0.0,0.0,0.0,-0.27912209811934835,0.11955467213586765,0.0,0.0,0.0,0.0,0.2791220981193483,-0.11955467213586779,0.30364858848356585,0.0,-15.992518191075114,6.84997813445552,0.0,0.0,0.0,0.0,15.99251819107511,-6.849978134455528,17.397782575213057
95,0.47525453567504883,1775721619.9013517,0.089081741,-18.963896240070667,-0.8794169010309832,0.8330152369881656,-19.31,-0.92,0.7333897889103346,-0.3461037599293313,-0.040583098969016795,-0.09962544807783102,0.3624362433088857,6.864475318576877,0.8288070696759213,1.9827936500380723,7.193011415028285,0.0,0.0,-0.00027105125543551526,0.00027105125543551526,0.0,0.0,0.0,0.0,-0.27927162689892226,0.12015696736471834,0.0,0.0,0.0,0.0,0.27927162689892215,-0.12015696736471826,0.3040235819752421,0.0,-16.001085559060442,6.88448710908953,0.0,0.0,0.0,0.0,16.001085559060435,-6.884487109089526,17.41926811963098
96,0.48024559020996094,1775721619.9063427,0.094072667,-18.92882863698603,-0.8751783427838926,0.8431458363892584,-19.31,-0.92,0.7333884377891117,-0.38117136301396926,-0.044821657216107424,-0.10975739860014677,0.39918326052703773,7.098408192821635,0.8615504974216812,2.051718544949296,7.439033345752237,0.0,0.0,-0.00026928914960713563,0.00026928914960713563,0.0,0.0,0.0,0.0,-0.2794265188589518,0.1207815762052635,0.0,0.0,0.0,0.0,0.27942651885895176,-0.12078157620526353,0.3044131544336742,0.0,-16.009960214650643,6.920274559499328,0.0,0.0,0.0,0.0,16.00996021465064,-6.92027455949933,17.44158897731368
97,0.4852583408355713,1775721619.9113555,0.099085537,-18.892472521304033,-0.8707603683416413,0.8536557944435499,-19.31,-0.92,0.7333870970221497,-0.4175274786959662,-0.04923963165835876,-0.12026869742140023,0.4372851430948708,7.317017787384293,0.8929518630598985,2.1163697871369456,7.669102516366981,0.0,0.0,-0.00026692460564750267,0.00026692460564750267,0.0,0.0,0.0,0.0,-0.27958892051250367,0.1214371915202007,0.0,0.0,0.0,0.0,0.2795889205125035,-0.12143719152020083,0.3048228271597469,0.0,-16.01926514398511,6.957838550029369,0.0,0.0,0.0,0.0,16.019265143985102,-6.957838550029377,17.46506149549926
98,0.49025726318359375,1775721619.9163544,0.104084419,-18.855167402333887,-0.8662016794568421,0.8644477313562623,-19.31,-0.92,0.7333857694066177,-0.45483259766611184,-0.05379832054315792,-0.1310619619496446,0.47638659622522717,7.518698199163596,0.9227825461474657,2.1762730663161696,7.881529971823586,0.0,0.0,-0.0002640415354631651,0.0002640415354631651,0.0,0.0,0.0,0.0,-0.27975811262526534,0.12212096290269872,0.0,0.0,0.0,0.0,0.2797581126252653,-0.1221209629026987,0.3052509314644804,0.0,-16.028959137973256,6.9970157643983315,0.0,0.0,0.0,0.0,16.028959137973253,-6.99701576439833,17.489590065351873
99,0.49525022506713867,1775721619.9213474,0.109077421,-18.816940393631633,-0.8615031879427177,0.8755145240341345,-19.31,-0.92,0.7333844573500741,-0.4930596063683659,-0.0584968120572823,-0.14213006668406047,0.516459687012073,7.703873753395383,0.9510997649648354,2.2315527505937514,8.076762299947484,0.0,0.0,-0.00026071216346962674,0.00026071216346962674,0.0,0.0,0.0,0.0,-0.2799347958958851,0.12283578096908573,0.0,0.0,0.0,0.0,0.2799347958958851,-0.12283578096908565,0.3056993932600391,0.0,-16.039082343690335,7.03797182272201,0.0,0.0,0.0,0.0,16.039082343690335,-7.037971822722005,17.515285033510242
100,0.5002431869506836,1775721619.9263403,0.114070328,-18.777830143313114,-0.8566670903720659,0.8868457501017583,-19.31,-0.92,0.7333831629190886,-0.5321698566868847,-0.06333290962793414,-0.1534625871826697,0.5574644199165342,7.8727881931571995,0.9779389816185065,2.2822810594808374,8.255056960466682,0.0,0.0,-0.0002570019989677765,0.0002570019989677765,0.0,0.0,0.0,0.0,-0.2801196757436404,0.1235845733136291,0.0,0.0,0.0,0.0,0.2801196757436406,-0.12358457331362915,0.30617018061828644,0.0,-16.049675178683735,7.08087446379605,0.0,0.0,0.0,0.0,16.049675178683746,-7.080874463796054,17.542259162185932
101,0.5052740573883057,1775721619.9313712,0.119101262,-18.73761024703437,-0.8516623691423144,0.8985079117390116,-19.31,-0.92,0.7333818878706301,-0.572389752965627,-0.06833763085768563,-0.1651260238683815,0.5996387786408365,8.02654548181456,1.003488240219119,2.3287933294491214,8.417582752262225,0.0,0.0,-0.00025296726369191026,0.00025296726369191026,0.0,0.0,0.0,0.0,-0.28031483044927447,0.12437585511814855,0.0,0.0,0.0,0.0,0.2803148304492744,-0.12437585511814842,0.30666880752071296,0.0,-16.060856719668685,7.126211571600511,0.0,0.0,0.0,0.0,16.06085671966868,-7.1262115716005034,17.570828379246652
