sample_idx,t_rel_s,stamp_s,t_in_traj_s,x_des_m,y_des_m,z_des_m,x_act_m,y_act_m,z_act_m,ex_m,ey_m,ez_m,e_pos_norm_m,vx_des_mps,vy_des_mps,vz_des_mps,speed_des_mps,vx_act_mps,vy_act_mps,vz_act_mps,speed_act_mps,wx_act_radps,wy_act_radps,wz_act_radps,roll_des_rad,pitch_des_rad,yaw_des_rad,roll_act_rad,pitch_act_rad,yaw_act_rad,e_roll_rad,e_pitch_rad,e_yaw_rad,e_ang_norm_rad,roll_des_deg,pitch_des_deg,yaw_des_deg,roll_act_deg,pitch_act_deg,yaw_act_deg,e_roll_deg,e_pitch_deg,e_yaw_deg,e_ang_norm_deg
0,0.0,1775831872.0822268,0.04214421,-19.266044742745432,-0.9616906510375928,0.7514619745530948,-19.31000025922032,-0.9195630556027399,0.7725751410699325,-0.04395551647488816,0.042127595434852894,0.0211131665168377,0.06444057360129966,1.970930947984861,-1.855346979076777,-0.9088379354638574,2.855322680089245,-2.249201409425628e-08,5.052452904727461e-06,0.0017290484320920429,0.0017290558141095959,5.93353880452522e-05,4.7739711431352375e-08,1.2531854771897791e-05,0.0,0.32393151344883125,-0.7551994081571625,-1.0107196492838142e-05,1.174785377386095e-08,-3.1192198773500216e-07,-1.0107196492636916e-05,-0.3239315017009776,0.7551990962351747,0.8217404047817234,0.0,18.559908571903296,-43.26973877818305,-0.0005790997017490531,6.731024395790691e-07,-1.787181343454705e-05,-0.0005790997017375237,-18.559907898800866,43.269720906369606,47.08225704936464
1,0.004991292953491211,1775831872.087218,0.047135376,-19.255603019951813,-0.9715268218031968,0.7466387001921698,-19.310000259331332,-0.9195630291158702,0.7725836777963098,-0.05439723937951868,0.05196379268732665,0.02594497760413994,0.07957661255320839,2.1695472311170865,-2.031549302244529,-0.9882204713410865,3.1322048872121453,-2.191070739351687e-08,5.539248721732177e-06,0.0016858312284732451,0.0016858403289315663,8.941499522408672e-05,3.776072508884883e-08,1.221120234262516e-05,0.0,0.32098682672991147,-0.7525618962905528,-9.734240548651209e-06,1.1961595463613192e-08,-2.5002426457151777e-07,-9.734240548731066e-06,-0.3209868147683159,0.7525616462662881,0.8181574217599509,0.0,18.391190450920966,-43.11862047981064,-0.0005577309002028251,6.853489363078671e-07,-1.4325335135810243e-05,-0.0005577309002074006,-18.391189765572026,43.11860615447549,46.876967244150045
2,0.009979963302612305,1775831872.0922067,0.052124045,-19.244195633530836,-0.9822122331463707,0.7414380350259544,-19.310000259439402,-0.9195630002466952,0.7725920012101545,-0.06580462590856584,0.0626492328996755,0.031153966184200077,0.09605074066809875,2.3601693355138846,-2.1977892476583385,-1.0611056041672147,3.3950879182456717,-2.1320134170585135e-08,6.004201176095743e-06,0.0016437052516036835,0.0016437162179147103,0.0001167536440857593,2.713341813986337e-08,1.1798871277581977e-05,0.0,0.31786730961966286,-0.7497876065241124,-9.217619962370185e-06,1.2126347760078774e-08,-1.899629204729826e-07,-9.217619962420542e-06,-0.317867297493315,0.7497874165611917,0.8143836865594585,0.0,18.212455286384873,-42.959665385047266,-0.0005281307209993483,6.947885475604331e-07,-1.0884073607081203e-05,-0.0005281307210022335,-18.21245459159632,42.95965450097365,46.66074814416188
3,0.014976024627685547,1775831872.0972028,0.057120112,-19.23183801414467,-0.9937199496133134,0.7358814038711542,-19.310000259544516,-0.919562969121465,0.7726001165850538,-0.07816224539984518,0.07415698049184849,0.03671871271389959,0.11382819608945714,2.54316372027592,-2.3543819943897226,-1.127628381022902,3.644494759129517,-2.0722891486338407e-08,6.4406138678163875e-06,0.0016026244404098544,0.001602637382234494,0.00014114216666044185,1.6093513648055444e-08,1.1305092322707833e-05,0.0,0.31456826983076774,-0.7468710475118445,-8.571620838084089e-06,1.2234239349544606e-08,-1.3217129246996702e-07,-8.57162083800489e-06,-0.3145682575965285,0.7468709153405522,0.8104130755006504,0.0,18.023434230035456,-42.79255886294347,-0.0004911176976086078,7.009702802817834e-07,-7.572857231318348e-06,-0.0004911176976040701,-18.02343352906518,42.79255129008625,46.43324888840421
4,0.019982576370239258,1775831872.1022093,0.062126721,-19.218557037147523,-1.0060119274357526,0.7299958923924661,-19.31000025964663,-0.9195629358981222,0.7726080291915274,-0.0914432224991053,0.08644899153763042,0.042612136799061284,0.13285738700379474,2.718602895028433,-2.5013727448498257,-1.1877957798891894,3.880531680615054,-2.0121665771459492e-08,6.842512788346246e-06,0.0015625805744975375,0.0015625955561767077,0.00016240673181439037,6.593000687197711e-09,1.0740202532440136e-05,0.0,0.3110842125833487,-0.7438069963151726,-7.811410658958518e-06,1.2290813736282512e-08,-7.70305446920311e-08,-7.81141065875346e-06,-0.3110842002925347,0.7438069192846277,0.8062394885568138,0.0,17.823812454176377,-42.61700166116216,-0.0004475608628018283,7.042117538704063e-07,-4.4135251044472476e-06,-0.00044756086279007935,-17.82381174996461,42.61699724763705,46.19411997109146
5,0.0250091552734375,1775831872.107236,0.067153232,-19.204359739068835,-1.019067981772905,0.7238003705009755,-19.31000025974573,-0.9195629007625887,0.772615744040915,-0.10564052067689644,0.09950508101031619,0.04881537353993959,0.15311473296061096,2.8867422927505433,-2.638945555496113,-1.2416609374264556,4.1035395201165175,-1.9518788421145846e-08,7.204687300847663e-06,0.0015235300040145482,0.0015235470393239112,0.00018043774545175212,-1.5827194624142066e-09,1.0113795202710877e-05,0.0,0.3074014385623643,-0.7405836832211828,-6.9529429250252625e-06,1.2303213705710888e-08,-2.4871814136067352e-08,-6.9529429249648445e-06,-0.3074014262591507,0.7405836583493688,0.8018477361249068,0.0,17.612805045873547,-42.4323194248273,-0.0003983742847992931,7.049222197847436e-07,-1.4250499788304791e-06,-0.0003983742847958314,-17.61280434095133,42.432317999777325,45.94249109207688
6,0.02997279167175293,1775831872.1121995,0.072117011,-19.189529826665066,-1.0326152005130709,0.7174324951056811,-19.31000025984182,-0.9195628639248661,0.7726232661420271,-0.12047043317675588,0.1130523365882048,0.055190771036346065,0.1741837457555507,3.0449196185668543,-2.764966172415067,-1.2884216442957228,4.310058439467223,-1.8916264816116437e-08,7.522718748544368e-06,0.0014854647706173995,0.0014854838189628987,0.0001951574939114726,-8.618389715643087e-09,9.435537533781994e-06,0.0,0.3035750464970487,-0.7372496994767966,-6.012555909920913e-06,1.2277588386424562e-08,2.4020992091428526e-08,-6.012555910039907e-06,-0.3035750342194605,0.7372497234977886,0.7973048076081464,0.0,17.393568929768616,-42.241296227308744,-0.0003444940777249087,7.034539971409619e-07,1.376301466555983e-06,-0.0003444940777317266,-17.39356822631463,42.24129760361021,45.68220046143688
7,0.03497576713562012,1775831872.1172025,0.077119882,-19.173808392077166,-1.04687738430258,0.7107957467899101,-19.310000259934903,-0.9195628256150329,0.7726306002563655,-0.13619186785773607,0.12731455868754715,0.06183485346645545,0.19641988399243585,3.1964358326852067,-2.8820900041581328,-1.3290830954636788,4.50445409558023,-1.8315820676797353e-08,7.792998528570402e-06,0.0014483432368129156,0.0014483642023963618,0.00020653331602090032,-1.4673037419416226e-08,8.715376062646786e-06,0.0,0.299518051261036,-0.7337300350125889,-5.0069460636537495e-06,1.2219231764846921e-08,6.941377765217919e-08,-5.006946063534912e-06,-0.2995180390418044,0.7337301044263667,0.7925092566513304,0.0,17.161120225240406,-42.03963430820747,-0.00028687687769700067,7.00110409017921e-07,3.97711649952938e-06,-0.0002868768776901918,-17.161119525130008,42.039638285323974,45.407435631171396
8,0.03998374938964844,1775831872.1222105,0.082127904,-19.15733148372378,-1.0617162234518331,0.7039647047365556,-19.31000026002499,-0.9195627860791624,0.7726377511422394,-0.15266877630120845,0.14215343737267072,0.06867304640568384,0.21961635257150466,3.3401579433777857,-2.9893910465205558,-1.3632834960886295,4.685259417197154,-1.7718940416461995e-08,8.012736500264302e-06,0.0014121577165818106,0.0014121804490792728,0.00021458423662964416,-1.9883547924398256e-08,7.96289458124505e-06,0.0,0.2952435753603853,-0.7300374292529933,-3.95276713484163e-06,1.2132701784013318e-08,1.1112105531979146e-07,-3.952767134940416e-06,-0.2952435632276833,0.7300375403740489,0.7874792517891468,0.0,16.916210796502742,-41.82806358277694,-0.00022647687422444417,6.951526063148076e-07,6.366767484863795e-06,-0.0002264768742301042,-16.91621010135012,41.82806994954444,45.119237581638
9,0.04496908187866211,1775831872.1271958,0.087113177,-19.140234277289654,-1.0769967002951668,0.6970107135952067,-19.3100002601121,-0.9195627455752426,0.7726447233233785,-0.16976598282244737,0.15743395471992416,0.0756340097281718,0.24357020025033402,3.475327114146597,-3.086323859352535,-1.3908665440783643,4.851577399008258,-1.7126901681737042e-08,8.179956389987761e-06,0.0013768690216909088,0.001376893320076742,0.00021936393916433935,-2.436773477013505e-08,7.187243463411565e-06,0.0,0.29076308886996766,-0.7261831152037291,-2.8665572275407477e-06,1.2021922824078821e-08,1.4900417901977323e-07,-2.8665572275876627e-06,-0.2907630768480449,0.7261832642079082,0.7822309761713684,0.0,16.65949783043643,-41.60722765483612,-0.00016424163087080723,6.888054394517121e-07,8.537310587644773e-06,-0.00016424163087349526,-16.659497141630993,41.607236192146715,44.81853353901788
10,0.04999375343322754,1775831872.1322205,0.092137905,-19.12233986823356,-1.0928621030812455,0.689878888472347,-19.310000260196258,-0.9195627043691308,0.7726515213233858,-0.18766039196269801,0.17329939871211475,0.08277263285103875,0.2685152007888321,3.603590140288481,-3.174048166817067,-1.4121438655750798,5.0054564189033215,-1.6540927103834522e-08,8.293482940108955e-06,0.0013424704102561733,0.001342496027758093,0.0002209698817915453,-3.179371405212693e-08,6.397011745248737e-06,0.0,0.2860040932128975,-0.7221064617649133,-1.7644208575245537e-06,1.1882035218455986e-08,1.829691901845288e-07,-1.7644208574196796e-06,-0.2860040813308622,0.7221066447341036,0.7766829088567409,0.0,16.38682746456522,-41.37365261825448,-0.00010109386842101047,6.807904700433331e-07,1.0483362378499989e-05,-0.00010109386841500163,-16.386826783774744,41.37366310161687,44.500652697435235
11,0.05864691734313965,1775831872.1408737,0.009004734,-19.30785153778868,-0.9216637294866519,0.7715466370504647,-19.310000260277498,-0.9195626627306075,0.7726581494440788,-0.0021487224888190326,0.0021010667560443785,0.001111512393614178,0.003204208115661251,0.7379495693699861,-0.7131458651904895,-0.3607262918715361,1.087782170114508,-1.5962702705022103e-08,8.352917818356429e-06,0.0013089245136874413,0.0013089511656371267,0.00021953433483761647,-3.8553634446784976e-08,5.6004567042967585e-06,0.0,0.3380162991022836,-0.7683067382928169,-6.619280474275443e-07,1.170578124737428e-08,2.1296370151134746e-07,-6.619280474851053e-07,-0.33801628739650225,0.7683069512565184,0.8393751139358606,0.0,19.366907345192526,-44.02073347564068,-3.7925683458933674e-05,6.706918613779305e-07,1.2201921286084041e-05,-3.7925683462231675e-05,-19.36690667450066,44.02074567756196,48.09265145683742
12,0.059744834899902344,1775831872.1419716,0.010102558,-19.307301594054508,-0.9221998073420142,0.7712730316868599,-19.310000260309195,-0.9195626460146594,0.7726607540950695,-0.0026986662546875095,0.002637161327354809,0.001387722408209613,0.0040203473609791455,0.7641340071508018,-0.7379537867778492,-0.37300835901247303,1.1258826795884582,-1.5733962500953584e-08,8.361599623179316e-06,0.0012957486371001621,0.0012957756160472938,0.00021814300228693018,-4.098618123859401e-08,5.281934292088999e-06,0.0,0.33768427998195705,-0.7679707067784951,-2.2417450159980946e-07,1.162622195287425e-08,2.2384600235113868e-07,-2.241745016284824e-07,-0.3376842683557353,0.7679709306244975,0.8389338563791875,0.0,19.347884050880168,-44.001480288086654,-1.2844252816117804e-05,6.661334495820405e-07,1.282543119559575e-05,-1.2844252817760643e-05,-19.34788338474673,44.00149311351785,48.0673692611618
13,0.06649160385131836,1775831872.1487184,0.016849434,-19.30259466988545,-0.9267713916912879,0.7689464254891513,-19.31000026038645,-0.9195626042235113,0.7726671515488074,-0.007405590500997761,0.007208787467776534,0.003720726059656121,0.010984224589612342,0.9222575675493802,-0.8869162792723101,-0.4462013584805843,1.3550923066899379,-1.5169321909882003e-08,8.346048499339374e-06,0.0012633600645885056,0.0012633876323412125,0.0002127194918009278,-4.646581207371854e-08,4.489925378529139e-06,0.0,0.3355382638829225,-0.7658661576701502,8.54113861467119e-07,1.1407242317987574e-08,2.482722559613818e-07,8.541138614148736e-07,-0.33553825247568003,0.7658664059424063,0.8361442881622175,0.0,19.224926385638362,-43.88089850640047,4.8937119485687386e-05,6.535868407037181e-07,1.4224952436778872e-05,4.8937119482693944e-05,-19.224925732051513,43.880912731352915,47.907538775665586
14,0.06973552703857422,1775831872.1519623,0.020093447,-19.29953780494259,-0.9297277256342897,0.7674482509444913,-19.310000260460917,-0.9195625626410145,0.7726733890226383,-0.010462455518325697,0.01016516299327519,0.005225138078146951,0.01549501797638507,0.9988951863506121,-0.9586258291692737,-0.48111421594123893,1.4656827632355014,-1.4616032310765804e-08,8.27841460932603e-06,0.0012317583406560016,0.0012317861592572384,0.00020468792173257498,-5.11824335626202e-08,3.70948027842499e-06,0.0,0.3344531034765994,-0.7648294554451424,1.8986721280073212e-06,1.116279923050586e-08,2.6876461458044133e-07,1.8986721279645735e-06,-0.33445309231380005,0.7648297242097568,0.8347594731398026,0.0,19.162751274261346,-43.821499844295694,0.00010878589961394228,6.395812834598688e-07,1.5399078097919515e-05,0.00010878589961149303,-19.162750634680055,43.82151524337379,47.828194719474894
15,0.07567048072814941,1775831872.1578972,0.026028233,-19.29265724789017,-0.9363532730196577,0.764107066595066,-19.310000260532643,-0.9195625215229319,0.7726794703389726,-0.017343012642474065,0.01679075149672571,0.008572403743906554,0.025616313733446406,1.275677672607678,-1.2189406539224457,-0.6087355713975673,1.8664749765425048,-1.407525230101121e-08,8.16066010385665e-06,0.0012008903936652044,0.0012009181213425055,0.00019428313334132237,-5.524241684259476e-08,2.9470929982128466e-06,0.0,0.3322193563351596,-0.762658316519081,2.8970375062667064e-06,1.0896443985381065e-08,2.8539726728167074e-07,2.8970375063330778e-06,-0.3322193454387157,0.7626586019163484,0.8318760944810957,0.0,19.034766990557433,-43.69710274709581,0.00016598802220018705,6.243202520630455e-07,1.635205889980683e-05,0.00016598802220398986,-19.034766366237186,43.69711909915472,47.66298929159289
16,0.07973170280456543,1775831872.1619585,0.030089503,-19.287017193919493,-0.9417587149555156,0.7613964841915211,-19.310000260601697,-0.919562481113738,0.7726853992285172,-0.022983066682204623,0.0221962338417776,0.011288915036996139,0.0338870735471515,1.4586467961300364,-1.389026620345443,-0.6908025119581496,2.1293786742654284,-1.3547978749654484e-08,7.995328269310537e-06,0.0011707895003985227,0.0011708168002301231,0.00018176440854965876,-5.8737285948024884e-08,2.2087818135719187e-06,0.0,0.33039327776437233,-0.7609549426673945,3.837980558996453e-06,1.061123342646529e-08,2.9827568231284024e-07,3.837980559140419e-06,-0.33039326715313866,0.7609552409430766,0.8295857940644784,0.0,18.93014039539204,-43.599506614461234,0.00021990008788375724,6.079788907646043e-07,1.7089937727910684e-05,0.00021990008789200588,-18.930139787413136,43.599523704398955,47.53176474390367
17,0.08472895622253418,1775831872.1669557,0.035086764,-19.279074398814206,-0.9493368120112394,0.7576175888624808,-19.310000260668147,-0.9195624416438667,0.7726911794923955,-0.030925861853940972,0.029774370367372738,0.015073590629914757,0.04549873840735344,1.676606033508499,-1.5893337615176393,-0.785910836527562,2.4402142201184636,-1.3035070682896372e-08,7.785480903102507e-06,0.0011414461143035804,0.001141472665350138,0.0001673865272257461,-6.174578245731402e-08,1.4996710818264797e-06,0.0,0.3279113052136896,-0.758682573477334,4.71158043530078e-06,1.0309798618788299e-08,3.075336361614021e-07,4.711580435134977e-06,-0.3279112949038909,0.7586828810109703,0.8265140841430663,0.0,18.787933843370602,-43.469309450375206,0.00026995367377914594,5.90707948486375e-07,1.7620379410360176e-05,0.0002699536737696461,-18.78793325266265,43.46932707075462,47.355768729518296
18,0.08972620964050293,1775831872.171953,0.04008408,-19.270062088862513,-0.9578912445220524,0.7533795523872956,-19.310000260732064,-0.9195624033272806,0.7726968149456132,-0.03993817186955084,0.03832884119477187,0.01931726255831756,0.058628613085786034,1.8866474889673415,-1.7797371375622848,-0.8745409411946932,2.7371015480377907,-1.2537268066303434e-08,7.53463522218254e-06,0.001112852582536635,0.0011128780891650138,0.000151421707494227,-6.433564946478783e-08,8.244591168091828e-07,0.0,0.3252160482727879,-0.7562468123003269,5.509199749589935e-06,9.994403990462113e-09,3.1332890168878517e-07,5.509199749731408e-06,-0.32521603827838375,0.7562471256292285,0.8232102930638735,0.0,18.633506995953592,-43.32975061503088,0.00031565389414603325,5.726371674021873e-07,1.7952423666236882e-05,0.00031565389415413907,-18.633506423316415,43.32976856745454,47.16647544428758
19,0.09472894668579102,1775831872.1769557,0.045086779,-19.26000856708592,-0.9673831259053975,0.7487095496239695,-19.310000260793544,-0.919562366359352,0.7727023092076729,-0.04999169370762502,0.04782075954604559,0.023992759583703394,0.07322326813082776,2.08898217030491,-1.9604235761746944,-0.9567767411543694,3.020352436105324,-1.2055208685392184e-08,7.246697584095105e-06,0.001084973298993806,0.0010849974996748639,0.00013415296311023882,-6.656516823973054e-08,1.8711020152146498e-07,0.0,0.3223290502301335,-0.7536613020758995,6.223621471175299e-06,9.666998255215179e-09,3.1584147386771357e-07,6.2236214710686966e-06,-0.3223290405631354,0.7536616179173734,0.8196961905187298,0.0,18.468094192646966,-43.181611791283274,0.000356587243585345,5.538782005841604e-07,1.8096383447811468e-05,0.0003565872435792371,-18.468093638768774,43.18162988766672,46.96513219967466
20,0.09972023963928223,1775831872.181947,5.1027e-05,-19.310000190502077,-0.9195624719466576,0.7726968359481644,-19.310000260852647,-0.9195623309150949,0.7727076658571823,-7.035056981408161e-08,1.4103156276146223e-07,1.082990901790648e-05,1.0831055739885204e-05,0.5196356137766185,-0.5048661919083652,-0.25710123451049305,0.7687731054244008,-1.1589441836434367e-08,6.925894059336756e-06,0.0010577979952446938,0.0010578206685854317,0.00011586177964503948,-6.848448141597475e-08,-4.0935392044702505e-07,0.0,0.34100095367300365,-0.7709829630011743,6.849021534302049e-06,9.329258268506e-09,3.152680804638696e-07,6.849021534360844e-06,-0.3410009443437456,0.770983278269255,0.8430283859165377,0.0,19.537915455399215,-44.17406985645819,0.000392420027709723,5.3452712477292e-07,1.806353042577057e-05,0.0003924200277130917,-19.537914920872105,44.17408791998862,48.30196852274362
21,0.10472321510314941,1775831872.18695,0.005054145,-19.309318011997576,-0.9202308848848192,0.7723569145305003,-19.310000260909465,-0.9195622971477365,0.7727128883196586,-0.0006822489118896158,0.0006685877370826709,0.0003559737891583037,0.0010194069248929064,0.6426690078557724,-0.6225549590429734,-0.3161093629817794,0.9489590402393918,-1.1140440955412261e-08,6.576701262408577e-06,0.0010313041039875616,0.001031325073885626,9.683920805687774e-05,-7.01367292162505e-08,-9.62022656625189e-07,0.0,0.33960184588163,-0.7695018832979768,7.381023090601119e-06,8.982626800863524e-09,3.118208349683319e-07,7.381023090502481e-06,-0.33960183689900303,0.7695021951188119,0.8411082189423229,0.0,19.457752483869637,-44.08921024034248,0.00042290147158005115,5.146666046305805e-07,1.7866017807930774e-05,0.00042290147157439964,-19.457751969203024,44.0892281063603,48.19195105916071
22,0.10972356796264648,1775831872.1919503,0.010054428,-19.307326990178392,-0.9221745660921619,0.7713624560912942,-19.310000260964078,-0.9195622651876432,0.772717980028811,-0.0026732707856851334,0.002612300904518694,0.0013555239375168116,0.003975919749508015,0.7629887255208991,-0.7368701653996754,-0.37292072494471706,1.1243661783518057,-1.0708613860259301e-08,6.203775551342829e-06,0.001005485278673745,0.0010055044169845226,7.736769082798558e-05,-7.155903173953416e-08,-1.4685793077711962e-06,0.0,0.3380752959392846,-0.7679859117332305,7.81666642988985e-06,8.628345071936057e-09,3.057248708178697e-07,7.816666429683039e-06,-0.3380752873109394,0.7679862174581014,0.8391053152954501,0.0,19.370287614957306,-44.002351467820674,0.00044786199629428126,4.943677568044387e-07,1.751674479004624e-05,0.0004478619962824318,-19.37028712058954,44.00236898456547,48.077193133423535
23,0.11475753784179688,1775831872.1969843,0.015088334,-19.3040406388598,-0.9253692794103759,0.7697330000579439,-19.310000261016572,-0.9195622351415932,0.7727229442438506,-0.005959622156773037,0.005807044268782757,0.002989944185906701,0.008841867767951523,0.8814475686713467,-0.8486146971377074,-0.42792951954952346,1.2962331558082587,-1.0294312180434071e-08,5.811883980159065e-06,0.0009803098509102044,0.0009803270790368687,5.7715817171846106e-05,-7.278333046309551e-08,-1.927490128337576e-06,0.0,0.336444617695901,-0.766422585842056,8.154400465747208e-06,8.267480801119693e-09,2.972144854744048e-07,8.154400465532063e-06,-0.33644460942842036,0.7664228830565416,0.8370179274977555,0.0,19.27685663386762,-43.91277949225285,0.0004672127311468278,4.7369175710959513e-07,1.7029135627835706e-05,0.000467212731134501,-19.27685616017587,43.912796521388486,47.95759462240852
24,0.11972165107727051,1775831872.2019484,0.020052453,-19.29957958126527,-0.9296868910050436,0.7675409610839218,-19.310000261067046,-0.919562207092393,0.7727277841901505,-0.010420679801775634,0.010124683912650645,0.005186823106228755,0.015427343445892748,0.9969444969092578,-0.956780074909977,-0.48065916460430513,1.4629968127718196,-9.897838352920486e-09,5.40583797737831e-06,0.0009557691931424838,0.0009557844808022566,3.8147800864994675e-05,-7.341751364710405e-08,-2.3377695103340436e-06,0.0,0.3347618319907529,-0.7648431855696974,8.393964252923587e-06,7.901092580285438e-09,2.8653095094166756e-07,8.393964253006203e-06,-0.3347618240896604,0.7648434721006483,0.8348958113161609,0.0,19.180440115137685,-43.822286522484895,0.0004809387250762046,4.5269925839248514e-07,1.6417014188827592e-05,0.0004809387250809382,-19.18043966243843,43.822302939499075,47.836006321566735
25,0.12473154067993164,1775831872.2069583,0.025062512,-19.29388825980278,-0.9351700577274092,0.7647718924578992,-19.31000026111558,-0.919562181098814,0.7727325029557961,-0.01611200131279844,0.015607876628595196,0.00796061049789687,0.023802809049696064,1.2314000018069038,-1.177534638379213,-0.5890592943749828,1.8027547368742258,-9.519231335121986e-09,4.990428964170554e-06,0.000931842510278187,0.0009318558732086283,1.8912335818748716e-05,-7.044733642921433e-08,-2.698986646354051e-06,0.0,0.3328681619496746,-0.7630412311343097,8.536433806266697e-06,7.541722851644237e-09,2.7391860025031116e-07,8.53643380605007e-06,-0.3328681544079517,0.76304150505291,0.8324863642878704,0.0,19.071940813993535,-43.71904213846229,0.0004891016291918788,4.321088896565827e-07,1.5694379724473964e-05,0.0004891016291794669,-19.07194038188464,43.719057832842026,47.69795517588535
26,0.12974858283996582,1775831872.2119753,0.030079379,-19.287032173816552,-0.9417439089515515,0.761471227214847,-19.310000261162262,-0.9195621571958498,0.7727371036338577,-0.022968087345709876,0.022181751755701695,0.011265876419010779,0.03385975662582583,1.4581971982700281,-1.3886122487267365,-0.6910798982628419,2.1288904321593125,-9.157895831506679e-09,4.5703676091828075e-06,0.000908523972115699,0.0009085354678012507,2.2839082963842714e-07,-6.789071230075002e-08,-3.0111519946047275e-06,0.0,0.3306096878362128,-0.7609598939698259,8.584003178979078e-06,7.19615985926063e-09,2.596229201485487e-07,8.584003178935262e-06,-0.33060968064005314,0.7609601535927459,0.8296765130835624,0.0,18.942539779152625,-43.59979030319364,0.000491827153482383,4.123095886370906e-07,1.4875297589373825e-05,0.0004918271534798725,-18.942539366843047,43.59980517849123,47.53696256081875
27,0.13475942611694336,1775831872.2169862,0.035090416,-19.279068199092137,-0.949342243524208,0.7576798076428897,-19.31000026120718,-0.9195621353952549,0.7727415891630741,-0.03093206211504196,0.029780108128953153,0.015061781520184447,0.04550279738019109,1.676762428836298,-1.5894782629903512,-0.7864620677293626,2.4405933654037844,-8.813200673789453e-09,4.150229485812158e-06,0.0008857878190757458,0.0008857975417133553,-1.7683299560717184e-05,-6.444771348616962e-08,-3.27476236348069e-06,0.0,0.3280970335271029,-0.7586813945816978,8.540008682385685e-06,6.863453576764305e-09,2.43887916734412e-07,8.540008682444977e-06,-0.32809702666364915,0.7586816384696147,0.8265866485308109,0.0,18.798575291865266,-43.46924190463077,0.0004893064545057789,3.932469228325639e-07,1.397374830311985e-05,0.0004893064545091761,-18.798574898618334,43.46925587837908,47.35992636267901
28,0.13976478576660156,1775831872.2219915,0.040095801,-19.27003972552447,-0.9579119572764843,0.7534317955293283,-19.31000026125042,-0.9195621156863577,0.7727459624786461,-0.0399605357259496,0.038349841590126554,0.019314166949317868,0.05865655811960686,1.8871308292186302,-1.7801740510691024,-0.8752315870454439,2.7379395080332327,-8.484257621525835e-09,3.734401532879639e-06,0.0008636287904687555,0.000863636864401536,-3.462563960040534e-05,-5.879061886962749e-08,-3.4903181527230054e-06,0.0,0.32537905877166584,-0.7562414743600803,8.408786520098848e-06,6.55585462847791e-09,2.2695545617782948e-07,8.408786519975564e-06,-0.3253790522158111,0.7562417013155365,0.82326972402742,0.0,18.64284680955562,-43.32944477358346,0.0004817879784281624,3.7562280131309056e-07,1.3003589776455935e-05,0.0004817879784210987,-18.642846433932814,43.32945777717324,47.169880587671194
29,0.14474964141845703,1775831872.2269764,0.045080543,-19.260021725734347,-0.9673702870417864,0.7487758482146027,-19.31000026129204,-0.9195620980371233,0.7727502263687556,-0.04997853555769183,0.047808189004663104,0.02397437815415282,0.07320005300732628,2.0887349021164066,-1.9602067177921563,-0.9571737737211176,3.0201664690702494,-8.16974094095223e-09,3.3270339007016734e-06,0.000842022244954935,0.0008420288179274328,-5.042954884879135e-05,-5.392115082649057e-08,-3.659084508560561e-06,0.0,0.3224882173531239,-0.7536651695450648,8.195649405448548e-06,6.274527913430689e-09,2.0906277604987034e-07,8.195649405351446e-06,-0.3224882110785958,0.7536653786078409,0.8197622516705326,0.0,18.477213797031556,-43.181833380943836,0.00046957612130110423,3.5950396787660525e-07,1.197841472094628e-05,0.0004695761212955407,-18.477213437527578,43.18184535935856,46.968917224862736
30,0.14974117279052734,1775831872.231968,0.050071976,-19.24900300832668,-0.977715899838309,0.7437204850950255,-19.310000261332128,-0.9195620823954482,0.7727543836192657,-0.06099725300544634,0.058153817442860745,0.02903389852424021,0.08913752644595813,2.282713295939765,-2.1306049345755698,-1.0327650808318547,3.288899677838103,-7.868455673415457e-09,2.931998021807117e-06,0.000820963828078844,0.000820969063782663,-6.494891694966336e-05,-4.972956832821522e-08,-3.782590690556579e-06,0.0,0.3194193979620742,-0.750946042101311,7.90663335595948e-06,6.015812841843845e-09,1.9044010214070295e-07,7.906633356036252e-06,-0.3194193919462611,0.7509462325414131,0.8160569785143535,0.0,18.3013833978365,-43.02603885445855,0.00045301672145383655,3.4468068617825415e-07,1.0911414102702593e-05,0.0004530167214582352,-18.3013830531558,43.02604976587265,46.75662071107056
31,0.1547250747680664,1775831872.2369518,0.005101403,-19.309305259202706,-0.9202431539604324,0.7723852765422606,-19.310000261370742,-0.9195620686906422,0.7727584368769105,-0.0006950021680367513,0.0006810852697902714,0.0003731603346498469,0.0010421870243181198,0.6438185327995257,-0.6236531537314451,-0.31685175255724735,0.950705313140676,-7.579373230689163e-09,2.5528510998773473e-06,0.0008004278156144497,0.0008004318866184084,-7.805362933855607e-05,-4.612142982634984e-08,-3.862904864934816e-06,0.0,0.3397811065720169,-0.7694895809161747,7.548519750486402e-06,5.776558514820943e-09,1.7130889089143742e-07,7.54851975059978e-06,-0.33978110079545853,0.7694897522250654,0.8411692310671772,0.0,19.468023364861406,-44.08850536578726,0.0004324983232740161,3.3097242300959906e-07,9.815276441146475e-06,0.0004324983232805122,-19.468023033888993,44.0885151810637,48.19544679641398
32,0.15972161293029785,1775831872.2419484,0.010098036,-19.30730398630605,-0.9221967830277825,0.7713847966193114,-19.310000261407936,-0.9195620568350836,0.7727623887604325,-0.002696275101886414,0.0026347261926988885,0.0013775921411210978,0.004013656891517358,0.7640264231159352,-0.737854855430514,-0.3736043529885228,1.12594243879236,-7.3016079622440115e-09,2.1928039060126856e-06,0.0007804072395789436,0.0007804103202992067,-8.963427535879282e-05,-4.3015462442330915e-08,-3.902171362080649e-06,0.0,0.3382267078233124,-0.7679740703938617,7.12863884869332e-06,5.554052820559248e-09,1.51879581224764e-07,7.1286388485525265e-06,-0.3382267022692593,0.7679742222734429,0.8391553540645827,0.0,19.378962876880223,-44.00167300905106,0.0004084409197031255,3.1822378581077567e-07,8.702058998393355e-06,0.0004084409196950586,-19.378962558656422,44.00168171111006,48.080060143706866
33,0.1647477149963379,1775831872.2469745,0.015124064,-19.304012812356206,-0.9253960881109656,0.7697520722335104,-19.31000026144377,-0.9195620467260184,0.7727662417784336,-0.005987449087562879,0.005834041384947253,0.003014169544923173,0.008886551834259291,0.8822788021537151,-0.8493981032528609,-0.4285120021071005,1.297503587081434,-7.0343973924533405e-09,1.854694448698414e-06,0.0007608857411940512,0.0007608880016752804,-9.961369963104447e-05,-4.0341725517077324e-08,-3.902757874830225e-06,0.0,0.3365777663340425,-0.7664126655272389,6.654845273960996e-06,5.345961380082118e-09,1.323516070225002e-07,6.6548452739567665e-06,-0.3365777609880811,0.766412797878846,0.8370622234867117,0.0,19.284485488881042,-43.91221110008239,0.0003812945475105471,3.063010245186383e-07,7.58318849416329e-06,0.00038129454751030485,-19.284485182580017,43.912218683270886,47.96013259562507
34,0.16975188255310059,1775831872.2519786,0.020128362,-19.299502162471452,-0.9297614817160305,0.7675349038378733,-19.31000026147829,-0.9195620382474775,0.7727699984467826,-0.010498099006838402,0.010199443468552949,0.005235094608909363,0.015544933109853536,1.0005562034094417,-0.9602012728726989,-0.4825521141806649,1.4683173170359658,-6.777084943744255e-09,1.5409686156897217e-06,0.0007418591054049315,0.0007418607058622317,-0.00010794167732019212,-3.8040031363757255e-08,-3.8668993020674945e-06,0.0,0.3348663389763323,-0.7648197723959363,6.1352556365435766e-06,5.150275009153932e-09,1.1291282113982386e-07,6.135255636419146e-06,-0.33486633382605735,0.7648198853087576,0.8349161146674838,0.0,19.186427924341018,-43.82094504644338,0.0003515242542077963,2.9508902135622174e-07,6.469428104227448e-06,0.00035152425420066695,-19.186427629252,43.820951515871485,47.83716961790751
35,0.17476630210876465,1775831872.256993,0.02514258,-19.293787824044912,-0.9352664320310327,0.7647540514495372,-19.31000026151155,-0.9195620312722672,0.7727736611549164,-0.016212437466638363,0.015704400758765447,0.008019609705379183,0.02395381956240349,1.2350823151152213,-1.1809838886097324,-0.5909450295649737,1.808139181101302,-6.529105356183812e-09,1.253668094316019e-06,0.0007233041499819932,0.0007233052364717773,-0.0001145884870356419,-3.6058585780182674e-08,-3.7975478076506597e-06,0.0,0.3329420943379949,-0.7630107850335182,5.5782321881269276e-06,4.965264474909485e-09,9.373845903231923e-08,5.578232188163668e-06,-0.3329420893727306,0.7630108787719774,0.8324878593897818,0.0,19.076176827813608,-43.71729770538431,0.0003196091615236992,2.8448869857855433e-07,5.3708180806118626e-06,0.00031960916152580423,-19.076176543324923,43.7173030762024,47.698040838914814
36,0.17972850799560547,1775831872.2619553,0.030104914,-19.286994384674838,-0.9417799021167725,0.7614828690099148,-19.310000261543603,-0.919562025664015,0.7727772322672243,-0.02300587686876554,0.022217876452757523,0.011294363257309481,0.033918535433577625,1.4593311425167066,-1.3896630825471572,-0.691792414061132,2.1305838661423566,-6.289971805838953e-09,9.944226954582453e-07,0.0007052144287458804,0.0007052151298911839,-0.00011954391652600647,-3.4352815758383545e-08,-3.698029887811292e-06,0.0,0.3306904717898758,-0.7609494727997799,4.992194138205694e-06,4.789441570333876e-09,7.498761502591515e-08,4.992194138075945e-06,-0.3306904670004345,0.7609495477873951,0.8296989811176874,0.0,18.947168358749895,-43.59919321413242,0.00028603165462913547,2.7441478820464055e-07,4.2964738567367335e-06,0.00028603165462170137,-18.947168084335118,43.59919751060629,47.53824988434807
37,0.18474221229553223,1775831872.266969,0.035118612,-19.279020308203307,-0.9493876778283725,0.7576858063470734,-19.310000261574473,-0.9195620212792327,0.7727807140457004,-0.030979953371165436,0.029825656549139823,0.01509490769862698,0.045576129035898826,1.677969718660677,-1.590582250588807,-0.7871935439263318,2.442377519596355,-6.0592651333675e-09,7.644483622326519e-07,0.0006875730289064036,0.0006875734538924109,-0.00012282593479452056,-3.288436304233266e-08,-3.5713364906608856e-06,0.0,0.3281647419670268,-0.7586686953774454,4.3855818496123545e-06,4.621525570697862e-09,5.680330239344136e-08,4.385581849675191e-06,-0.3281647373455012,0.758668752180748,0.8266016999690773,0.0,18.80245469971032,-43.46851429382393,0.0002512753306919652,2.647939101127767e-07,3.2545894895495575e-06,0.00025127533069556546,-18.80245443491641,43.46851754841343,47.36078874656728
38,0.18969297409057617,1775831872.2719197,0.040069369,-19.270090150888976,-0.9578640832898542,0.7534829806165576,-19.310000261604205,-0.919562017969381,0.7727841087386753,-0.03991011071522976,0.0383020653204732,0.019301128122117706,0.05858667674396711,1.8860408058648306,-1.7791950023516692,-0.8749958358010708,2.73647629086196,-5.836624345797173e-09,5.645509601258633e-07,0.0006703742813054603,0.0006703745190471258,-0.00012446908579025475,-3.162021499370388e-08,-3.4199224013037595e-06,0.0,0.325468532572146,-0.7562552762648899,3.766667687320656e-06,4.460414341342756e-09,3.9315557566822643e-08,3.7666676875325322e-06,-0.32546852811173155,0.7562553155804475,0.8233175967687603,0.0,18.64797328070013,-43.330235564478286,0.000215814161311776,2.555629166385649e-07,2.2526155177825654e-06,0.00021581416132391562,-18.64797302513721,43.33023781709381,47.17262349370371
39,0.19474363327026367,1775831872.2769704,0.045119905,-19.25993864624762,-0.9674483875760732,0.7487639750553627,-19.31000026163285,-0.9195620155828991,0.7727874184988757,-0.05006161538523202,0.04788637199317414,0.024023443443512926,0.07332391010121607,2.0902955111897543,-1.9615909025788187,-0.9580133768721186,3.0224102672281177,-5.621738643341008e-09,3.9513499434063676e-07,0.0006536021273413905,0.0006536022468049348,-0.0001245239483673538,-3.0531958967409695e-08,-3.2471229017942426e-06,0.0,0.32253303790870413,-0.7536447192602294,3.143538037948377e-06,4.3051594819323735e-09,2.2639707718147523e-08,3.1435380378752598e-06,-0.3225330336035448,0.753644741899937,0.8197609131745731,0.0,18.479781825701735,-43.18066166593293,0.0001801114623132776,2.46667468445453e-07,1.2971597016596086e-06,0.0001801114623090883,-18.479781579034274,43.18066296309263,46.96884053469336
40,0.1997365951538086,1775831872.2819633,0.050113045,-19.248908359379328,-0.9778043990833628,0.7437027432516451,-19.310000261660438,-0.9195620139671826,0.7727906454647308,-0.06109190228110961,0.058242385116180184,0.02908790221308566,0.08927766799992105,2.284276558743326,-2.1319676642472367,-1.033580160472228,3.291123435294074,-5.414340371139221e-09,2.562158418703314e-07,0.0006372509015864071,0.0006372509531170287,-0.0001230607792031033,-2.9595139218786823e-08,-3.056279109468445e-06,0.0,0.31945677375294756,-0.7509234961951715,2.5239604014812097e-06,4.154944923451712e-09,6.874328741268274e-09,2.523960401568104e-06,-0.31945676959800284,0.7509235030695001,0.816050693958734,0.0,18.30352487290951,-43.02474706919146,0.00014461227866301813,2.3806080822309002e-07,3.9387002386015174e-07,0.0001446122786679968,-18.30352463484871,43.02474746306147,46.75626063255744
41,0.20474004745483398,1775831872.2869668,0.00509243,-19.30930769013914,-0.9202406344622924,0.7724367455130716,-19.31000026168701,-0.9195620129704871,0.7727937916841643,-0.0006925715478693917,0.0006786214918053091,0.00035704617109266756,0.0010332784940906314,0.6436002918209607,-0.6234487944714968,-0.31703013523286905,0.9504829517701828,-5.2141991252811006e-09,1.4743720531848976e-07,0.0006213057574916988,0.0006213057750071626,-0.00012017154122807143,-2.8788704940317303e-08,-2.8500767058707026e-06,0.0,0.3400628745561324,-0.7694952289766257,1.9153097167556823e-06,4.009068479977981e-09,-7.897451034062963e-09,1.915309716604696e-06,-0.34006287054706386,0.7694952210791746,0.8412880904850998,0.0,19.484167481153133,-44.08882897581354,0.00010973916323049774,2.2970270368166648e-07,-4.524906131630355e-07,0.00010973916322184686,-19.484167251450426,44.088828523322924,48.20225693941633
42,0.20974946022033691,1775831872.2919762,0.010101878,-19.307301955387935,-0.922198640791314,0.7714326567810194,-19.310000261712606,-0.9195620124437343,0.7727968591928626,-0.0026983063246710515,0.002636628347579717,0.0013642024118432072,0.004011697182677123,0.764117841193105,-0.7379449552662085,-0.3739328129875683,1.1261725360091381,-5.02111652176779e-09,6.809344516319696e-08,0.000605761169929239,0.0006057611737772314,-0.00011596197459013606,-2.809453404955354e-08,-2.631467125112046e-06,0.0,0.33846402737003833,-0.767975298241082,1.324445329337986e-06,3.866925965880667e-09,-2.160586259638239e-08,1.3244453294092295e-06,-0.33846402350311244,0.7679752766352195,0.8392520007307767,0.0,19.392560285303578,-44.00174335951468,7.588512756688095e-05,2.2155853753451159e-07,-1.2379247395122778e-06,7.58851275709629e-05,-19.392560063745044,44.001742121589935,48.08559758978378
43,0.21473336219787598,1775831872.29696,0.015085682,-19.304042702531312,-0.9253669891337664,0.7698143002575778,-19.310000261737247,-0.9195620122421936,0.7727998499402828,-0.0059575592059353255,0.005804976891572777,0.0029855496827050354,0.008837634033598519,0.8813858730528532,-0.8485623686470835,-0.42838977468395856,1.2963089715630536,-4.834921831344868e-09,1.7155145702228738e-08,0.000590604473611034,0.0005906044738799749,-0.00011053894427048528,-2.7497023333755077e-08,-2.403236427330262e-06,0.0,0.3368003238405318,-0.7664267481642846,7.577130702392838e-07,3.727997528119527e-09,-3.419606506758309e-08,7.577130700653356e-07,-0.33680032011253447,0.7664267139682197,0.8371644781717648,0.0,19.297237094701835,-43.91301797574952,4.3413761006610666e-05,2.1359852439645234e-07,-1.9592902043272576e-06,4.3413760996644165e-05,-19.29723688110332,43.91301601645933,47.96599135751405
44,0.2197432518005371,1775831872.30197,0.02009577,-19.299535436851347,-0.9297292627884481,0.767597190407094,-19.310000261760965,-0.9195620122270365,0.7728027658816364,-0.010464824909618642,0.010167250561411656,0.005205575474542479,0.015491402789568755,0.9990057234876557,-0.9587368741716726,-0.4821180227032428,1.4661605018799437,-4.655468091973468e-09,-6.704335404310977e-09,0.0005758322856855754,0.0005758322857434234,-0.0001040252566500856,-2.6982738652244354e-08,-2.167965447325361e-06,0.0,0.33506474715590373,-0.7648320421098768,2.20874023843363e-07,3.591835873366624e-09,-4.562646016476618e-08,2.208740239595386e-07,-0.3350647435640677,0.7648319964834167,0.8350068054959268,0.0,19.197795875651337,-43.82164804926799,1.2655149370296613e-05,2.0579703624759358e-07,-2.614203601562877e-06,1.2655149376952985e-05,-19.19779566985429,43.8216454350644,47.84236581961784
45,0.22474455833435059,1775831872.3069713,0.025097005,-19.293845029170853,-0.9352113777759085,0.7648262727564699,-19.310000261783813,-0.9195620122667489,0.7728056088731029,-0.01615523261295948,0.01564936550915952,0.00797933611663304,0.02386553972740415,1.23298658325961,-1.1790251019026172,-0.5902872044327796,1.8052133084851083,-4.482628908690246e-09,-5.078802498671929e-09,0.0005614264437482898,0.0005614264437891574,-9.655599684472666e-05,-2.6540112127730276e-08,-1.9284895054405492e-06,0.0,0.33311701705661406,-0.7630299129791269,-2.809469806111299e-07,3.458056125592743e-09,-5.586881021960898e-08,-2.8094698079073055e-07,-0.33311701359855794,0.7630298571103165,0.8325752263853944,0.0,19.086199161331443,-43.71839365593845,-1.6097076255961515e-05,1.981320213158255e-07,-3.2010470320009566e-06,-1.609707626625187e-05,-19.086198963199422,43.7183904548914,47.703046599032156
46,0.22973060607910156,1775831872.3119574,0.030082985,-19.28702683970227,-0.9417488020972064,0.7615414268547852,-19.310000261805804,-0.9195620122383854,0.7728083807520129,-0.022973422103532926,0.022186789858820943,0.01126695389722765,0.033867034377235164,1.4583573499599825,-1.3887651721910534,-0.6916642556545256,2.1292896247864634,-4.3162955085909956e-09,2.020365465735176e-08,0.0005473824597062561,0.000547382460096128,-8.827105680153705e-05,-2.6159181607173252e-08,-1.687252145890094e-06,0.0,0.33083550430897435,-0.7609600429130029,-7.433267135915064e-07,3.3263270984081798e-09,-6.490831309378992e-08,-7.433267135148469e-07,-0.33083550098264736,0.7609599780046898,0.8297663628009332,0.0,18.95547810998639,-43.599798837009075,-4.258948348812304e-05,1.9058450401878596e-07,-3.7189723955879017e-06,-4.258948348373078e-05,-18.955477919401893,43.59979511803668,47.54211057041454
47,0.23473119735717773,1775831872.316958,0.035083502,-19.279079938033764,-0.9493308851679403,0.7577555144432355,-19.310000261826982,-0.9195620120286552,0.7728110832798966,-0.030920323793218074,0.029768873139285112,0.015055568836661037,0.045485408478497115,1.676466355154371,-1.5892124486311274,-0.7868563164084185,2.440343932629282,-4.156374369639456e-09,6.71148851611532e-08,0.0005336888973172217,0.0005336889015534755,-7.930922735692328e-05,-2.583136497710905e-08,-1.4467320946462917e-06,0.0,0.3283024916415356,-0.7586860591680075,-1.1625286062849329e-06,3.196363785860395e-09,-7.27425522283664e-08,-1.1625286062688645e-06,-0.32830248844517174,0.7586859864254554,0.8266722143141196,0.0,18.810347174688975,-43.46950916573949,-6.66079827033524e-05,1.8313815471825827e-07,-4.1678412336953566e-06,-6.660798270243175e-05,-18.810346991550816,43.46950499789826,47.364828920933334
48,0.2397780418395996,1775831872.3220048,0.040130515,-19.269973457467593,-0.9579745293839934,0.7534682862274118,-19.310000261847378,-0.9195620115348379,0.7728137182221748,-0.04002680437978512,0.03841251784915556,0.019345431994763018,0.05875297724739811,1.8885620651930781,-1.7814660387289407,-0.8763527003722794,2.7401244454733646,-4.002785056268314e-09,1.3346106895171318e-07,0.0005203423544659316,0.0005203423715968444,-6.982213636696989e-05,-2.5549270888511e-08,-1.2088992215912345e-06,0.0,0.3255418529063338,-0.7562251870869633,-1.5355467346532198e-06,3.0679209049316985e-09,-7.938004773134705e-08,-1.5355467346545026e-06,-0.32554184983841283,0.7562251077069155,0.8233188383153331,0.0,18.65217422640158,-43.32851158157408,-8.79803471407244e-05,1.757789197325426e-07,-4.548141712553211e-06,-8.798034714079791e-05,-18.652174050622655,43.328507033432366,47.1726946290824
49,0.2447652816772461,1775831872.326992,0.045117769,-19.25994315651947,-0.967444121040546,0.7488043810721403,-19.310000261867017,-0.9195620106655197,0.7728162872544069,-0.05005710534754826,0.04788211037502632,0.024011906182266562,0.0733142682446447,2.090210840001738,-1.961517967639145,-0.9582951135787829,3.022393690064374,-3.855458465923775e-09,2.1691902986796267e-07,0.0005073266489868519,0.0005073266953758283,-5.994398985264206e-05,-2.5306532170817266e-08,-9.762098283867863e-07,0.0,0.3226331570086956,-0.7536463786124447,-1.860097269880517e-06,2.940787328869198e-09,-8.484022113976485e-08,-1.8600972699900353e-06,-0.3226331540679084,0.7536462937722233,0.8198017371437285,0.0,18.485518227579895,-43.18075673981159,-0.00010657572304796048,1.6849470238975586e-07,-4.860986604265113e-06,-0.00010657572305423542,-18.485518059085198,43.18075187882497,46.97117957582894
50,0.2497248649597168,1775831872.3319516,0.050077254,-19.248990848595373,-0.9777271579905816,0.7437770881763979,-19.31000026188594,-0.9195620093411561,0.7728187920350772,-0.06100941329056653,0.05816514864942557,0.029041703858679324,0.08915578270916676,2.2829142348535387,-2.1307834392261302,-1.0333794741818056,3.2893477478426507,-3.7143300451257435e-09,3.150699847836253e-07,0.0004946373096168065,0.0004946374099760795,-4.981868438877872e-05,-2.3855281494136474e-08,-7.502503659467306e-07,0.0,0.31957108210455365,-0.7509439247494571,-2.13457649678032e-06,2.815754614440811e-09,-8.915341292106027e-08,-2.1345764968927483e-06,-0.3195710792887989,0.7509438355960443,0.8161141580330922,0.0,18.310074259019633,-43.02591753913358,-0.00012230222431333288,1.6133085555194483e-07,-5.108114289563854e-06,-0.00012230222431977456,-18.310074097688773,43.02591243101929,46.75989685616887
51,0.25472497940063477,1775831872.3369517,0.005050662,-19.309318948314623,-0.920229615584195,0.7724633419970497,-19.310000261904182,-0.9195620074944626,0.7728212341525583,-0.0006813135895598066,0.0006676080897324299,0.0003578921555086323,0.0010188108577011083,0.642584284539287,-0.6224806475598204,-0.3166641503893683,0.9490378830506088,-3.5789994140196563e-09,4.254344210470171e-07,0.00048226404164806406,0.00048226422931208727,-3.959019804510454e-05,-1.991257982607156e-08,-5.324682345021161e-07,0.0,0.34019254543703975,-0.7695081134663171,-2.358112739420344e-06,2.7065741155807084e-09,-9.23564827776871e-08,-2.3581127392979795e-06,-0.3401925427304655,0.7695080211098344,0.8413522215382531,0.0,19.491597075354868,-44.08956720269404,-0.0001351099075848186,1.5507527376212807e-07,-5.291636673834145e-06,-0.00013510990757780762,-19.491596920279587,44.08956191105737,48.20593137809774
52,0.2597367763519287,1775831872.3419635,0.010062495,-19.30732274289744,-0.9221783858305572,0.7714633933721473,-19.310000261921747,-0.9195620050706311,0.7728236152005701,-0.002677519024306463,0.0026163807599260958,0.0013602218284227696,0.003983059104375966,0.7631807106023957,-0.7370581866858281,-0.37361293496664827,1.1248494089301784,-3.448560602905076e-09,5.455074242368286e-07,0.0004702042686417019,0.000470204585089427,-2.939788120414435e-05,-1.6519098033090373e-08,-3.2443118216430417e-07,0.0,0.3385766099176472,-0.7679876800086496,-2.5305396124240385e-06,2.6157017270855338e-09,-9.449432950961062e-08,-2.5305396125219204e-06,-0.3385766073019454,0.7679875855143203,0.8393086741614285,0.0,19.399010790128397,-44.00245278253921,-0.00014498923968256851,1.4986866942708136e-07,-5.414126268819199e-06,-0.0001449892396881767,-19.39901064025972,44.00244736841295,48.088844738170664
53,0.26473474502563477,1775831872.3469615,0.01506054,-19.304062242604022,-0.925348034759293,0.7698437376786329,-19.310000261938665,-0.9195620020273702,0.7728259366937746,-0.0059380193346427745,0.005786032731922797,0.00298219901514174,0.00881088868159085,0.8808008774000181,-0.8480129840951777,-0.4282407717341144,1.2955023602441176,-3.3221803092925614e-09,6.727925198286854e-07,0.0004584446285766227,0.00045844512226827014,-1.9364910121346403e-05,-1.3598323785163306e-08,-1.2737496573346086e-07,0.0,0.33689646952926483,-0.7664348940112724,-2.6523571148041187e-06,2.5405877503489386e-09,-9.561915406869517e-08,-2.6523571148295844e-06,-0.3368964669886769,0.7664347983921185,0.8372105647104885,0.0,19.302745836884615,-43.913484698402485,-0.00015196886843977196,1.4556495557763061e-07,-5.4785739687474074e-06,-0.00015196886844123103,-19.30274569131965,43.913479219828524,47.96863192167529
54,0.2697453498840332,1775831872.351972,0.020071146,-19.29956054272859,-0.92970502116091,0.767628651806492,-19.310000261954976,-0.9195619983347848,0.7728282001457655,-0.010439719226386757,0.010143022826125225,0.0051995483392734965,0.01545651812374082,0.9978340757193394,-0.957628110092229,-0.4816909474684161,1.464496708353591,-3.199141317367711e-09,8.048323883431812e-07,0.0004469828234011704,0.00044698354799823417,-9.615946075194257e-06,-1.1084400444982775e-08,5.774611550054462e-08,0.0,0.33515153500266237,-0.7648402095367557,-2.724665672769027e-06,2.479037554232084e-09,-9.578802007654591e-08,-2.7246656726376273e-06,-0.33515153252362495,0.7648401137487357,0.8350490700309398,0.0,19.202768452983637,-43.82211600835764,-0.00015611184363383828,1.4203838911193236e-07,-5.488249278300477e-06,-0.00015611184362630964,-19.202768310945256,43.82211052010837,47.844787399097164
55,0.2747504711151123,1775831872.3569772,0.02507624,-19.293871061408094,-0.9351863611220042,0.7648574361432219,-19.31000026197066,-0.9195619939751072,0.7728304069943707,-0.016129200562566837,0.015624367146896967,0.007972970851148786,0.02382939830801038,1.2320315017082526,-1.1781313289327076,-0.5899756580007214,1.803875363335179,-3.0788263733409547e-09,9.39238672409276e-07,0.0004358046912597157,0.00043580570338482146,-2.523307315111958e-07,-8.920645359794505e-09,2.2990013141624434e-07,0.0,0.33319090063499274,-0.7630381846474135,-2.7491594463883023e-06,2.429162108136087e-09,-9.506331331695853e-08,-2.749159446313598e-06,-0.3331908982058307,0.7630380895841,0.8326123352502767,0.0,19.090432378547863,-43.7188675876208,-0.00015751523348657163,1.391807365492995e-07,-5.446726639591518e-06,-0.00015751523348229142,-19.090432239367132,43.71886214089415,47.705172780372436
56,0.2797377109527588,1775831872.3619645,0.030063423,-19.28705577333602,-0.9417211328700659,0.7615732142098592,-19.310000261985756,-0.9195619889422839,0.7728325586612237,-0.02294448864973475,0.022159143927781955,0.01125934445136445,0.03382676538607311,1.4574885373171755,-1.387961852875061,-0.6914055384539043,2.1280865959946427,-2.9607041978585572e-09,1.0737173545591737e-06,0.00042490638917245215,0.0004249077457958311,8.632673904457504e-06,-7.0582697106644585e-09,3.88421031229991e-07,0.0,0.33090112225984003,-0.7609686906586981,-2.727985597968654e-06,2.389335419713204e-09,-9.351170709233053e-08,-2.727985597861249e-06,-0.3309011198705045,0.760968597146991,0.8298004320213719,0.0,18.95923774163129,-43.60029431633971,-0.00015630206133607604,1.3689883539068574e-07,-5.3578261514541065e-06,-0.00015630206132992216,-18.95923760473245,43.600288958513566,47.544062592956976
57,0.28473901748657227,1775831872.3669658,0.03506485,-19.27911159453282,-0.9493007653923491,0.7577877913314359,-19.310000262000273,-0.9195619832414486,0.7728346565077346,-0.030888667467451114,0.029738782150900533,0.015046865176298718,0.045441314828767926,1.6756675417436642,-1.5884834747635166,-0.7866416962892088,2.4392512413424727,-2.844317536666012e-09,1.2060916985032796e-06,0.00041427799782423324,0.0004142797534837187,1.6950715616778812e-05,-5.455282564899431e-09,5.329356457428777e-07,0.0,0.3283621306983717,-0.7586949431706094,-2.6637799754967134e-06,2.3581579034239923e-09,-9.120248314350087e-08,-2.663779975708991e-06,-0.32836212834021383,0.7586948519681265,0.8267040375721822,0.0,18.813764240939825,-43.47001818159376,-0.0001526233501474235,1.3511249529161353e-07,-5.225517365235633e-06,-0.00015262335015958612,-18.81376410582733,43.47001295607641,47.366652259310676
58,0.28973937034606934,1775831872.3719661,0.040065202,-19.2700980982403,-0.9578565383364327,0.7535432476856918,-19.310000262014206,-0.9195619768882793,0.7728367018879174,-0.039902163773906096,0.03829456144815335,0.019293454202225613,0.05857382935577453,1.8858689478763682,-1.7790428627758594,-0.8753668131491505,2.7363775787929825,-2.729272809306014e-09,1.3343237305155963e-06,0.0004039163591137376,0.00040391856306310625,2.462270988637229e-05,-4.075542791283683e-09,6.631857879914568e-07,0.0,0.32562379471720365,-0.756258077094116,-2.559558011500631e-06,2.334424852648722e-09,-8.820611987877553e-08,-2.559558011316909e-06,-0.3256237923827787,0.7562579888879961,0.823381442546048,0.0,18.65686914633008,-43.33039604017208,-0.0001466518714778836,1.3375269164722085e-07,-5.05383839627883e-06,-0.0001466518714673571,-18.656869012577385,43.33039098633369,47.17628158728203
59,0.29472780227661133,1775831872.3769546,0.04505357,-19.260078621757966,-0.9673165791395179,0.7488829551886749,-19.310000262027557,-0.9195619699082576,0.7728386961006786,-0.04992164026959145,0.04775460923126029,0.023955740912003698,0.07312010935905329,2.087665212570666,-1.95926310873164,-0.9574127272997527,3.0188900442729016,-2.6152312561955926e-09,1.4565337801310081e-06,0.00039381316099681887,0.00039381585452061025,3.1572147675817025e-05,-2.8879450758746565e-09,7.784720342615129e-07,0.0,0.32271296487917095,-0.7536805166134439,-2.4187601371277217e-06,2.317099298542786e-09,-8.459571182120244e-08,-2.418760137068432e-06,-0.3227129625620715,0.7536804320177319,0.8198645313817853,0.0,18.490090881730058,-43.182712703189864,-0.00013858474751190272,1.3276001051922518e-07,-4.846977252259867e-06,-0.00013858474750850564,-18.49009074897004,43.1827078562126,46.974777420647335
60,0.2997314929962158,1775831872.3819582,0.050057333,-19.249036740286037,-0.9776842022256997,0.7438133257774792,-19.310000262040358,-0.9195619623358272,0.772840640448541,-0.06096352175432074,0.05812223988987253,0.029027314671061788,0.08909169855557961,2.282155799061503,-2.1301232211703134,-1.0332231165447627,3.2883445739644612,-2.5019012688198646e-09,1.5710187032965884e-06,0.0003839660787591897,0.00038396929270937004,3.775001267227711e-05,-1.865717883247643e-09,8.788712550292136e-07,0.0,0.31962194933359306,-0.7509550893295522,-2.245121548579767e-06,2.3052886616500816e-09,-8.044612821846414e-08,-2.2451215486718468e-06,-0.3196219470283044,0.750955008883424,0.8161443587958617,0.0,18.312988736559117,-43.026557222453064,-0.00012863598922749627,1.3208331087191173e-07,-4.6092236250862715e-06,-0.00012863598923277205,-18.312988604475805,43.02655261322944,46.76162723241364
61,0.3047335147857666,1775831872.3869603,0.005036384,-19.309322776034705,-0.920225828540752,0.7724955523120843,-19.310000262052593,-0.9195619542134802,0.7728425361687931,-0.0006774860178886399,0.000663874327271774,0.0003469838567087269,0.0010100070413920981,0.6422369309201327,-0.6221484984594798,-0.3166688157782899,0.9485864053735543,-2.3890318468665047e-09,1.6762644862957946e-06,0.00037436413866524603,0.0003743678915010034,4.311327099122689e-05,-9.858215071989683e-10,9.644321629505681e-07,0.0,0.34036623145781475,-0.7695115975033092,-2.0426192958589557e-06,2.298224655807529e-09,-7.583167704372917e-08,-2.04261929592775e-06,-0.3403662291595899,0.7695115216716322,0.8414256663198963,0.0,19.5015485513057,-44.089766823309354,-0.00011703346480470219,1.316785731506777e-07,-4.344835048004773e-06,-0.00011703346480864382,-19.501548419627117,44.089762478474306,48.21013945411316
62,0.3097243309020996,1775831872.391951,0.010027201,-19.30734130528437,-0.9221602515173734,0.7715021176729887,-19.310000262064253,-0.9195619455907833,0.7728443844964011,-0.00265895677988226,0.00259830592659005,0.0013422668234124302,0.003952584606389661,0.7623407402308617,-0.7362620027491205,-0.3733915513721324,1.12368429353799,-2.276465939190622e-09,1.7709564168405239e-06,0.00036500489083972517,0.00036500918704702805,4.7635494106480544e-05,-3.044132481004262e-09,1.03542031240488e-06,0.0,0.33873285999139124,-0.7679978846376174,-1.815388333169595e-06,2.2901987849269075e-09,-7.082598581781133e-08,-1.8153883329929954e-06,-0.33873285770119255,0.7679978138116317,0.8393810760966426,0.0,19.407963259902537,-44.00303746471056,-0.00010401408966790714,1.3121872462230114e-07,-4.058030067214014e-06,-0.00010401408965778873,-19.407963128683818,44.0030334066805,48.09299306348701
63,0.31468629837036133,1775831872.396913,0.01498925,-19.304117479077526,-0.9252943940985872,0.7698996718937758,-19.310000262075352,-0.9195619365233648,0.7728461866040287,-0.005882782997826297,0.005732457575222338,0.0029465147102528677,0.00872640559388427,0.8791417600951659,-0.8464527285009056,-0.42765072969733137,1.2931579959697554,-2.16464247211142e-09,1.8539860068180803e-06,0.0003558781848320594,0.00035588301407648074,5.129693708007828e-05,-5.936132720175622e-09,1.0919898784643947e-06,0.0,0.33704798170222816,-0.7664567942774548,-1.5677016650562424e-06,2.2675764243068845e-09,-6.55016061045393e-08,-1.567701664928478e-06,-0.3370479794346517,0.7664567287758488,0.8372916203624721,0.0,19.31142684494027,-43.91473949122495,-8.98226889433545e-05,1.2992255883615085e-07,-3.7529655811184507e-06,-8.982268893603414e-05,-19.31142671501771,43.914735738259374,47.97327606843963
64,0.3196890354156494,1775831872.4019158,0.019991974,-19.299641068236568,-0.929627194888474,0.7676958269754339,-19.310000262085886,-0.9195619270718686,0.772847943664786,-0.01035919384931816,0.010065267816605439,0.005152116689352115,0.015335149813694193,0.9942651873789933,-0.9542510026456087,-0.4801979943249638,1.45936573642033,-2.0543902485377027e-09,1.924455368206949e-06,0.0003469822363548436,0.0003469875730894311,5.4095611588087156e-05,-1.1992909461623592e-08,1.134689632016499e-06,0.0,0.3352928032700615,-0.7648653284693804,-1.3038590228340246e-06,2.2232846541947868e-09,-5.992917883302168e-08,-1.3038590229719205e-06,-0.33529280104677683,0.7648652685402015,0.835128817281842,0.0,19.210862528484732,-43.82355521718291,-7.470561908844123e-05,1.2738482734156398e-07,-3.4336890168168902e-06,-7.47056190963421e-05,-19.210862401099902,43.82355178349389,47.84935658000163
65,0.32474279403686523,1775831872.4069695,0.025045687,-19.293909328374152,-0.9351495176573291,0.7649028154872379,-19.31000026209588,-0.9195619173009005,0.7728496567924109,-0.01609093372172765,0.015587600356428588,0.00794684130517298,0.023770648279724475,1.2306259744097936,-1.1768147600595218,-0.5895138627542124,1.801904509890964,-1.947060981883231e-09,1.9816780067919356e-06,0.00033830609359523185,0.0003383118975371387,5.603554928677527e-05,-1.7574491057563373e-08,1.1640527899780198e-06,0.0,0.33329825030396254,-0.7630498435995916,-1.0281771521826394e-06,2.1490241239502997e-09,-5.417694382110567e-08,-1.0281771523068528e-06,-0.33329824815493847,0.7630497894226478,0.8326660215009108,0.0,19.09658306151196,-43.71953559637415,-5.89102114118454e-05,1.2313001237415127e-07,-3.104110227866718e-06,-5.89102114189623e-05,-19.096582938381953,43.71953249226392,47.70824877595165
66,0.3297302722930908,1775831872.411957,0.030033248,-19.28710037100785,-0.9416784086959964,0.761620515998692,-19.310000262105355,-0.9195619072779709,0.7728513270895162,-0.022899891097505787,0.022116501418025458,0.011230811090824244,0.03375908418498535,1.4561481281866404,-1.3867213783597618,-0.6909940279185122,2.1262258344401013,-1.8440255196029876e-09,2.025177999344417e-06,0.0003298472018461089,0.00032985341883181565,5.712402409886969e-05,-2.23785616706521e-08,1.1804188077958276e-06,0.0,0.3309971228685618,-0.7609816530734128,-7.449254579382722e-07,2.0488465340656887e-09,-4.831044819289677e-08,-7.44925457762946e-07,-0.3309971208197151,0.7609816047629647,0.8298506472728169,0.0,18.964738171341736,-43.60103700799517,-4.268108479171313e-05,1.1739025927197061e-07,-2.7679847878383996e-06,-4.2681084781667676e-05,-18.964738053951468,43.601034240010385,47.546939714931966
67,0.3347289562225342,1775831872.4169557,0.035031861,-19.27916754748887,-0.9492474462068259,0.7578393012780433,-19.310000262114325,-0.9195618970724487,0.772852955614064,-0.030832714625454116,0.029685549134377154,0.015013654336020643,0.04535744630273759,1.674254443647971,-1.5871929121899189,-0.7862204328309002,2.4373042181028,-1.7464640566256404e-09,2.0546876268945873e-06,0.0003215987859386256,0.00032160534955359834,5.7392910798376574e-05,-2.6513426220483087e-08,1.1847730218563344e-06,0.0,0.3284516988734053,-0.7587103614962343,-4.5830324469200536e-07,1.926361776654709e-09,-4.2392666245084563e-08,-4.5830324468809636e-07,-0.32845169694704346,0.7587103191035682,0.826753811930638,0.0,18.81889611934794,-43.470901586579224,-2.6258841658003354e-05,1.1037239961763775e-07,-2.4289208581500525e-06,-2.6258841657779385e-05,-18.818896008975535,43.47089915765838,47.36950411997817
