sample_idx,t_rel_s,stamp_s,t_in_traj_s,x_des_m,y_des_m,z_des_m,x_act_m,y_act_m,z_act_m,ex_m,ey_m,ez_m,e_pos_norm_m,vx_des_mps,vy_des_mps,vz_des_mps,speed_des_mps,vx_act_mps,vy_act_mps,vz_act_mps,speed_act_mps,wx_act_radps,wy_act_radps,wz_act_radps,roll_des_rad,pitch_des_rad,yaw_des_rad,roll_act_rad,pitch_act_rad,yaw_act_rad,e_roll_rad,e_pitch_rad,e_yaw_rad,e_ang_norm_rad,roll_des_deg,pitch_des_deg,yaw_des_deg,roll_act_deg,pitch_act_deg,yaw_act_deg,e_roll_deg,e_pitch_deg,e_yaw_deg,e_ang_norm_deg
0,0.0,1775825040.7722619,0.041763151,-19.267530300574858,-0.9611275773476203,0.8385178024643379,-19.31,-0.92,0.8578163582455836,-0.04246969942514056,0.04112757734762029,0.01929855578124562,0.06218992879066612,1.9227001361717728,-1.8072092856314221,-0.7021421722924552,2.7305283089209964,0.0,0.0,0.001188320319140926,0.001188320319140926,0.0,0.0,0.0,0.0,0.260066868365768,-0.7544446065340928,0.0,0.0,0.0,0.0,-0.26006686836576787,0.7544446065340926,0.7980109274627506,0.0,14.900733948542847,-43.22649183081153,0.0,0.0,0.0,0.0,-14.90073394854284,43.22649183081152,45.72265814893609
1,0.004930734634399414,1775825040.7771926,0.046693677,-19.257483608873958,-0.9705778043022171,0.8348859409169337,-19.31,-0.92,0.8578222254913213,-0.052516391126040673,0.05057780430221703,0.022936284574387567,0.07643401582419922,2.1221556513944857,-1.9791451317031634,-0.7479349555405661,2.9966592663847114,0.0,0.0,0.0011586967164261808,0.0011586967164261808,0.0,0.0,0.0,0.0,0.25225640796352145,-0.750542733859189,0.0,0.0,0.0,0.0,-0.25225640796352167,0.7505427338591888,0.7918002846093728,0.0,14.453227531440069,-43.00293099434212,0.0,0.0,0.0,0.0,-14.453227531440081,43.00293099434211,45.36681452537445
2,0.009930133819580078,1775825040.782192,0.051693103,-19.2463060801691,-0.9810045474372505,0.8309831916058263,-19.31,-0.92,0.8578279464271233,-0.06369391983090011,0.06100454743725048,0.026844754821297,0.09219062367108936,2.3188974895672847,-2.1449919052166035,-0.7901872857605353,3.256174409816497,0.0,0.0,0.0011298053691114866,0.0011298053691114866,0.0,0.0,0.0,0.0,0.24512079819541274,-0.74645954568409,0.0,0.0,0.0,0.0,-0.24512079819541288,0.7464595456840901,0.7856755431161483,0.0,14.044387207475117,-42.768981544951224,0.0,0.0,0.0,0.0,-14.044387207475124,42.76898154495123,45.01589268720404
3,0.01491999626159668,1775825040.7871819,0.056683072,-19.234182677342588,-0.992217068008697,0.8268876655570099,-19.31,-0.92,0.8578335247592566,-0.07581732265741081,0.07221706800869698,0.030945859202246684,0.10918432821827491,2.5097438037337656,-2.301998552902656,-0.8281622519950237,3.5048343774813984,0.0,0.0,0.0011016403542148212,0.0011016403542148212,0.0,0.0,0.0,0.0,0.23854739795133365,-0.7422503185768781,0.0,0.0,0.0,0.0,-0.23854739795133373,0.7422503185768781,0.7796411972804086,0.0,13.667759116439118,-42.527810596695915,0.0,0.0,0.0,0.0,-13.667759116439123,42.527810596695915,44.670150138693806
4,0.020064830780029297,1775825040.7923267,0.061827922,-19.22070058259923,-1.0045752064568172,0.8224777945309069,-19.31,-0.92,0.857838963985148,-0.08929941740077041,0.08457520645681715,0.03536116945424117,0.12797563752723337,2.7007359908647115,-2.4549594140172912,-0.8629251799679412,3.7503920439131186,0.0,0.0,0.001074171488755632,0.001074171488755632,0.0,0.0,0.0,0.0,0.23216947124670725,-0.7377633374162297,0.0,0.0,0.0,0.0,-0.23216947124670728,0.7377633374162298,0.7734322241893657,0.0,13.302330834220244,-42.270725513436055,0.0,0.0,0.0,0.0,-13.302330834220246,42.27072551343606,44.314402185466754
5,0.0249178409576416,1775825040.7971797,0.066680781,-19.207096400734823,-1.0169326630994073,0.8181644010911597,-19.31,-0.92,0.8578442676287842,-0.10290359926517567,0.09693266309940729,0.03967986653762445,0.14683182122998661,2.8755125323074,-2.590940101512678,-0.8916296688191658,3.9719700904465554,0.0,0.0,0.0010473932958366503,0.0010473932958366503,0.0,0.0,0.0,0.0,0.22640985567310626,-0.7333871426860056,0.0,0.0,0.0,0.0,-0.22640985567310645,0.7333871426860057,0.7675403076080504,0.0,12.972329170235087,-42.01998802506682,0.0,0.0,0.0,0.0,-12.972329170235097,42.01998802506683,43.976820232114235
6,0.029931068420410156,1775825040.802193,0.071694212,-19.192164947969886,-1.030371030466981,0.8135723262696977,-19.31,-0.92,0.8578494390157652,-0.11783505203011302,0.11037103046698105,0.04427711274606749,0.16741363912898696,3.0505911555084526,-2.722959207699121,-0.9171187315872573,4.19067059224273,0.0,0.0,0.0010212769890654263,0.0010212769890654263,0.0,0.0,0.0,0.0,0.22063341412640636,-0.72871190935751,0.0,0.0,0.0,0.0,-0.22063341412640636,0.7287119093575098,0.7613804241432413,0.0,12.641363449005162,-41.752116887105124,0.0,0.0,0.0,0.0,-12.641363449005162,41.75211688710512,43.62388490728825
7,0.0349125862121582,1775825040.8071744,0.076675612,-19.176473312567175,-1.0443578214748606,0.8088934894511164,-19.31,-0.92,0.8578544814963524,-0.13352668743282337,0.12435782147486052,0.04896099204523596,0.1889217371315695,3.2190343154470997,-2.8456184416287438,-0.9382524328216649,4.397731672926322,0.0,0.0,0.0009958172808161362,0.0009958172808161362,0.0,0.0,0.0,0.0,0.21500178984829016,-0.7239032906523932,0.0,0.0,0.0,0.0,-0.21500178984829033,0.7239032906523932,0.7551567677345755,0.0,12.318695146065695,-41.47660333001427,0.0,0.0,0.0,0.0,-12.318695146065703,41.47660333001427,43.26729566193216
8,0.039902448654174805,1775825040.8121643,0.081665416,-19.15992774381885,-1.0589595498909998,0.8041116640131881,-19.31,-0.92,0.857859398232387,-0.15007225618114717,0.1389595498909998,0.05374773421919887,0.21147164707096497,3.3822485285385,-2.959974012050764,-0.9552321316700083,4.594945014490552,0.0,0.0,0.0009709869782425475,0.0009709869782425475,0.0,0.0,0.0,0.0,0.20941489028829405,-0.7189148171747866,0.0,0.0,0.0,0.0,-0.20941489028829396,0.7189148171747863,0.748794438165719,0.0,11.99858938071442,-41.19078485353446,0.0,0.0,0.0,0.0,-11.998589380714415,41.190784853534446,42.902761029765394
9,0.0449061393737793,1775825040.817168,0.086669216,-19.142531779540914,-1.0741538694859842,0.7992418690585505,-19.31,-0.92,0.8578641924100668,-0.16746822045908516,0.1541538694859842,0.05862232335151629,0.23504381960894938,3.540379537491666,-3.0660966977575916,-0.9680486106836026,4.782505027925863,0.0,0.0,0.0009467811320971314,0.0009467811320971314,0.0,0.0,0.0,0.0,0.20382288481290603,-0.7137305250248875,0.0,0.0,0.0,0.0,-0.20382288481290622,0.7137305250248875,0.7422634510237971,0.0,11.67819106796064,-40.893746793582444,0.0,0.0,0.0,0.0,-11.67819106796065,40.893746793582444,42.528563030479056
10,0.04990363121032715,1775825040.8221655,0.091666698,-19.12438186665939,-1.0898376437584751,0.7943247342517272,-19.31,-0.92,0.8578688670364448,-0.18561813334060773,0.1698376437584751,0.0635441327847176,0.2594933014041868,3.692772621497652,-3.1635359825391833,-0.9766401462775657,4.959672924923967,0.0,0.0,0.0009231738739005443,0.0009231738739005443,0.0,0.0,0.0,0.0,0.19821157705662384,-0.7083611888027508,0.0,0.0,0.0,0.0,-0.19821157705662396,0.7083611888027508,0.7355701211178444,0.0,11.356686815976646,-40.58610648926729,0.0,0.0,0.0,0.0,-11.356686815976653,40.58610648926729,42.14506347597927
11,0.05490708351135254,1775825040.827169,0.096670102,-19.10546137573155,-1.1060064161041534,0.7893692972288895,-19.31,-0.92,0.8578734251413753,-0.20453862426844793,0.18600641610415336,0.06850412791248583,0.2848284592357143,3.839801685190557,-3.252531534317959,-0.9810282814729618,5.126934254734966,0.0,0.0,0.000900160361057896,0.000900160361057896,0.0,0.0,0.0,0.0,0.19253527362922557,-0.7027831146404121,0.0,0.0,0.0,0.0,-0.1925352736292254,0.702783114640412,0.7286795851505373,0.0,11.031458586351082,-40.26650638195431,0.0,0.0,0.0,0.0,-11.031458586351071,40.2665063819543,41.750264846469484
12,0.059912681579589844,1775825040.8321745,0.101675626,-19.08581064645957,-1.1226061581730062,0.7844003480133134,-19.31,-0.92,0.8578778695832161,-0.22418935354042802,0.2026061581730062,0.07347752156990273,0.31098081572109193,3.9813416313904773,-3.3329950840540574,-0.981199519590825,5.28419245612958,0.0,0.0,0.0008777155855306962,0.0008777155855306962,0.0,0.0,0.0,0.0,0.18676975716847005,-0.6969887172633521,0.0,0.0,0.0,0.0,-0.1867697571684701,0.696988717263352,0.7215789729372538,0.0,10.701118826436586,-39.9345118674271,0.0,0.0,0.0,0.0,-10.70111882643659,39.93451186742709,41.34342973468929
13,0.06491565704345703,1775825040.8371775,0.106678777,-19.065475137810374,-1.139579076102486,0.7794434478668856,-19.31,-0.92,0.8578822032402331,-0.24452486218962477,0.21957907610248595,0.07843875537334755,0.3378757423009177,4.117265833514417,-3.404855056661977,-0.9771540267486862,5.431366853076026,0.0,0.0,0.00085583487936854,0.00085583487936854,0.0,0.0,0.0,0.0,0.18089436168958223,-0.6909710558023833,0.0,0.0,0.0,0.0,-0.18089436168958217,0.6909710558023834,0.7142574956188711,0.0,10.364483462526069,-39.589725263175055,0.0,0.0,0.0,0.0,-10.364483462526065,39.58972526317506,40.9239399845452
14,0.06991314888000488,1775825040.842175,0.111676279,-19.044497534899136,-1.1568703780960385,0.7745228704324143,-19.31,-0.92,0.8578864288285916,-0.2655024651008624,0.2368703780960385,0.08336355839617726,0.36544304325362076,4.247498628993006,-3.4680849903452984,-0.9689045886649065,5.568449892518719,0.0,0.0,0.0008344948483489798,0.0008344948483489798,0.0,0.0,0.0,0.0,0.17488914808219821,-0.6847215877815481,0.0,0.0,0.0,0.0,-0.17488914808219835,0.684721587781548,0.7067035212102748,0.0,10.020410067748433,-39.23165712137922,0.0,0.0,0.0,0.0,-10.020410067748442,39.23165712137922,40.4911291323828
15,0.07492613792419434,1775825040.847188,0.116689125,-19.022815606886166,-1.174510726830476,0.769639181980522,-19.31,-0.92,0.8578905490860409,-0.2871843931138329,0.25451072683047593,0.08825136710551895,0.39374978033762853,4.372570957968681,-3.522925597328697,-0.9564042951368286,5.696059227443222,0.0,0.0,0.0008136915451264207,0.0008136915451264207,0.0,0.0,0.0,0.0,0.1687054425234878,-0.6781992982372479,0.0,0.0,0.0,0.0,-0.16870544252348774,0.678199298237248,0.6988675228300006,0.0,9.66610983748274,-38.85795745772852,0.0,0.0,0.0,0.0,-9.666109837482736,38.857957457728524,40.04215949692174
16,0.07991337776184082,1775825040.8521752,0.121676423,-19.000635801807817,-1.192312671229256,0.7648530575758163,-19.31,-0.92,0.857894566597237,-0.3093641981921813,0.27231267122925595,0.09304150902142061,0.4225128642255608,4.491479507619723,-3.5689556957103803,-0.9397680032578377,5.813260429849905,0.0,0.0,0.0007934027106324655,0.0007934027106324655,0.0,0.0,0.0,0.0,0.1623719067691972,-0.6714431340892357,0.0,0.0,0.0,0.0,-0.16237190676919733,0.6714431340892357,0.6907970168026497,0.0,9.303224969366681,-38.470857766349816,0.0,0.0,0.0,0.0,-9.303224969366688,38.470857766349816,39.57975356301964
17,0.08490753173828125,1775825040.8571694,0.126670517,-18.97784531426758,-1.2103476272067444,0.7601540278231211,-19.31,-0.92,0.8578984839663807,-0.33215468573241935,0.29034762720674434,0.09774445614325955,0.451865531530488,4.605026588391859,-3.6065218984676246,-0.9189114986964315,5.920951648709775,0.0,0.0,0.0007736242591433128,0.0007736242591433128,0.0,0.0,0.0,0.0,0.1558264502596333,-0.6643946029366453,0.0,0.0,0.0,0.0,-0.15582645025963338,0.6643946029366452,0.6824236741291003,0.0,8.928197936382238,-38.06700667953991,0.0,0.0,0.0,0.0,-8.928197936382244,38.0670066795399,39.09999636740847
18,0.09201812744140625,1775825040.86428,0.133781102,-18.944448318455194,-1.2363023453634323,0.7536664933681192,-19.31,-0.92,0.8579023036511159,-0.36555168154480455,0.31630234536343227,0.10423581028299667,0.4945101714909361,4.7571574895949995,-3.645285906313989,-0.8819682370101224,6.0577656516801595,0.0,0.0,0.0007543350195908706,0.0007543350195908706,0.0,0.0,0.0,0.0,0.14611232657140766,-0.6538353463013252,0.0,0.0,0.0,0.0,-0.1461123265714077,0.6538353463013253,0.6699622915128013,0.0,8.371619647378854,-37.46200583954056,0.0,0.0,0.0,0.0,-8.371619647378855,37.46200583954056,38.38601173659685
19,0.09510207176208496,1775825040.867364,0.136865116,-18.929634699106835,-1.2476332640293677,0.7509402434633562,-19.31,-0.92,0.8579052907357942,-0.380365300893164,0.32763326402936765,0.10696504727243805,0.5132863130457304,4.8196561418977,-3.6567207574554734,-0.8632976611014338,6.111135318073162,0.0,0.0,0.000739256321378056,0.000739256321378056,0.0,0.0,0.0,0.0,0.14174045663417442,-0.6490521704041462,0.0,0.0,0.0,0.0,-0.14174045663417445,0.6490521704041461,0.6643486110117165,0.0,8.121129951395265,-37.1879500479635,0.0,0.0,0.0,0.0,-8.121129951395266,37.18795004796349,38.0643715363498
20,0.1001136302947998,1775825040.8723755,0.141876571,-18.905161629717583,-1.2661058109591514,0.7466404154072959,-19.31,-0.92,0.857908940757621,-0.4048383702824161,0.3461058109591514,0.11126852535032516,0.5441176556281283,4.916719636256862,-3.6683625322039566,-0.8295421075743993,6.190246825246196,0.0,0.0,0.0007208338514025628,0.0007208338514025628,0.0,0.0,0.0,0.0,0.13441228579398318,-0.64100017293313,0.0,0.0,0.0,0.0,-0.13441228579398334,0.64100017293313,0.6549411303870494,0.0,7.7012566907014675,-36.72660457622426,0.0,0.0,0.0,0.0,-7.701256690701477,36.72660457622426,37.52536260070528
21,0.10510444641113281,1775825040.8773663,0.146867474,-18.880319306050616,-1.2845392476337105,0.742536850669128,-19.31,-0.92,0.8579124998466398,-0.4296806939493827,0.3645392476337105,0.11537564917751175,0.5751746710707166,5.007853506292029,-3.671417494234343,-0.7917213133813166,6.259770426741989,0.0,0.0,0.0007028735315392537,0.0007028735315392537,0.0,0.0,0.0,0.0,0.1268173445965839,-0.6326178764653657,0.0,0.0,0.0,0.0,-0.12681734459658411,0.6326178764653658,0.6452038565554902,0.0,7.266098614440453,-36.246334365993945,0.0,0.0,0.0,0.0,-7.266098614440465,36.24633436599395,36.96745790619376
22,0.11011743545532227,1775825040.8823793,0.151880534,-18.854922730091623,-1.3030483976066245,0.7386156565286006,-19.31,-0.92,0.8579159702272979,-0.4550772699083758,0.38304839760662446,0.11930031369869731,0.606674510215215,5.093834947766143,-3.6659076636667804,-0.749509602656637,6.320427051876245,0.0,0.0,0.0006853560403350941,0.0006853560403350941,0.0,0.0,0.0,0.0,0.11886498585365414,-0.6238092372492047,0.0,0.0,0.0,0.0,-0.11886498585365413,0.6238092372492048,0.6350329513808114,0.0,6.810462021296617,-35.74163651565449,0.0,0.0,0.0,0.0,-6.810462021296616,35.7416365156545,36.3847079658569
23,0.11510634422302246,1775825040.8873682,0.15686941,-18.82923457044564,-1.3214195091615264,0.7349339580737487,-19.31,-0.92,0.8579193541418856,-0.48076542955435997,0.40141950916152636,0.12298539606813685,0.638277704636552,5.1738725110192645,-3.6518891720391875,-0.7032997418425394,6.37180365454034,0.0,0.0,0.0006682781031356723,0.0006682781031356723,0.0,0.0,0.0,0.0,0.11060222863451857,-0.6146299100566679,0.0,0.0,0.0,0.0,-0.11060222863451852,0.6146299100566681,0.6245020250689266,0.0,6.337040905498896,-35.21569980875246,0.0,0.0,0.0,0.0,-6.337040905498893,35.215699808752476,35.78133033382263
24,0.12010574340820312,1775825040.8923676,0.161868761,-18.803105739456715,-1.3397377011616816,0.7314862945002945,-19.31,-0.92,0.8579226537068253,-0.5068942605432838,0.4197377011616815,0.12643635920653085,0.6701549687032236,5.248545025235621,-3.629299806665211,-0.6527880165522169,6.4144504178565365,0.0,0.0,0.0006516214261600898,0.0006516214261600898,0.0,0.0,0.0,0.0,0.10194483655506177,-0.6049895532937309,0.0,0.0,0.0,0.0,-0.1019448365550617,0.604989553293731,0.6135186299492351,0.0,5.8410088777560345,-34.66334805323577,0.0,0.0,0.0,0.0,-5.84100887775603,34.66334805323578,35.15202814873972
25,0.1251077651977539,1775825040.8973696,0.166870759,-18.77660332477344,-1.3579311724518999,0.7283000657640317,-19.31,-0.92,0.8579258710556905,-0.5333966752265589,0.43793117245189983,0.1296258052916588,0.7022097794429766,5.317713772050239,-3.598141291753428,-0.5980369545789125,6.448437695745833,0.0,0.0,0.000635383150917921,0.000635383150917921,0.0,0.0,0.0,0.0,0.09287483265847526,-0.5948707585308837,0.0,0.0,0.0,0.0,-0.09287483265847518,0.5948707585308837,0.6020771992829895,0.0,5.321335934314416,-34.08358381956555,0.0,0.0,0.0,0.0,-5.321335934314411,34.08358381956555,34.49648245997229
26,0.13009977340698242,1775825040.9023616,0.171862859,-18.749822205744913,-1.375911934278704,0.7254036876729286,-19.31,-0.92,0.857929008203123,-0.5601777942550861,0.455911934278704,0.1325253205301944,0.734314519518628,5.381217323042089,-3.5585103691740856,-0.5391930262220931,6.473887938855159,0.0,0.0,0.0006195457361178239,0.0006195457361178239,0.0,0.0,0.0,0.0,0.08338395148347803,-0.584266549336311,0.0,0.0,0.0,0.0,-0.08338395148347821,0.5842665493363111,0.5901866518639328,0.0,4.777548499126911,-33.47600738764271,0.0,0.0,0.0,0.0,-4.7775484991269215,33.47600738764271,33.81520427676017
27,0.13522672653198242,1775825040.9074886,0.176989789,-18.72200239641288,-1.3941498547101825,0.7227459456758127,-19.31,-0.92,0.8579320671774902,-0.5879976035871195,0.47414985471018245,0.13518612150167741,0.7673555590419273,5.440687410215264,-3.508934947709243,-0.47439118808833025,6.491436740989316,0.0,0.0,0.0006041057733254333,0.0006041057733254333,0.0,0.0,0.0,0.0,0.07314474162559893,-0.5728122121246229,0.0,0.0,0.0,0.0,-0.07314474162559881,0.5728122121246226,0.5774634045431618,0.0,4.190884988721691,-32.819722208293335,0.0,0.0,0.0,0.0,-4.190884988721684,32.81972220829332,33.08621590357886
28,0.14009785652160645,1775825040.9123597,0.181860919,-18.695301525914488,-1.4112217143936399,0.720538754188286,-19.31,-0.92,0.8579350498928813,-0.614698474085511,0.4912217143936398,0.13739629570459533,0.7987682572612829,5.491793833546768,-3.453502447137298,-0.4087215058238005,6.500271681390593,0.0,0.0,0.0005890468935265971,0.0005890468935265971,0.0,0.0,0.0,0.0,0.06291910952369158,-0.561361485830123,0.0,0.0,0.0,0.0,-0.0629191095236914,0.561361485830123,0.5648765636107217,0.0,3.6049994264289107,-32.163643919259016,0.0,0.0,0.0,0.0,-3.6049994264289005,32.163643919259016,32.36504304074753
29,0.14509797096252441,1775825040.9173598,0.186861082,-18.667647997946037,-1.4284440275664416,0.7186161054599184,-19.31,-0.92,0.8579379582783838,-0.6423520020539613,0.5084440275664416,0.13932185281846543,0.8309885693458646,5.538784819351153,-3.3881587620289717,-0.33715599017501724,6.501648347419243,0.0,0.0,0.0005743660496550185,0.0005743660496550185,0.0,0.0,0.0,0.0,0.05188027185321936,-0.5489891019099785,0.0,0.0,0.0,0.0,-0.051880271853219195,0.5489891019099784,0.5514350339101503,0.0,2.9725206171808276,-31.45475853811921,0.0,0.0,0.0,0.0,-2.972520617180818,31.454758538119204,31.59490011870504
30,0.1500997543334961,1775825040.9223616,0.191862779,-18.639764776846626,-1.4453233470734164,0.7170614046970796,-19.31,-0.92,0.8579407941549407,-0.670235223153373,0.5253233470734163,0.14087938945786116,0.8631493936219201,5.580246967723748,-3.314237918706166,-0.2613559649128767,6.495508921014228,0.0,0.0,0.0005600478930312215,0.0005600478930312215,0.0,0.0,0.0,0.0,0.040247275572793936,-0.5359392549079913,0.0,0.0,0.0,0.0,-0.04024727557279384,0.5359392549079915,0.5374483492786685,0.0,2.3059990272210653,-30.707057381613893,0.0,0.0,0.0,0.0,-2.30599902722106,30.707057381613907,30.793522119940647
31,0.15509796142578125,1775825040.9273598,0.19686096,-18.61170783794966,-1.4618000904387047,0.7158970464470993,-19.31,-0.92,0.8579435593587736,-0.6982921620503397,0.5418000904387047,0.14204651291167436,0.8951740017508848,5.606597903514834,-3.265725476063477,-0.21198944204339393,6.491828899489328,0.0,0.0,0.0005460895454580577,0.0005460895454580577,0.0,0.0,0.0,0.0,0.03266061671801475,-0.527436772807506,0.0,0.0,0.0,0.0,-0.03266061671801479,0.5274367728075058,0.5284470315878381,0.0,1.8713154942366634,-30.219901041870557,0.0,0.0,0.0,0.0,-1.8713154942366659,30.219901041870546,30.277784606199624
32,0.1600968837738037,1775825040.9323587,0.201859929,-18.58348086529097,-1.4778460270594354,0.7151427491599259,-19.31,-0.92,0.8579462556219452,-0.7265191347090294,0.5578460270594353,0.14280350646201923,0.9270464305859771,5.626584939578106,-3.227654097438446,-0.17355326716543582,6.488939034352392,0.0,0.0,0.000532475830377628,0.000532475830377628,0.0,0.0,0.0,0.0,0.026749205807040044,-0.5208142658610916,0.0,0.0,0.0,0.0,-0.02674920580703999,0.5208142658610915,0.521500737809387,0.0,1.5326165980702278,-29.84045934404494,0.0,0.0,0.0,0.0,-1.5326165980702244,29.840459344044934,29.87979128943639
33,0.16510224342346191,1775825040.937364,0.206865188,-18.555080186646848,-1.49343506359279,0.7148196404632469,-19.31,-0.92,0.8579488846882742,-0.7549198133531512,0.57343506359279,0.14312924422502737,0.9587584040326589,5.64474761958412,-3.1866797375303,-0.1336632122431764,6.483515195686206,0.0,0.0,0.0005192037961388728,0.0005192037961388728,0.0,0.0,0.0,0.0,0.02061731609034387,-0.5139369657237346,0.0,0.0,0.0,0.0,-0.020617316090343785,0.5139369657237345,0.5143503460289379,0.0,1.181285196863867,-29.446419071729643,0.0,0.0,0.0,0.0,-1.181285196863862,29.44641907172964,29.470104018551623
34,0.17009878158569336,1775825040.9423606,0.211861899,-18.526617779471557,-1.508478563294549,0.71494942921187,-19.31,-0.92,0.8579514482030979,-0.7833822205284413,0.588478563294549,0.14300201899122789,0.9901738737882632,5.6610333516828435,-3.142925795391593,-0.09243848137939686,6.475633253747706,0.0,0.0,0.0005062593222383954,0.0005062593222383954,0.0,0.0,0.0,0.0,0.014275302108095663,-0.5068159737999894,0.0,0.0,0.0,0.0,-0.014275302108095467,0.5068159737999895,0.5070169775748236,0.0,0.8179145620680883,-29.038416288552302,0.0,0.0,0.0,0.0,-0.8179145620680771,29.03841628855231,29.049932956516496
35,0.1750960350036621,1775825040.947358,0.216859119,-18.518219194592827,-1.5128035352981426,0.7150768577938174,-19.31,-0.92,0.8579539478251637,-0.7917808054071713,0.5928035352981426,0.1428770900313463,0.9993731726082257,5.675476108908792,-3.096319838040534,-0.049807735454274124,6.465346581023242,0.0,0.0,0.0004936400419075767,0.0004936400419075767,0.0,0.0,0.0,0.0,0.007703875965899016,-0.49942895494266115,0.0,0.0,0.0,0.0,-0.007703875965899165,0.49942895494266093,0.49948836897370935,0.0,0.4413995787382841,-28.61517128484384,0.0,0.0,0.0,0.0,-0.44139957873829266,28.615171284843825,28.61857545806676
36,0.18009614944458008,1775825040.952358,0.221859139,-18.518219194592827,-1.5128035352981426,0.7150768577938174,-19.31,-0.92,0.857956385120547,-0.7917808054071713,0.5928035352981426,0.1428795273267296,0.9993735210632282,5.688080680054387,-3.0468376698277164,-0.005750037553197394,6.452713744775994,0.0,0.0,0.000481332508651515,0.000481332508651515,0.0,0.0,0.0,0.0,0.0008911038892493283,-0.4917615812109281,0.0,0.0,0.0,0.0,-0.0008911038892494005,0.49176158121092817,0.4917623885792952,0.0,0.05105649196167965,-28.175863130066062,0.0,0.0,0.0,0.0,-0.051056491961683784,28.175863130066066,28.17590938886601
37,0.18509626388549805,1775825040.9573581,0.226859373,-18.518219194592827,-1.5128035352981426,0.7150768577938174,-19.31,-0.92,0.8579587616671196,-0.7917808054071713,0.5928035352981426,0.14288190387330224,0.9993738608387076,5.698838876483055,-2.994502305503442,0.03971309455692323,6.43780907822369,0.0,0.0,0.00046933416474214664,0.00046933416474214664,0.0,0.0,0.0,0.0,-0.006168767347265677,-0.4838062248197624,0.0,0.0,0.0,0.0,0.006168767347265458,0.4838062248197623,0.48384555063050344,0.0,-0.3534443337964359,-27.720054784329843,0.0,0.0,0.0,0.0,0.3534443337964234,27.72005478432984,27.722307987311236
38,0.19009613990783691,1775825040.962358,0.231859074,-18.518219194592827,-1.5128035352981426,0.7150768577938174,-19.31,-0.92,0.857961078953807,-0.7917808054071713,0.5928035352981426,0.14288422115998967,0.9993741921471165,5.707749267733735,-2.939321836432831,0.08657473469249453,6.420709442587551,0.0,0.0,0.0004576322621410505,0.0004576322621410505,0.0,0.0,0.0,0.0,-0.013484079762714304,-0.4755520653297577,0.0,0.0,0.0,0.0,0.013484079762714263,0.4755520653297576,0.4757431946401811,0.0,-0.7725808610212942,-27.247126282124718,0.0,0.0,0.0,0.0,0.7725808610212918,27.24712628212471,27.258077184953226
39,0.19509649276733398,1775825040.9673584,0.23685952,-18.518219194592827,-1.5128035352981426,0.7150768577938174,-19.31,-0.92,0.8579633384816119,-0.7917808054071713,0.5928035352981426,0.14288648068779453,0.9993745152026584,0.0,0.0,0.0,0.0,0.0,0.0,0.0004462245819029582,0.0004462245819029582,0.0,0.0,0.0,0.0,-0.013484079762714304,-0.4755520653297577,0.0,0.0,0.0,0.0,0.013484079762714263,0.4755520653297576,0.4757431946401811,0.0,-0.7725808610212942,-27.247126282124718,0.0,0.0,0.0,0.0,0.7725808610212918,27.24712628212471,27.258077184953226
40,0.20009589195251465,1775825040.9723577,0.241858974,-18.518219194592827,-1.5128035352981426,0.7150768577938174,-19.31,-0.92,0.8579655416672566,-0.7917808054071713,0.5928035352981426,0.14288868387343923,0.9993748302075096,0.0,0.0,0.0,0.0,0.0,0.0,0.0004350988381937302,0.0004350988381937302,0.0,0.0,0.0,0.0,-0.013484079762714304,-0.4755520653297577,0.0,0.0,0.0,0.0,0.013484079762714263,0.4755520653297576,0.4757431946401811,0.0,-0.7725808610212942,-27.247126282124718,0.0,0.0,0.0,0.0,0.7725808610212918,27.24712628212471,27.258077184953226
41,0.20509862899780273,1775825040.9773605,0.246861598,-18.518219194592827,-1.5128035352981426,0.7150768577938174,-19.31,-0.92,0.8579676899369432,-0.7917808054071713,0.5928035352981426,0.1428908321431258,0.9993751373652239,0.0,0.0,0.0,0.0,0.0,0.0,0.0004242524387849064,0.0004242524387849064,0.0,0.0,0.0,0.0,-0.013484079762714304,-0.4755520653297577,0.0,0.0,0.0,0.0,0.013484079762714263,0.4755520653297576,0.4757431946401811,0.0,-0.7725808610212942,-27.247126282124718,0.0,0.0,0.0,0.0,0.7725808610212918,27.24712628212471,27.258077184953226
42,0.2100987434387207,1775825040.9823606,0.25186185,-18.518219194592827,-1.5128035352981426,0.7150768577938174,-19.31,-0.92,0.8579697846363328,-0.7917808054071713,0.5928035352981426,0.14289292684251542,0.9993754368678597,0.0,0.0,0.0,0.0,0.0,0.0,0.0004136742108736958,0.0004136742108736958,0.0,0.0,0.0,0.0,-0.013484079762714304,-0.4755520653297577,0.0,0.0,0.0,0.0,0.013484079762714263,0.4755520653297576,0.4757431946401811,0.0,-0.7725808610212942,-27.247126282124718,0.0,0.0,0.0,0.0,0.7725808610212918,27.24712628212471,27.258077184953226
43,0.21509981155395508,1775825040.9873617,0.256862807,-18.518219194592827,-1.5128035352981426,0.7150768577938174,-19.31,-0.92,0.8579718271249459,-0.7917808054071713,0.5928035352981426,0.14289496933112855,0.9993757289094773,0.0,0.0,0.0,0.0,0.0,0.0,0.0004033626844573718,0.0004033626844573718,0.0,0.0,0.0,0.0,-0.013484079762714304,-0.4755520653297577,0.0,0.0,0.0,0.0,0.013484079762714263,0.4755520653297576,0.4757431946401811,0.0,-0.7725808610212942,-27.247126282124718,0.0,0.0,0.0,0.0,0.7725808610212918,27.24712628212471,27.258077184953226
44,0.22009706497192383,1775825040.992359,0.261860068,-18.518219194592827,-1.5128035352981426,0.7150768577938174,-19.31,-0.92,0.8579738186860616,-0.7917808054071713,0.5928035352981426,0.14289696089224424,0.9993760136732543,0.0,0.0,0.0,0.0,0.0,0.0,0.00039330620430977825,0.00039330620430977825,0.0,0.0,0.0,0.0,-0.013484079762714304,-0.4755520653297577,0.0,0.0,0.0,0.0,0.013484079762714263,0.4755520653297576,0.4757431946401811,0.0,-0.7725808610212942,-27.247126282124718,0.0,0.0,0.0,0.0,0.7725808610212918,27.24712628212471,27.258077184953226
45,0.2250974178314209,1775825040.9973593,0.266860494,-18.518219194592827,-1.5128035352981426,0.7150768577938174,-19.31,-0.92,0.8579757606096855,-0.7917808054071713,0.5928035352981426,0.14289890281586815,0.9993762913433478,0.0,0.0,0.0,0.0,0.0,0.0,0.00038350254014562856,0.00038350254014562856,0.0,0.0,0.0,0.0,-0.013484079762714304,-0.4755520653297577,0.0,0.0,0.0,0.0,0.013484079762714263,0.4755520653297576,0.4757431946401811,0.0,-0.7725808610212942,-27.247126282124718,0.0,0.0,0.0,0.0,0.7725808610212918,27.24712628212471,27.258077184953226
46,0.23009896278381348,1775825041.0023608,0.271861945,-18.518219194592827,-1.5128035352981426,0.7150768577938174,-19.31,-0.92,0.8579776541133258,-0.7917808054071713,0.5928035352981426,0.14290079631950847,0.9993765620935657,0.0,0.0,0.0,0.0,0.0,0.0,0.00037394118428220064,0.00037394118428220064,0.0,0.0,0.0,0.0,-0.013484079762714304,-0.4755520653297577,0.0,0.0,0.0,0.0,0.013484079762714263,0.4755520653297576,0.4757431946401811,0.0,-0.7725808610212942,-27.247126282124718,0.0,0.0,0.0,0.0,0.7725808610212918,27.24712628212471,27.258077184953226
47,0.23509740829467773,1775825041.0073593,0.276860531,-18.518219194592827,-1.5128035352981426,0.7150768577938174,-19.31,-0.92,0.8579795004231598,-0.7917808054071713,0.5928035352981426,0.1429026426293425,0.9993768260989718,0.0,0.0,0.0,0.0,0.0,0.0,0.0003646200822411452,0.0003646200822411452,0.0,0.0,0.0,0.0,-0.013484079762714304,-0.4755520653297577,0.0,0.0,0.0,0.0,0.013484079762714263,0.4755520653297576,0.4757431946401811,0.0,-0.7725808610212942,-27.247126282124718,0.0,0.0,0.0,0.0,0.7725808610212918,27.24712628212471,27.258077184953226
48,0.24010062217712402,1775825041.0123625,0.281863746,-18.518219194592827,-1.5128035352981426,0.7150768577938174,-19.31,-0.92,0.8579813006956822,-0.7917808054071713,0.5928035352981426,0.14290444290186488,0.999377083524681,0.0,0.0,0.0,0.0,0.0,0.0,0.00035552909872961817,0.00035552909872961817,0.0,0.0,0.0,0.0,-0.013484079762714304,-0.4755520653297577,0.0,0.0,0.0,0.0,0.013484079762714263,0.4755520653297576,0.4757431946401811,0.0,-0.7725808610212942,-27.247126282124718,0.0,0.0,0.0,0.0,0.7725808610212918,27.24712628212471,27.258077184953226
49,0.24509978294372559,1775825041.0173616,0.286862762,-18.518219194592827,-1.5128035352981426,0.7150768577938174,-19.31,-0.92,0.8579830560963192,-0.7917808054071713,0.5928035352981426,0.14290619830250184,0.9993773345371002,0.0,0.0,0.0,0.0,0.0,0.0,0.0003466666843901244,0.0003466666843901244,0.0,0.0,0.0,0.0,-0.013484079762714304,-0.4755520653297577,0.0,0.0,0.0,0.0,0.013484079762714263,0.4755520653297576,0.4757431946401811,0.0,-0.7725808610212942,-27.247126282124718,0.0,0.0,0.0,0.0,0.7725808610212918,27.24712628212471,27.258077184953226
50,0.25009894371032715,1775825041.0223608,0.291862017,-18.518219194592827,-1.5128035352981426,0.7150768577938174,-19.31,-0.92,0.8579847677257465,-0.7917808054071713,0.5928035352981426,0.14290790993192914,0.9993775792933907,0.0,0.0,0.0,0.0,0.0,0.0,0.00033802334205106755,0.00033802334205106755,0.0,0.0,0.0,0.0,-0.013484079762714304,-0.4755520653297577,0.0,0.0,0.0,0.0,0.013484079762714263,0.4755520653297576,0.4757431946401811,0.0,-0.7725808610212942,-27.247126282124718,0.0,0.0,0.0,0.0,0.7725808610212918,27.24712628212471,27.258077184953226
51,0.255124568939209,1775825041.0273864,0.296887651,-18.518219194592827,-1.5128035352981426,0.7150768577938174,-19.31,-0.92,0.8579864366936811,-0.7917808054071713,0.5928035352981426,0.14290957889986378,0.9993778179520203,0.0,0.0,0.0,0.0,0.0,0.0,0.0003295976653741329,0.0003295976653741329,0.0,0.0,0.0,0.0,-0.013484079762714304,-0.4755520653297577,0.0,0.0,0.0,0.0,0.013484079762714263,0.4755520653297576,0.4757431946401811,0.0,-0.7725808610212942,-27.247126282124718,0.0,0.0,0.0,0.0,0.7725808610212918,27.24712628212471,27.258077184953226
52,0.2601168155670166,1775825041.0323787,0.301879848,-18.518219194592827,-1.5128035352981426,0.7150768577938174,-19.31,-0.92,0.8579880640483231,-0.7917808054071713,0.5928035352981426,0.1429112062545057,0.9993780506626724,0.0,0.0,0.0,0.0,0.0,0.0,0.0003213806247849316,0.0003213806247849316,0.0,0.0,0.0,0.0,-0.013484079762714304,-0.4755520653297577,0.0,0.0,0.0,0.0,0.013484079762714263,0.4755520653297576,0.4757431946401811,0.0,-0.7725808610212942,-27.247126282124718,0.0,0.0,0.0,0.0,0.7725808610212918,27.24712628212471,27.258077184953226
53,0.26510024070739746,1775825041.037362,0.306863352,-18.518219194592827,-1.5128035352981426,0.7150768577938174,-19.31,-0.92,0.8579896508465151,-0.7917808054071713,0.5928035352981426,0.14291279305269777,0.9993782775762781,0.0,0.0,0.0,0.0,0.0,0.0,0.00031337087189671486,0.00031337087189671486,0.0,0.0,0.0,0.0,-0.013484079762714304,-0.4755520653297577,0.0,0.0,0.0,0.0,0.013484079762714263,0.4755520653297576,0.4757431946401811,0.0,-0.7725808610212942,-27.247126282124718,0.0,0.0,0.0,0.0,0.7725808610212918,27.24712628212471,27.258077184953226
54,0.27010583877563477,1775825041.0423677,0.311868993,-18.518219194592827,-1.5128035352981426,0.7150768577938174,-19.31,-0.92,0.857991198086266,-0.7917808054071713,0.5928035352981426,0.14291434029244865,0.9993784988353666,0.0,0.0,0.0,0.0,0.0,0.0,0.00030555961804994754,0.00030555961804994754,0.0,0.0,0.0,0.0,-0.013484079762714304,-0.4755520653297577,0.0,0.0,0.0,0.0,0.013484079762714263,0.4755520653297576,0.4757431946401811,0.0,-0.7725808610212942,-27.247126282124718,0.0,0.0,0.0,0.0,0.7725808610212918,27.24712628212471,27.258077184953226
55,0.27510643005371094,1775825041.0473683,0.316869542,-18.518219194592827,-1.5128035352981426,0.7150768577938174,-19.31,-0.92,0.8579927067712821,-0.7917808054071713,0.5928035352981426,0.1429158489774648,0.9993787145832927,0.0,0.0,0.0,0.0,0.0,0.0,0.00029794493067507966,0.00029794493067507966,0.0,0.0,0.0,0.0,-0.013484079762714304,-0.4755520653297577,0.0,0.0,0.0,0.0,0.013484079762714263,0.4755520653297576,0.4757431946401811,0.0,-0.7725808610212942,-27.247126282124718,0.0,0.0,0.0,0.0,0.7725808610212918,27.24712628212471,27.258077184953226
56,0.28009533882141113,1775825041.0523572,0.321858321,-18.518219194592827,-1.5128035352981426,0.7150768577938174,-19.31,-0.92,0.8579941778471067,-0.7917808054071713,0.5928035352981426,0.1429173200532894,0.9993789249551039,0.0,0.0,0.0,0.0,0.0,0.0,0.0002905181370300269,0.0002905181370300269,0.0,0.0,0.0,0.0,-0.013484079762714304,-0.4755520653297577,0.0,0.0,0.0,0.0,0.013484079762714263,0.4755520653297576,0.4757431946401811,0.0,-0.7725808610212942,-27.247126282124718,0.0,0.0,0.0,0.0,0.7725808610212918,27.24712628212471,27.258077184953226
57,0.2850959300994873,1775825041.0573578,0.326858926,-18.518219194592827,-1.5128035352981426,0.7150768577938174,-19.31,-0.92,0.8579956122640502,-0.7917808054071713,0.5928035352981426,0.14291875447023283,0.9993791300865391,0.0,0.0,0.0,0.0,0.0,0.0,0.00028327758890922886,0.00028327758890922886,0.0,0.0,0.0,0.0,-0.013484079762714304,-0.4755520653297577,0.0,0.0,0.0,0.0,0.013484079762714263,0.4755520653297576,0.4757431946401811,0.0,-0.7725808610212942,-27.247126282124718,0.0,0.0,0.0,0.0,0.7725808610212918,27.24712628212471,27.258077184953226
58,0.2900960445404053,1775825041.062358,0.331859201,-18.518219194592827,-1.5128035352981426,0.7150768577938174,-19.31,-0.92,0.8579970109194262,-0.7917808054071713,0.5928035352981426,0.1429201531256088,0.9993793301057674,0.0,0.0,0.0,0.0,0.0,0.0,0.00027621574428946324,0.00027621574428946324,0.0,0.0,0.0,0.0,-0.013484079762714304,-0.4755520653297577,0.0,0.0,0.0,0.0,0.013484079762714263,0.4755520653297576,0.4757431946401811,0.0,-0.7725808610212942,-27.247126282124718,0.0,0.0,0.0,0.0,0.7725808610212918,27.24712628212471,27.258077184953226
59,0.29509496688842773,1775825041.0673568,0.336857994,-18.518219194592827,-1.5128035352981426,0.7150768577938174,-19.31,-0.92,0.8579983747175737,-0.7917808054071713,0.5928035352981426,0.14292151692375632,0.9993795251419716,0.0,0.0,0.0,0.0,0.0,0.0,0.0002693310341583708,0.0002693310341583708,0.0,0.0,0.0,0.0,-0.013484079762714304,-0.4755520653297577,0.0,0.0,0.0,0.0,0.013484079762714263,0.4755520653297576,0.4757431946401811,0.0,-0.7725808610212942,-27.247126282124718,0.0,0.0,0.0,0.0,0.7725808610212918,27.24712628212471,27.258077184953226
60,0.3000974655151367,1775825041.0723593,0.341860428,-18.518219194592827,-1.5128035352981426,0.7150768577938174,-19.31,-0.92,0.8579997045115217,-0.7917808054071713,0.5928035352981426,0.1429228467177044,0.9993797153170048,0.0,0.0,0.0,0.0,0.0,0.0,0.0002626162261392379,0.0002626162261392379,0.0,0.0,0.0,0.0,-0.013484079762714304,-0.4755520653297577,0.0,0.0,0.0,0.0,0.013484079762714263,0.4755520653297576,0.4757431946401811,0.0,-0.7725808610212942,-27.247126282124718,0.0,0.0,0.0,0.0,0.7725808610212918,27.24712628212471,27.258077184953226
61,0.305095911026001,1775825041.0773578,0.34685884,-18.518219194592827,-1.5128035352981426,0.7150768577938174,-19.31,-0.92,0.8580010011619749,-0.7917808054071713,0.5928035352981426,0.1429241433681575,0.9993799007538258,0.0,0.0,0.0,0.0,0.0,0.0,0.0002560701819414479,0.0002560701819414479,0.0,0.0,0.0,0.0,-0.013484079762714304,-0.4755520653297577,0.0,0.0,0.0,0.0,0.013484079762714263,0.4755520653297576,0.4757431946401811,0.0,-0.7725808610212942,-27.247126282124718,0.0,0.0,0.0,0.0,0.7725808610212918,27.24712628212471,27.258077184953226
62,0.31009531021118164,1775825041.0823572,0.351858466,-18.518219194592827,-1.5128035352981426,0.7150768577938174,-19.31,-0.92,0.8580022654816858,-0.7917808054071713,0.5928035352981426,0.14292540768786843,0.9993800815685434,0.0,0.0,0.0,0.0,0.0,0.0,0.0002496859991228062,0.0002496859991228062,0.0,0.0,0.0,0.0,-0.013484079762714304,-0.4755520653297577,0.0,0.0,0.0,0.0,0.013484079762714263,0.4755520653297576,0.4757431946401811,0.0,-0.7725808610212942,-27.247126282124718,0.0,0.0,0.0,0.0,0.7725808610212918,27.24712628212471,27.258077184953226
63,0.3150968551635742,1775825041.0873587,0.356859854,-18.518219194592827,-1.5128035352981426,0.7150768577938174,-19.31,-0.92,0.8580034982912559,-0.7917808054071713,0.5928035352981426,0.14292664049743853,0.9993802578783959,0.0,0.0,0.0,0.0,0.0,0.0,0.00024346286415568745,0.00024346286415568745,0.0,0.0,0.0,0.0,-0.013484079762714304,-0.4755520653297577,0.0,0.0,0.0,0.0,0.013484079762714263,0.4755520653297576,0.4757431946401811,0.0,-0.7725808610212942,-27.247126282124718,0.0,0.0,0.0,0.0,0.7725808610212918,27.24712628212471,27.258077184953226
64,0.3200974464416504,1775825041.0923593,0.361860559,-18.518219194592827,-1.5128035352981426,0.7150768577938174,-19.31,-0.92,0.8580047003658919,-0.7917808054071713,0.5928035352981426,0.14292784257207458,0.9993804297941364,0.0,0.0,0.0,0.0,0.0,0.0,0.00023739380639081176,0.00023739380639081176,0.0,0.0,0.0,0.0,-0.013484079762714304,-0.4755520653297577,0.0,0.0,0.0,0.0,0.013484079762714263,0.4755520653297576,0.4757431946401811,0.0,-0.7725808610212942,-27.247126282124718,0.0,0.0,0.0,0.0,0.7725808610212918,27.24712628212471,27.258077184953226
65,0.32509636878967285,1775825041.0973582,0.366859418,-18.518219194592827,-1.5128035352981426,0.7150768577938174,-19.31,-0.92,0.8580058724839832,-0.7917808054071713,0.5928035352981426,0.14292901469016583,0.9993805974269796,0.0,0.0,0.0,0.0,0.0,0.0,0.00023147710031883669,0.00023147710031883669,0.0,0.0,0.0,0.0,-0.013484079762714304,-0.4755520653297577,0.0,0.0,0.0,0.0,0.013484079762714263,0.4755520653297576,0.4757431946401811,0.0,-0.7725808610212942,-27.247126282124718,0.0,0.0,0.0,0.0,0.7725808610212918,27.24712628212471,27.258077184953226
66,0.33010172843933105,1775825041.1023636,0.371864697,-18.518219194592827,-1.5128035352981426,0.7150768577938174,-19.31,-0.92,0.8580070153796343,-0.7917808054071713,0.5928035352981426,0.14293015758581695,0.999380760881813,0.0,0.0,0.0,0.0,0.0,0.0,0.0002257067097240326,0.0002257067097240326,0.0,0.0,0.0,0.0,-0.013484079762714304,-0.4755520653297577,0.0,0.0,0.0,0.0,0.013484079762714263,0.4755520653297576,0.4757431946401811,0.0,-0.7725808610212942,-27.247126282124718,0.0,0.0,0.0,0.0,0.7725808610212918,27.24712628212471,27.258077184953226
67,0.33510446548461914,1775825041.1073663,0.37686759,-18.518219194592827,-1.5128035352981426,0.7150768577938174,-19.31,-0.92,0.8580081297935461,-0.7917808054071713,0.5928035352981426,0.14293127199972877,0.9993809202644732,0.0,0.0,0.0,0.0,0.0,0.0,0.00022008138977776842,0.00022008138977776842,0.0,0.0,0.0,0.0,-0.013484079762714304,-0.4755520653297577,0.0,0.0,0.0,0.0,0.013484079762714263,0.4755520653297576,0.4757431946401811,0.0,-0.7725808610212942,-27.247126282124718,0.0,0.0,0.0,0.0,0.7725808610212918,27.24712628212471,27.258077184953226
68,0.3401014804840088,1775825041.1123633,0.381864615,-18.518219194592827,-1.5128035352981426,0.7150768577938174,-19.31,-0.92,0.85800921642377,-0.7917808054071713,0.5928035352981426,0.14293235862995268,0.999381075674703,0.0,0.0,0.0,0.0,0.0,0.0,0.00021459495613275378,0.00021459495613275378,0.0,0.0,0.0,0.0,-0.013484079762714304,-0.4755520653297577,0.0,0.0,0.0,0.0,0.013484079762714263,0.4755520653297576,0.4757431946401811,0.0,-0.7725808610212942,-27.247126282124718,0.0,0.0,0.0,0.0,0.7725808610212918,27.24712628212471,27.258077184953226
69,0.3451051712036133,1775825041.117367,0.386868105,-18.518219194592827,-1.5128035352981426,0.7150768577938174,-19.31,-0.92,0.8580102759740089,-0.7917808054071713,0.5928035352981426,0.14293341818019156,0.9993812272130583,0.0,0.0,0.0,0.0,0.0,0.0,0.0002092466063691811,0.0002092466063691811,0.0,0.0,0.0,0.0,-0.013484079762714304,-0.4755520653297577,0.0,0.0,0.0,0.0,0.013484079762714263,0.4755520653297576,0.4757431946401811,0.0,-0.7725808610212942,-27.247126282124718,0.0,0.0,0.0,0.0,0.7725808610212918,27.24712628212471,27.258077184953226
70,0.3500993251800537,1775825041.1223612,0.39186225,-18.518219194592827,-1.5128035352981426,0.7150768577938174,-19.31,-0.92,0.8580113091091448,-0.7917808054071713,0.5928035352981426,0.14293445131532745,0.9993813749745483,0.0,0.0,0.0,0.0,0.0,0.0,0.00020403046608975063,0.00020403046608975063,0.0,0.0,0.0,0.0,-0.013484079762714304,-0.4755520653297577,0.0,0.0,0.0,0.0,0.013484079762714263,0.4755520653297576,0.4757431946401811,0.0,-0.7725808610212942,-27.247126282124718,0.0,0.0,0.0,0.0,0.7725808610212918,27.24712628212471,27.258077184953226
71,0.3551018238067627,1775825041.1273637,0.396864827,-18.518219194592827,-1.5128035352981426,0.7150768577938174,-19.31,-0.92,0.858012316497194,-0.7917808054071713,0.5928035352981426,0.14293545870337665,0.9993815190546349,0.0,0.0,0.0,0.0,0.0,0.0,0.00019894506427011873,0.00019894506427011873,0.0,0.0,0.0,0.0,-0.013484079762714304,-0.4755520653297577,0.0,0.0,0.0,0.0,0.013484079762714263,0.4755520653297576,0.4757431946401811,0.0,-0.7725808610212942,-27.247126282124718,0.0,0.0,0.0,0.0,0.7725808610212918,27.24712628212471,27.258077184953226
72,0.3601047992706299,1775825041.1323667,0.401867934,-18.518219194592827,-1.5128035352981426,0.7150768577938174,-19.31,-0.92,0.8580132987678128,-0.7917808054071713,0.5928035352981426,0.1429364409739955,0.9993816595432985,0.0,0.0,0.0,0.0,0.0,0.0,0.0001939851617001052,0.0001939851617001052,0.0,0.0,0.0,0.0,-0.013484079762714304,-0.4755520653297577,0.0,0.0,0.0,0.0,0.013484079762714263,0.4755520653297576,0.4757431946401811,0.0,-0.7725808610212942,-27.247126282124718,0.0,0.0,0.0,0.0,0.7725808610212918,27.24712628212471,27.258077184953226
73,0.3651466369628906,1775825041.1374085,0.406909736,-18.518219194592827,-1.5128035352981426,0.7150768577938174,-19.31,-0.92,0.8580142565581266,-0.7917808054071713,0.5928035352981426,0.14293739876430922,0.9993817965315919,0.0,0.0,0.0,0.0,0.0,0.0,0.00018915042491859054,0.00018915042491859054,0.0,0.0,0.0,0.0,-0.013484079762714304,-0.4755520653297577,0.0,0.0,0.0,0.0,0.013484079762714263,0.4755520653297576,0.4757431946401811,0.0,-0.7725808610212942,-27.247126282124718,0.0,0.0,0.0,0.0,0.7725808610212918,27.24712628212471,27.258077184953226
74,0.37010741233825684,1775825041.1423693,0.411870477,-18.518219194592827,-1.5128035352981426,0.7150768577938174,-19.31,-0.92,0.8580151904706368,-0.7917808054071713,0.5928035352981426,0.14293833267681944,0.9993819301056198,0.0,0.0,0.0,0.0,0.0,0.0,0.00018443546312273617,0.00018443546312273617,0.0,0.0,0.0,0.0,-0.013484079762714304,-0.4755520653297577,0.0,0.0,0.0,0.0,0.013484079762714263,0.4755520653297576,0.4757431946401811,0.0,-0.7725808610212942,-27.247126282124718,0.0,0.0,0.0,0.0,0.7725808610212918,27.24712628212471,27.258077184953226
75,0.3751087188720703,1775825041.1473706,0.416871744,-18.518219194592827,-1.5128035352981426,0.7150768577938174,-19.31,-0.92,0.8580161011114712,-0.7917808054071713,0.5928035352981426,0.14293924331765384,0.9993820603520099,0.0,0.0,0.0,0.0,0.0,0.0,0.00017983934440577985,0.00017983934440577985,0.0,0.0,0.0,0.0,-0.013484079762714304,-0.4755520653297577,0.0,0.0,0.0,0.0,0.013484079762714263,0.4755520653297576,0.4757431946401811,0.0,-0.7725808610212942,-27.247126282124718,0.0,0.0,0.0,0.0,0.7725808610212918,27.24712628212471,27.258077184953226
76,0.3801078796386719,1775825041.1523697,0.421870859,-18.518219194592827,-1.5128035352981426,0.7150768577938174,-19.31,-0.92,0.8580169890526296,-0.7917808054071713,0.5928035352981426,0.14294013125881222,0.999382187352512,0.0,0.0,0.0,0.0,0.0,0.0,0.000175356925456364,0.000175356925456364,0.0,0.0,0.0,0.0,-0.013484079762714304,-0.4755520653297577,0.0,0.0,0.0,0.0,0.013484079762714263,0.4755520653297576,0.4757431946401811,0.0,-0.7725808610212942,-27.247126282124718,0.0,0.0,0.0,0.0,0.7725808610212918,27.24712628212471,27.258077184953226
77,0.3851029872894287,1775825041.1573648,0.426866137,-18.518219194592827,-1.5128035352981426,0.7150768577938174,-19.31,-0.92,0.8580178548689971,-0.7917808054071713,0.5928035352981426,0.1429409970751797,0.9993823111892923,0.0,0.0,0.0,0.0,0.0,0.0,0.00017098712245430597,0.00017098712245430597,0.0,0.0,0.0,0.0,-0.013484079762714304,-0.4755520653297577,0.0,0.0,0.0,0.0,0.013484079762714263,0.4755520653297576,0.4757431946401811,0.0,-0.7725808610212942,-27.247126282124718,0.0,0.0,0.0,0.0,0.7725808610212918,27.24712628212471,27.258077184953226
78,0.3901052474975586,1775825041.162367,0.431868209,-18.518219194592827,-1.5128035352981426,0.7150768577938174,-19.31,-0.92,0.8580186991026691,-0.7917808054071713,0.5928035352981426,0.1429418413088518,0.9993824319398306,0.0,0.0,0.0,0.0,0.0,0.0,0.0001667251797372303,0.0001667251797372303,0.0,0.0,0.0,0.0,-0.013484079762714304,-0.4755520653297577,0.0,0.0,0.0,0.0,0.013484079762714263,0.4755520653297576,0.4757431946401811,0.0,-0.7725808610212942,-27.247126282124718,0.0,0.0,0.0,0.0,0.7725808610212918,27.24712628212471,27.258077184953226
79,0.39511561393737793,1775825041.1673775,0.436878596,-18.518219194592827,-1.5128035352981426,0.7150768577938174,-19.31,-0.92,0.858019522300033,-0.7917808054071713,0.5928035352981426,0.14294266450621562,0.9993825496822233,0.0,0.0,0.0,0.0,0.0,0.0,0.00016257042924215323,0.00016257042924215323,0.0,0.0,0.0,0.0,-0.013484079762714304,-0.4755520653297577,0.0,0.0,0.0,0.0,0.013484079762714263,0.4755520653297576,0.4757431946401811,0.0,-0.7725808610212942,-27.247126282124718,0.0,0.0,0.0,0.0,0.7725808610212918,27.24712628212471,27.258077184953226
80,0.4001035690307617,1775825041.1723654,0.441866553,-18.518219194592827,-1.5128035352981426,0.7150768577938174,-19.31,-0.92,0.858020324977142,-0.7917808054071713,0.5928035352981426,0.14294346718332462,0.9993826644902317,0.0,0.0,0.0,0.0,0.0,0.0,0.00015851829928414745,0.00015851829928414745,0.0,0.0,0.0,0.0,-0.013484079762714304,-0.4755520653297577,0.0,0.0,0.0,0.0,0.013484079762714263,0.4755520653297576,0.4757431946401811,0.0,-0.7725808610212942,-27.247126282124718,0.0,0.0,0.0,0.0,0.7725808610212918,27.24712628212471,27.258077184953226
81,0.4051032066345215,1775825041.177365,0.44686634,-18.518219194592827,-1.5128035352981426,0.7150768577938174,-19.31,-0.92,0.8580211076530193,-0.7917808054071713,0.5928035352981426,0.14294424985920196,0.9993827764380447,0.0,0.0,0.0,0.0,0.0,0.0,0.0001545678535046266,0.0001545678535046266,0.0,0.0,0.0,0.0,-0.013484079762714304,-0.4755520653297577,0.0,0.0,0.0,0.0,0.013484079762714263,0.4755520653297576,0.4757431946401811,0.0,-0.7725808610212942,-27.247126282124718,0.0,0.0,0.0,0.0,0.7725808610212918,27.24712628212471,27.258077184953226
82,0.4101085662841797,1775825041.1823704,0.451871642,-18.518219194592827,-1.5128035352981426,0.7150768577938174,-19.31,-0.92,0.8580218708171536,-0.7917808054071713,0.5928035352981426,0.1429450130233363,0.9993828855956294,0.0,0.0,0.0,0.0,0.0,0.0,0.00015071480770047842,0.00015071480770047842,0.0,0.0,0.0,0.0,-0.013484079762714304,-0.4755520653297577,0.0,0.0,0.0,0.0,0.013484079762714263,0.4755520653297576,0.4757431946401811,0.0,-0.7725808610212942,-27.247126282124718,0.0,0.0,0.0,0.0,0.7725808610212918,27.24712628212471,27.258077184953226
83,0.4151008129119873,1775825041.1873627,0.456863849,-18.518219194592827,-1.5128035352981426,0.7150768577938174,-19.31,-0.92,0.8580226149629441,-0.7917808054071713,0.5928035352981426,0.14294575716912672,0.9993829920335147,0.0,0.0,0.0,0.0,0.0,0.0,0.0001469585550543342,0.0001469585550543342,0.0,0.0,0.0,0.0,-0.013484079762714304,-0.4755520653297577,0.0,0.0,0.0,0.0,0.013484079762714263,0.4755520653297576,0.4757431946401811,0.0,-0.7725808610212942,-27.247126282124718,0.0,0.0,0.0,0.0,0.7725808610212918,27.24712628212471,27.258077184953226
84,0.42010021209716797,1775825041.192362,0.461863271,-18.518219194592827,-1.5128035352981426,0.7150768577938174,-19.31,-0.92,0.8580233405570149,-0.7917808054071713,0.5928035352981426,0.14294648276319755,0.9993830958184025,0.0,0.0,0.0,0.0,0.0,0.0,0.00014329533917814305,0.00014329533917814305,0.0,0.0,0.0,0.0,-0.013484079762714304,-0.4755520653297577,0.0,0.0,0.0,0.0,0.013484079762714263,0.4755520653297576,0.4757431946401811,0.0,-0.7725808610212942,-27.247126282124718,0.0,0.0,0.0,0.0,0.7725808610212918,27.24712628212471,27.258077184953226
85,0.42510199546813965,1775825041.1973639,0.466865044,-18.518219194592827,-1.5128035352981426,0.7150768577938174,-19.31,-0.92,0.8580240480708572,-0.7917808054071713,0.5928035352981426,0.14294719027703984,0.9993831970176932,0.0,0.0,0.0,0.0,0.0,0.0,0.00013972456051552457,0.00013972456051552457,0.0,0.0,0.0,0.0,-0.013484079762714304,-0.4755520653297577,0.0,0.0,0.0,0.0,0.013484079762714263,0.4755520653297576,0.4757431946401811,0.0,-0.7725808610212942,-27.247126282124718,0.0,0.0,0.0,0.0,0.7725808610212918,27.24712628212471,27.258077184953226
86,0.430112361907959,1775825041.2023742,0.471875305,-18.518219194592827,-1.5128035352981426,0.7150768577938174,-19.31,-0.92,0.8580247379491736,-0.7917808054071713,0.5928035352981426,0.1429478801553562,0.9993832956949577,0.0,0.0,0.0,0.0,0.0,0.0,0.0001362421716357028,0.0001362421716357028,0.0,0.0,0.0,0.0,-0.013484079762714304,-0.4755520653297577,0.0,0.0,0.0,0.0,0.013484079762714263,0.4755520653297576,0.4757431946401811,0.0,-0.7725808610212942,-27.247126282124718,0.0,0.0,0.0,0.0,0.7725808610212918,27.24712628212471,27.258077184953226
87,0.4350597858428955,1775825041.2073216,0.476822861,-18.518219194592827,-1.5128035352981426,0.7150768577938174,-19.31,-0.92,0.8580254106391091,-0.7917808054071713,0.5928035352981426,0.14294855284529173,0.9993833919141183,0.0,0.0,0.0,0.0,0.0,0.0,0.0001328474249657278,0.0001328474249657278,0.0,0.0,0.0,0.0,-0.013484079762714304,-0.4755520653297577,0.0,0.0,0.0,0.0,0.013484079762714263,0.4755520653297576,0.4757431946401811,0.0,-0.7725808610212942,-27.247126282124718,0.0,0.0,0.0,0.0,0.7725808610212918,27.24712628212471,27.258077184953226
88,0.44009852409362793,1775825041.2123604,0.481861631,-18.518219194592827,-1.5128035352981426,0.7150768577938174,-19.31,-0.92,0.8580260665623979,-0.7917808054071713,0.5928035352981426,0.14294920876858053,0.999383485735465,0.0,0.0,0.0,0.0,0.0,0.0,0.00012953652294287206,0.00012953652294287206,0.0,0.0,0.0,0.0,-0.013484079762714304,-0.4755520653297577,0.0,0.0,0.0,0.0,0.013484079762714263,0.4755520653297576,0.4757431946401811,0.0,-0.7725808610212942,-27.247126282124718,0.0,0.0,0.0,0.0,0.7725808610212918,27.24712628212471,27.258077184953226
89,0.4450984001159668,1775825041.2173603,0.486861547,-18.518219194592827,-1.5128035352981426,0.7150768577938174,-19.31,-0.92,0.8580267061436968,-0.7917808054071713,0.5928035352981426,0.14294984834987945,0.9993835772197072,0.0,0.0,0.0,0.0,0.0,0.0,0.00012630895344747936,0.00012630895344747936,0.0,0.0,0.0,0.0,-0.013484079762714304,-0.4755520653297577,0.0,0.0,0.0,0.0,0.013484079762714263,0.4755520653297576,0.4757431946401811,0.0,-0.7725808610212942,-27.247126282124718,0.0,0.0,0.0,0.0,0.7725808610212918,27.24712628212471,27.258077184953226
90,0.4501039981842041,1775825041.2223659,0.49186693,-18.518219194592827,-1.5128035352981426,0.7150768577938174,-19.31,-0.92,0.8580273297844206,-0.7917808054071713,0.5928035352981426,0.1429504719906033,0.9993836664242323,0.0,0.0,0.0,0.0,0.0,0.0,0.00012316121227662225,0.00012316121227662225,0.0,0.0,0.0,0.0,-0.013484079762714304,-0.4755520653297577,0.0,0.0,0.0,0.0,0.013484079762714263,0.4755520653297576,0.4757431946401811,0.0,-0.7725808610212942,-27.247126282124718,0.0,0.0,0.0,0.0,0.7725808610212918,27.24712628212471,27.258077184953226
91,0.45510363578796387,1775825041.2273655,0.49686676,-18.518219194592827,-1.5128035352981426,0.7150768577938174,-19.31,-0.92,0.8580279378872769,-0.7917808054071713,0.5928035352981426,0.14295108009345958,0.9993837534066139,0.0,0.0,0.0,0.0,0.0,0.0,0.00012009214572740977,0.00012009214572740977,0.0,0.0,0.0,0.0,-0.013484079762714304,-0.4755520653297577,0.0,0.0,0.0,0.0,0.013484079762714263,0.4755520653297576,0.4757431946401811,0.0,-0.7725808610212942,-27.247126282124718,0.0,0.0,0.0,0.0,0.7725808610212918,27.24712628212471,27.258077184953226
92,0.4601004123687744,1775825041.2323623,0.501863418,-18.518219194592827,-1.5128035352981426,0.7150768577938174,-19.31,-0.92,0.8580285308309326,-0.7917808054071713,0.5928035352981426,0.1429516730371152,0.9993838382209888,0.0,0.0,0.0,0.0,0.0,0.0,0.00011709851041594692,0.00011709851041594692,0.0,0.0,0.0,0.0,-0.013484079762714304,-0.4755520653297577,0.0,0.0,0.0,0.0,0.013484079762714263,0.4755520653297576,0.4757431946401811,0.0,-0.7725808610212942,-27.247126282124718,0.0,0.0,0.0,0.0,0.7725808610212918,27.24712628212471,27.258077184953226
93,0.4651031494140625,1775825041.237365,0.506866236,-18.518219194592827,-1.5128035352981426,0.7150768577938174,-19.31,-0.92,0.8580291089979452,-0.7917808054071713,0.5928035352981426,0.1429522512041278,0.9993839209220514,0.0,0.0,0.0,0.0,0.0,0.0,0.00011417996798528789,0.00011417996798528789,0.0,0.0,0.0,0.0,-0.013484079762714304,-0.4755520653297577,0.0,0.0,0.0,0.0,0.013484079762714263,0.4755520653297576,0.4757431946401811,0.0,-0.7725808610212942,-27.247126282124718,0.0,0.0,0.0,0.0,0.7725808610212918,27.24712628212471,27.258077184953226
94,0.47009778022766113,1775825041.2423596,0.511860742,-18.518219194592827,-1.5128035352981426,0.7150768577938174,-19.31,-0.92,0.8580296727499305,-0.7917808054071713,0.5928035352981426,0.14295281495611312,0.9993840015615028,0.0,0.0,0.0,0.0,0.0,0.0,0.00011133341763156918,0.00011133341763156918,0.0,0.0,0.0,0.0,-0.013484079762714304,-0.4755520653297577,0.0,0.0,0.0,0.0,0.013484079762714263,0.4755520653297576,0.4757431946401811,0.0,-0.7725808610212942,-27.247126282124718,0.0,0.0,0.0,0.0,0.7725808610212918,27.24712628212471,27.258077184953226
95,0.4751129150390625,1775825041.2473748,0.516876075,-18.518219194592827,-1.5128035352981426,0.7150768577938174,-19.31,-0.92,0.8580302224520931,-0.7917808054071713,0.5928035352981426,0.1429533646582758,0.9993840801915582,0.0,0.0,0.0,0.0,0.0,0.0,0.00010855860239345165,0.00010855860239345165,0.0,0.0,0.0,0.0,-0.013484079762714304,-0.4755520653297577,0.0,0.0,0.0,0.0,0.013484079762714263,0.4755520653297576,0.4757431946401811,0.0,-0.7725808610212942,-27.247126282124718,0.0,0.0,0.0,0.0,0.7725808610212918,27.24712628212471,27.258077184953226
96,0.4801056385040283,1775825041.2523675,0.521868586,-18.518219194592827,-1.5128035352981426,0.7150768577938174,-19.31,-0.92,0.858030758449754,-0.7917808054071713,0.5928035352981426,0.1429539006559366,0.9993841568615907,0.0,0.0,0.0,0.0,0.0,0.0,0.00010585247113514072,0.00010585247113514072,0.0,0.0,0.0,0.0,-0.013484079762714304,-0.4755520653297577,0.0,0.0,0.0,0.0,0.013484079762714263,0.4755520653297576,0.4757431946401811,0.0,-0.7725808610212942,-27.247126282124718,0.0,0.0,0.0,0.0,0.7725808610212918,27.24712628212471,27.258077184953226
97,0.48510193824768066,1775825041.2573638,0.526864879,-18.518219194592827,-1.5128035352981426,0.7150768577938174,-19.31,-0.92,0.8580312810913724,-0.7917808054071713,0.5928035352981426,0.14295442329755503,0.9993842316214228,0.0,0.0,0.0,0.0,0.0,0.0,0.00010321483003344011,0.00010321483003344011,0.0,0.0,0.0,0.0,-0.013484079762714304,-0.4755520653297577,0.0,0.0,0.0,0.0,0.013484079762714263,0.4755520653297576,0.4757431946401811,0.0,-0.7725808610212942,-27.247126282124718,0.0,0.0,0.0,0.0,0.7725808610212918,27.24712628212471,27.258077184953226
98,0.4901118278503418,1775825041.2623737,0.531874985,-18.518219194592827,-1.5128035352981426,0.7150768577938174,-19.31,-0.92,0.8580317907063426,-0.7917808054071713,0.5928035352981426,0.14295493291252526,0.9993843045181516,0.0,0.0,0.0,0.0,0.0,0.0,0.00010064250842964386,0.00010064250842964386,0.0,0.0,0.0,0.0,-0.013484079762714304,-0.4755520653297577,0.0,0.0,0.0,0.0,0.013484079762714263,0.4755520653297576,0.4757431946401811,0.0,-0.7725808610212942,-27.247126282124718,0.0,0.0,0.0,0.0,0.7725808610212918,27.24712628212471,27.258077184953226
99,0.49509644508361816,1775825041.2673583,0.536859576,-18.518219194592827,-1.5128035352981426,0.7150768577938174,-19.31,-0.92,0.8580322876244676,-0.7917808054071713,0.5928035352981426,0.14295542983065024,0.9993843755989339,0.0,0.0,0.0,0.0,0.0,0.0,9.81347829691793e-05,9.81347829691793e-05,0.0,0.0,0.0,0.0,-0.013484079762714304,-0.4755520653297577,0.0,0.0,0.0,0.0,0.013484079762714263,0.4755520653297576,0.4757431946401811,0.0,-0.7725808610212942,-27.247126282124718,0.0,0.0,0.0,0.0,0.7725808610212918,27.24712628212471,27.258077184953226
100,0.500103235244751,1775825041.272365,0.541866202,-18.518219194592827,-1.5128035352981426,0.7150768577938174,-19.31,-0.92,0.8580327721566211,-0.7917808054071713,0.5928035352981426,0.14295591436280375,0.9993844449082196,0.0,0.0,0.0,0.0,0.0,0.0,9.568881021175765e-05,9.568881021175765e-05,0.0,0.0,0.0,0.0,-0.013484079762714304,-0.4755520653297577,0.0,0.0,0.0,0.0,0.013484079762714263,0.4755520653297576,0.4757431946401811,0.0,-0.7725808610212942,-27.247126282124718,0.0,0.0,0.0,0.0,0.7725808610212918,27.24712628212471,27.258077184953226
101,0.5051097869873047,1775825041.2773716,0.546872784,-18.518219194592827,-1.5128035352981426,0.7150768577938174,-19.31,-0.92,0.8580332446143957,-0.7917808054071713,0.5928035352981426,0.14295638682057832,0.9993845124905627,0.0,0.0,0.0,0.0,0.0,0.0,9.330376311256643e-05,9.330376311256643e-05,0.0,0.0,0.0,0.0,-0.013484079762714304,-0.4755520653297577,0.0,0.0,0.0,0.0,0.013484079762714263,0.4755520653297576,0.4757431946401811,0.0,-0.7725808610212942,-27.247126282124718,0.0,0.0,0.0,0.0,0.7725808610212918,27.24712628212471,27.258077184953226
102,0.5101654529571533,1775825041.2824273,0.551928592,-18.518219194592827,-1.5128035352981426,0.7150768577938174,-19.31,-0.92,0.8580337052914918,-0.7917808054071713,0.5928035352981426,0.14295684749767446,0.9993845783879589,0.0,0.0,0.0,0.0,0.0,0.0,9.097740126783507e-05,9.097740126783507e-05,0.0,0.0,0.0,0.0,-0.013484079762714304,-0.4755520653297577,0.0,0.0,0.0,0.0,0.013484079762714263,0.4755520653297576,0.4757431946401811,0.0,-0.7725808610212942,-27.247126282124718,0.0,0.0,0.0,0.0,0.7725808610212918,27.24712628212471,27.258077184953226
103,0.5151000022888184,1775825041.2873619,0.556862961,-18.518219194592827,-1.5128035352981426,0.7150768577938174,-19.31,-0.92,0.8580341544869093,-0.7917808054071713,0.5928035352981426,0.14295729669309198,0.9993846426431626,0.0,0.0,0.0,0.0,0.0,0.0,8.870992543304821e-05,8.870992543304821e-05,0.0,0.0,0.0,0.0,-0.013484079762714304,-0.4755520653297577,0.0,0.0,0.0,0.0,0.013484079762714263,0.4755520653297576,0.4757431946401811,0.0,-0.7725808610212942,-27.247126282124718,0.0,0.0,0.0,0.0,0.7725808610212918,27.24712628212471,27.258077184953226
104,0.5201029777526855,1775825041.2923648,0.56186608,-18.518219194592827,-1.5128035352981426,0.7150768577938174,-19.31,-0.92,0.8580345924835994,-0.7917808054071713,0.5928035352981426,0.142957734689782,0.9993847052966336,0.0,0.0,0.0,0.0,0.0,0.0,8.649845145246247e-05,8.649845145246247e-05,0.0,0.0,0.0,0.0,-0.013484079762714304,-0.4755520653297577,0.0,0.0,0.0,0.0,0.013484079762714263,0.4755520653297576,0.4757431946401811,0.0,-0.7725808610212942,-27.247126282124718,0.0,0.0,0.0,0.0,0.7725808610212918,27.24712628212471,27.258077184953226
105,0.5251102447509766,1775825041.297372,0.566873278,-18.518219194592827,-1.5128035352981426,0.7150768577938174,-19.31,-0.92,0.8580350195636821,-0.7917808054071713,0.5928035352981426,0.14295816176986476,0.9993847663887137,0.0,0.0,0.0,0.0,0.0,0.0,8.434215801107983e-05,8.434215801107983e-05,0.0,0.0,0.0,0.0,-0.013484079762714304,-0.4755520653297577,0.0,0.0,0.0,0.0,0.013484079762714263,0.4755520653297576,0.4757431946401811,0.0,-0.7725808610212942,-27.247126282124718,0.0,0.0,0.0,0.0,0.7725808610212918,27.24712628212471,27.258077184953226
