sample_idx,t_rel_s,stamp_s,t_in_traj_s,x_des_m,y_des_m,z_des_m,x_act_m,y_act_m,z_act_m,ex_m,ey_m,ez_m,e_pos_norm_m,vx_des_mps,vy_des_mps,vz_des_mps,speed_des_mps,vx_act_mps,vy_act_mps,vz_act_mps,speed_act_mps,wx_act_radps,wy_act_radps,wz_act_radps,roll_des_rad,pitch_des_rad,yaw_des_rad,roll_act_rad,pitch_act_rad,yaw_act_rad,e_roll_rad,e_pitch_rad,e_yaw_rad,e_ang_norm_rad,roll_des_deg,pitch_des_deg,yaw_des_deg,roll_act_deg,pitch_act_deg,yaw_act_deg,e_roll_deg,e_pitch_deg,e_yaw_deg,e_ang_norm_deg
0,0.0,1775824090.8864963,0.043425197,-19.162984547952153,-0.9916689604496365,0.8174968467919388,-19.31,-0.92,0.8426613666001948,-0.14701545204784594,0.07166896044963644,0.02516451980825596,0.16547880858268274,5.931314269359333,-2.9555340765684828,-1.046828198543148,6.709062521465144,0.0,0.0,0.0021696235682481546,0.0021696235682481546,0.0,0.0,0.0,0.0,0.15667212705764735,-0.46228130575865517,0.0,0.0,0.0,0.0,-0.15667212705764744,0.4622813057586552,0.48810875944884957,0.0,8.976651647740582,-26.4867677677677,0.0,0.0,0.0,0.0,-8.976651647740587,26.486767767767702,27.96657185978542
1,0.00531458854675293,1775824090.891811,0.048739815,-19.129435206516582,-1.008377861799841,0.8115791584986857,-19.31,-0.92,0.8426720779934407,-0.18056479348341625,0.08837786179984086,0.03109291949475501,0.20342335348904228,6.389739999807987,-3.2072609288518326,-1.1399279757817211,7.239802187964496,0.0,0.0,0.002115159719204616,0.002115159719204616,0.0,0.0,0.0,0.0,0.15811086455922105,-0.46519775847508577,0.0,0.0,0.0,0.0,-0.15811086455922085,0.4651977584750857,0.4913328810306801,0.0,9.05908523440795,-26.653868199568638,0.0,0.0,0.0,0.0,-9.05908523440794,26.653868199568635,28.151300419061357
2,0.010055780410766602,1775824090.896552,0.053480921,-19.097579643934466,-1.0243594590437644,0.8058995971360292,-19.31,-0.92,0.8426825203419945,-0.21242035606553245,0.10435945904376431,0.03678292320596532,0.23951260468395114,6.746156070516117,-3.4102190699087482,-1.216040659615233,7.6563026793856706,0.0,0.0,0.002062004656635263,0.002062004656635263,0.0,0.0,0.0,0.0,0.1595041876851395,-0.46804231120016615,0.0,0.0,0.0,0.0,-0.15950418768513952,0.46804231120016615,0.4944746615982354,0.0,9.138916769021053,-26.81684906531818,0.0,0.0,0.0,0.0,-9.138916769021055,26.81684906531818,28.33131118573849
3,0.015834569931030273,1775824090.9023309,0.059259634,-19.0566493640579,-1.045065027653744,0.7985131217730851,-19.31,-0.92,0.8426927003341969,-0.2533506359420983,0.12506502765374405,0.044179578561111765,0.2859713989827214,7.113580988943192,-3.6300474808890377,-1.299960993272953,8.091364395687174,0.0,0.0,0.002010207883215215,0.002010207883215215,0.0,0.0,0.0,0.0,0.16135960217396553,-0.47185217677676805,0.0,0.0,0.0,0.0,-0.1613596021739654,0.47185217677676805,0.4986796546308208,0.0,9.245224188478208,-27.035138283369644,0.0,0.0,0.0,0.0,-9.2452241884782,27.035138283369644,28.572239539387553
4,0.01997828483581543,1775824090.9064746,0.063403536,-19.026097384864418,-1.0606513532364352,0.792931763672909,-19.31,-0.92,0.8427026244248548,-0.283902615135581,0.14065135323643518,0.04977086075194581,0.3207189371210435,7.331746587648345,-3.7690529194324967,-1.3541541259415504,8.35428041974773,0.0,0.0,0.001959619514508579,0.001959619514508579,0.0,0.0,0.0,0.0,0.16280936382612718,-0.47484251551900014,0.0,0.0,0.0,0.0,-0.1628093638261272,0.47484251551900014,0.5019783894689891,0.0,9.328289412446983,-27.206472072614,0.0,0.0,0.0,0.0,-9.328289412446985,27.206472072614,28.761243123347363
5,0.025239944458007812,1775824090.9117362,0.06866514,-18.98613547161711,-1.0812168630154755,0.7855390036963328,-19.31,-0.92,0.8427122986314309,-0.32386452838288804,0.16121686301547544,0.05717329493509815,0.36626205825741326,7.554218562865687,-3.9231254015315513,-1.4157599470929592,8.629108136967533,0.0,0.0,0.0019102711312872364,0.0019102711312872364,0.0,0.0,0.0,0.0,0.16481306734967963,-0.47899103246451014,0.0,0.0,0.0,0.0,-0.1648130673496797,0.4789910324645099,0.506552816940768,0.0,9.443093167742031,-27.44416458483023,0.0,0.0,0.0,0.0,-9.443093167742036,27.44416458483022,29.023338511168998
6,0.03029918670654297,1775824090.9167955,0.073724348,-18.946754375115674,-1.1016951276650981,0.7781444208997211,-19.31,-0.92,0.8427217292426721,-0.36324562488432477,0.1816951276650981,0.06457730834295095,0.41125506947350865,7.710589735605565,-4.047609647459621,-1.4673945989424089,8.831171204208388,0.0,0.0,0.0018621906741317846,0.0018621906741317846,0.0,0.0,0.0,0.0,0.1669350735527769,-0.4834012530182197,0.0,0.0,0.0,0.0,-0.1669350735527768,0.48340125301821946,0.5114138150281586,0.0,9.564675167280086,-27.696851609279637,0.0,0.0,0.0,0.0,-9.56467516728008,27.696851609279623,29.301853185797643
7,0.03501391410827637,1775824090.9215102,0.078438942,-18.909466274446867,-1.1212949725627226,0.7710345819897864,-19.31,-0.92,0.8427309226356579,-0.4005337255531316,0.20129497256272255,0.07169634064587149,0.45396838716644955,7.805528129750881,-4.142733302867263,-1.5088039072727124,8.964652688956733,0.0,0.0,0.0018153626087915034,0.0018153626087915034,0.0,0.0,0.0,0.0,0.16911079608120086,-0.48793885056483016,0.0,0.0,0.0,0.0,-0.16911079608120083,0.48793885056483033,0.5164133840652713,0.0,9.689334885550311,-27.956836797829332,0.0,0.0,0.0,0.0,-9.68933488555031,27.956836797829343,29.58830739100848
8,0.03996849060058594,1775824090.9264648,0.083393539,-18.86992629449203,-1.142322958366262,0.7633694164713034,-19.31,-0.92,0.8427398848557722,-0.4400737055079702,0.22232295836626192,0.07937046838446882,0.49939166527667667,7.852504221923338,-4.220990050183681,-1.5453469913256466,9.048020605782941,0.0,0.0,0.001769730498450275,0.001769730498450275,0.0,0.0,0.0,0.0,0.17163538155882926,-0.4932222376049827,0.0,0.0,0.0,0.0,-0.17163538155882918,0.4932222376049826,0.5222325917356277,0.0,9.833982978438437,-28.25955257676419,0.0,0.0,0.0,0.0,-9.833982978438433,28.259552576764186,29.921723430630067
9,0.04509902000427246,1775824090.9315953,0.088524152,-18.82888093688222,-1.1644471541899666,0.7552602238341142,-19.31,-0.92,0.842748621919186,-0.4811190631177773,0.24444715418996654,0.0874883980850718,0.5467030125089791,7.844126083645973,-4.2785791488838925,-1.5756555821058058,9.0729953192328,0.0,0.0,0.0017252798221804875,0.0017252798221804875,0.0,0.0,0.0,0.0,0.17454931877442692,-0.4993432751369994,0.0,0.0,0.0,0.0,-0.17454931877442714,0.4993432751369995,0.5289718055900161,0.0,10.000939282658285,-28.610262193589918,0.0,0.0,0.0,0.0,-10.000939282658297,28.610262193589925,30.30785194172261
10,0.04997968673706055,1775824090.936476,0.093404871,-18.790008300881524,-1.1857130323958223,0.7474193314198216,-19.31,-0.92,0.8427571395297195,-0.5199916991184743,0.2657130323958222,0.09533780810989789,0.591679034944032,7.782307684784493,-4.311220960966793,-1.5973746175871575,9.03894599739632,0.0,0.0,0.0016819581746858195,0.0016819581746858195,0.0,0.0,0.0,0.0,0.17765435657779594,-0.5058915885145879,0.0,0.0,0.0,0.0,-0.17765435657779616,0.5058915885145878,0.5361784868314691,0.0,10.178844844019903,-28.9854529130548,0.0,0.0,0.0,0.0,-10.178844844019915,28.985452913054793,30.720764361153964
11,0.0550081729888916,1775824090.9415045,0.0984334,-18.75041070425513,-1.207733345736135,0.7392481729924997,-19.31,-0.92,0.8427654433717859,-0.5595892957448676,0.28773334573613496,0.10351727037928626,0.6376883905384552,7.663703761777272,-4.32227103855699,-1.6124973781781373,8.94508412893132,0.0,0.0,0.0016397535616464725,0.0016397535616464725,0.0,0.0,0.0,0.0,0.18125719783938954,-0.5135224656539608,0.0,0.0,0.0,0.0,-0.18125719783938976,0.5135224656539608,0.5445727632740284,0.0,10.385272442564805,-29.422669967123724,0.0,0.0,0.0,0.0,-10.385272442564817,29.422669967123724,31.201720973378706
12,0.06015324592590332,1775824090.9466496,0.103578362,-18.710660792285353,-1.2302604816490765,0.730828562982675,-19.31,-0.92,0.8427735388384194,-0.599339207714646,0.3102604816490765,0.11194497585574448,0.6841057886003302,7.4846705053355205,-4.309857791335036,-1.6203503939185957,8.787531061341573,0.0,0.0,0.0015986162116014308,0.0015986162116014308,0.0,0.0,0.0,0.0,0.18545321511067836,-0.5224538070537246,0.0,0.0,0.0,0.0,-0.18545321511067847,0.5224538070537248,0.5543923479809387,0.0,10.625686522973654,-29.934398134720656,0.0,0.0,0.0,0.0,-10.62568652297366,29.93439813472067,31.764341733655876
13,0.06504511833190918,1775824090.9515414,0.108470222,-18.673855235076275,-1.2515648251899945,0.7228034618841219,-19.31,-0.92,0.8427814313020175,-0.6361447649237242,0.3315648251899944,0.11997796941789562,0.7273308108342265,7.2603359724198855,-4.275805828840057,-1.6206693661749096,8.580300875424742,0.0,0.0,0.0015585345363794754,0.0015585345363794754,0.0,0.0,0.0,0.0,0.19002411907872957,-0.5322375912850884,0.0,0.0,0.0,0.0,-0.19002411907872974,0.5322375912850883,0.565142477087504,0.0,10.887580028902589,-30.49496767884445,0.0,0.0,0.0,0.0,-10.8875800289026,30.494967678844446,32.380278760682806
14,0.06997919082641602,1775824090.9564755,0.113404397,-18.637974440920217,-1.2728306598058312,0.7147247255840272,-19.31,-0.92,0.8427891258612153,-0.6720255590797812,0.35283065980583117,0.12806440027718813,0.7697456184830588,6.980630403820063,-4.2194887899271665,-1.6139329584880981,8.31493031104604,0.0,0.0,0.0015194625748626428,0.0015194625748626428,0.0,0.0,0.0,0.0,0.19534052964673806,-0.5436900404419378,0.0,0.0,0.0,0.0,-0.19534052964673787,0.5436900404419376,0.5777168706195309,0.0,11.192187916608225,-31.151144680620078,0.0,0.0,0.0,0.0,-11.192187916608214,31.151144680620067,33.10073844000455
15,0.07525444030761719,1775824090.9617507,0.118679583,-18.601293509714935,-1.2951958870733735,0.7061446489165097,-19.31,-0.92,0.8427966276029561,-0.7087064902850635,0.3751958870733735,0.1366519786864464,0.8134559645905054,6.6222421418221,-4.134874278551293,-1.5988906654882786,7.969173586046121,0.0,0.0,0.0014813907537499082,0.0014813907537499082,0.0,0.0,0.0,0.0,0.20200548442766292,-0.558161902324342,0.0,0.0,0.0,0.0,-0.20200548442766308,0.558161902324342,0.5935915472319186,0.0,11.57406169620076,-31.980321288178093,0.0,0.0,0.0,0.0,-11.574061696200769,31.980321288178093,34.0102904110294
16,0.07997679710388184,1775824090.966473,0.123401936,-18.570188092559256,-1.3147861370945844,0.6985479282854699,-19.31,-0.92,0.8428039413031989,-0.7398119074407425,0.3947861370945843,0.14425601301772906,0.8508745793152742,6.249383211451764,-4.037732912844676,-1.5785517456480933,7.605912385291652,0.0,0.0,0.0014442549395872438,0.0014442549395872438,0.0,0.0,0.0,0.0,0.20906231165714562,-0.5736294056744413,0.0,0.0,0.0,0.0,-0.20906231165714573,0.5736294056744411,0.6105388973766062,0.0,11.978388113203115,-32.866543949743246,0.0,0.0,0.0,0.0,-11.978388113203122,32.86654394974323,34.98130204825042
17,0.08499455451965332,1775824090.9714909,0.128419802,-18.539198156378355,-1.335045124869606,0.6905985762231088,-19.31,-0.92,0.8428110717516153,-0.7708018436216442,0.415045124869606,0.15221249552850646,0.8885755913840803,5.799329472162463,-3.912364642036215,-1.5498248995910182,7.165247842073547,0.0,0.0,0.00140807318249818,0.00140807318249818,0.0,0.0,0.0,0.0,0.2180205522070108,-0.5934910522308362,0.0,0.0,0.0,0.0,-0.2180205522070109,0.5934910522308363,0.6322693969050813,0.0,12.491657488573345,-34.004532471605216,0.0,0.0,0.0,0.0,-12.491657488573349,34.00453247160522,36.226367957943076
18,0.08998394012451172,1775824090.9764802,0.133409203,-18.51076067934215,-1.3545088975655013,0.6828554098112639,-19.31,-0.92,0.8428180235442851,-0.799239320657847,0.43450889756550126,0.15996261373302123,0.9236717553013645,5.296803713512422,-3.7650813601147144,-1.5139922377169104,6.672641135534662,0.0,0.0,0.0013727999002815757,0.0013727999002815757,0.0,0.0,0.0,0.0,0.22888885517218988,-0.617951778429414,0.0,0.0,0.0,0.0,-0.22888885517218993,0.617951778429414,0.6589798999105445,0.0,13.114365378947623,-35.406028846608805,0.0,0.0,0.0,0.0,-13.114365378947626,35.406028846608805,37.75676704882762
19,0.09516382217407227,1775824090.9816601,0.138588943,-18.484039448645603,-1.3738766853575817,0.6750256122683104,-19.31,-0.92,0.8428248012573775,-0.8259605513543953,0.45387668535758163,0.1677991889890671,0.9572729212352298,4.7170590609663785,-3.5883101112907605,-1.4691244754312303,6.106139726844417,0.0,0.0,0.001338426216669887,0.001338426216669887,0.0,0.0,0.0,0.0,0.2429818124891948,-0.6503198242379669,0.0,0.0,0.0,0.0,-0.24298181248919493,0.6503198242379669,0.6942305344749929,0.0,13.921832354070018,-37.260581262525,0.0,0.0,0.0,0.0,-13.921832354070025,37.260581262525,39.77647963452849
20,0.09998345375061035,1775824090.9864798,0.143408595,-18.462004059451303,-1.3910217514811416,0.6679661895719695,-19.31,-0.92,0.8428314091757361,-0.8479959405486959,0.47102175148114156,0.17486521960376655,0.9856654861475586,4.12450624716243,-3.40198853728318,-1.4203599024277176,5.531952642884114,0.0,0.0,0.0013048844497200683,0.0013048844497200683,0.0,0.0,0.0,0.0,0.2596637770739147,-0.6896948505074312,0.0,0.0,0.0,0.0,-0.25966377707391475,0.689694850507431,0.7369560800622784,0.0,14.877638518761177,-39.51660408598205,0.0,0.0,0.0,0.0,-14.87763851876118,39.51660408598204,42.22447307407375
21,0.10557818412780762,1775824090.9920745,0.149003328,-18.44017807917579,-1.4097273441898004,0.6600888874794701,-19.31,-0.92,0.8428378515224851,-0.869821920824208,0.48972734418980035,0.182748964043015,1.0148005860524052,3.3724499680136706,-3.159299881854934,-1.355270930979289,4.815740215854825,0.0,0.0,0.0012721887500860198,0.0012721887500860198,0.0,0.0,0.0,0.0,0.2852790747104839,-0.7527768172580966,0.0,0.0,0.0,0.0,-0.2852790747104841,0.7527768172580966,0.8050199296097581,0.0,16.345286964308027,-43.130934544179766,0.0,0.0,0.0,0.0,-16.345286964308034,43.130934544179766,46.12424439055775
22,0.1101994514465332,1775824090.9966958,0.153624707,-18.425451185477524,-1.4241016959291142,0.6538736848445243,-19.31,-0.92,0.8428441323807748,-0.8845488145224749,0.5041016959291141,0.18897044753625047,1.0354974433352193,2.6992040708545786,-2.937438802539162,-1.294632802995816,4.194081953106477,0.0,0.0,0.0012402966831842985,0.0012402966831842985,0.0,0.0,0.0,0.0,0.31380584773122266,-0.8276383817645021,0.0,0.0,0.0,0.0,-0.31380584773122244,0.8276383817645021,0.8851324200593236,0.0,17.97975066152402,-47.42018623814317,0.0,0.0,0.0,0.0,-17.979750661524005,47.42018623814317,50.71435197959997
23,0.11498785018920898,1775824091.0014842,0.15841303,-18.413591737956803,-1.4378654649455986,0.6477450833373029,-19.31,-0.92,0.8428502558613394,-0.8964082620431952,0.5178654649455986,0.19510517252403659,1.0534697149838987,1.9519834613673135,-2.6871454485385207,-1.2252448786858667,3.5400868785665063,0.0,0.0,0.0012092231562254414,0.0012092231562254414,0.0,0.0,0.0,0.0,0.3534172584090511,-0.9425610986927285,0.0,0.0,0.0,0.0,-0.3534172584090509,0.9425610986927282,1.0066405432477934,0.0,20.24931731392303,-54.0047728883072,0.0,0.0,0.0,0.0,-20.249317313923022,54.00477288830718,57.67625461485498
24,0.12011337280273438,1775824091.0066097,0.163538408,-18.405002426247297,-1.4512123675783304,0.6415717803183959,-19.31,-0.92,0.8428562258556749,-0.9049975737527021,0.5312123675783303,0.20128444553727898,1.0685142095366362,1.0961690562483644,-2.3962081758677045,-1.1435756078994725,2.872484184978972,0.0,0.0,0.0011789068612089709,0.0011789068612089709,0.0,0.0,0.0,0.0,0.4094597602621514,-1.1417561239692635,0.0,0.0,0.0,0.0,-0.4094597602621515,1.1417561239692633,1.2129568590412663,0.0,23.460316143459774,-65.4178071366544,0.0,0.0,0.0,0.0,-23.460316143459778,65.4178071366544,69.49730875450926
25,0.12543153762817383,1775824091.0119278,0.168856628,-18.400887768131895,-1.4634189522592593,0.6356299539579209,-19.31,-0.92,0.8428620462291098,-0.9091122318681037,0.5434189522592593,0.20723209227118888,1.079228589258944,0.14694601175868635,-2.0691555212685686,-1.0507479074899995,2.3253104882278834,0.0,0.0,0.0011493640622318464,0.0011493640622318464,0.0,0.0,0.0,0.0,0.4688651963937672,-1.4998979743412213,0.0,0.0,0.0,0.0,-0.4688651963937671,1.4998979743412217,1.5714733551105047,0.0,26.863996913935328,-85.93782362997342,0.0,0.0,0.0,0.0,-26.86399691393532,85.93782362997345,90.0387908650952
26,0.12994623184204102,1775824091.0164425,0.173371402,-18.4014735306937,-1.4723682971130954,0.6309886776310082,-19.31,-0.92,0.8428677206806128,-0.9085264693062989,0.5523682971130953,0.2118790430496046,1.084169640770948,-0.707797485459594,-1.771394810977168,-0.9654813039582631,2.1379829290882353,0.0,0.0,0.0011205425292025832,0.0011205425292025832,0.0,0.0,0.0,0.0,0.4685411419481927,-1.950932573078918,0.0,0.0,0.0,0.0,-0.46854114194819285,1.9509325730789175,2.006406914461382,0.0,26.845429961871456,-111.78020255202006,0.0,0.0,0.0,0.0,-26.845429961871464,111.78020255202003,114.95864818450316
27,0.1349790096282959,1775824091.0214753,0.17840411,-18.406803586343692,-1.4807068986036243,0.6262856893711338,-19.31,-0.92,0.8428732528911834,-0.9031964136563069,0.5607068986036242,0.2165875635200496,1.0849267995836682,-1.7135495746934746,-1.4177010533953767,-0.8634379286319859,2.385718650287758,0.0,0.0,0.0010924574008821923,0.0010924574008821923,0.0,0.0,0.0,0.0,0.37032608181552473,-2.4503973822617224,0.0,0.0,0.0,0.0,-0.3703260818155245,2.4503973822617224,2.4782228991492956,0.0,21.21812153164599,-140.39742813350176,0.0,0.0,0.0,0.0,-21.218121531645977,140.39742813350176,141.9917128139297
28,0.14011454582214355,1775824091.0266109,0.183539681,-18.417607263483642,-1.4873205919292096,0.6220353739619638,-19.31,-0.92,0.8428786464280726,-0.8923927365163564,0.5673205919292096,0.2208432724661088,1.0802727438973918,-2.7974064621650654,-1.0331144255021467,-0.7517067997979413,3.075365253690358,0.0,0.0,0.0010650786303086912,0.0010650786303086912,0.0,0.0,0.0,0.0,0.24693023237808226,-2.78781844891082,0.0,0.0,0.0,0.0,-0.24693023237808243,2.78781844891082,2.7987329711406597,0.0,14.148060149448783,-159.7302311712975,0.0,0.0,0.0,0.0,-14.148060149448792,159.7302311712975,160.35558723046904
29,0.1449723243713379,1775824091.0314686,0.188397435,-18.433081614651645,-1.4917043617494359,0.6185605601687827,-19.31,-0.92,0.8428839048490169,-0.876918385348354,0.5717043617494358,0.22432334468023418,1.0705852113558365,-3.8761289234172676,-0.6473341306868111,-0.6389528198239045,3.9814165335549703,0.0,0.0,0.001038399289251653,0.001038399289251653,0.0,0.0,0.0,0.0,0.161180777702558,-2.9761144988933976,0.0,0.0,0.0,0.0,-0.16118077770255823,2.9761144988933976,2.980475927368698,0.0,9.2349783009929,-170.5188001342836,0.0,0.0,0.0,0.0,-9.234978300992912,170.5188001342836,170.7686915785665
30,0.15070056915283203,1775824091.0371969,0.194125663,-18.45824335879989,-1.4943911241899794,0.6151908370805036,-19.31,-0.92,0.8428880165748088,-0.8517566412001081,0.5743911241899794,0.22769717949430524,1.0522644843034377,-5.114290641311132,-0.20163515175501937,-0.508041262561691,5.143416318235495,0.0,0.0,0.001017539065625056,0.001017539065625056,0.0,0.0,0.0,0.0,0.09893638737498914,-3.102187232664438,0.0,0.0,0.0,0.0,-0.09893638737498911,3.1021872326644377,3.103764494167213,0.0,5.668637436858279,-177.74223569104066,0.0,0.0,0.0,0.0,-5.668637436858278,177.74223569104063,177.8326061183381
31,0.15497350692749023,1775824091.0414698,0.198398725,-18.482119522937403,-1.4945498263922468,0.6132208474373559,-19.31,-0.92,0.8428940299059896,-0.827880477062596,0.5745498263922467,0.22967318246863366,1.0335585895603707,-5.601215207925175,-0.026829084736179787,-0.4568010550600499,5.619875337512747,0.0,0.0,0.0009870562450693134,0.0009870562450693134,0.0,0.0,0.0,0.0,0.08137290225981675,-3.1368028216400106,0.0,0.0,0.0,0.0,-0.08137290225981664,3.1368028216400106,3.1378581056304817,0.0,4.662323866218059,-179.72556284470053,0.0,0.0,0.0,0.0,-4.662323866218053,179.72556284470053,179.78602616354226
32,0.16001439094543457,1775824091.0465107,0.203439554,-18.516154920838023,-1.492602875141499,0.6115284838685919,-19.31,-0.92,0.842898903151742,-0.7938450791619758,0.572602875141499,0.23137041928315005,1.0057814540193388,-6.192875264774918,0.18647729801457874,-0.39407591716954965,6.208202127526846,0.0,0.0,0.0009623489658342728,0.0009623489658342728,0.0,0.0,0.0,0.0,0.06351936209967263,3.111490163138103,0.0,0.0,0.0,0.0,-0.0635193620996728,-3.111490163138103,3.1121384520401287,0.0,3.6393913656744807,178.2752543442853,0.0,0.0,0.0,0.0,-3.63939136567449,-178.2752543442853,178.31239856227654
33,0.16524767875671387,1775824091.051744,0.208672732,-18.558497696079964,-1.4880194904077475,0.61053277392277,-19.31,-0.92,0.8429036544373383,-0.7515023039200344,0.5680194904077475,0.23237088051456833,0.9702567085010608,-6.826862626568188,0.4160444844185765,-0.32634825606144674,6.84730965557152,0.0,0.0,0.0009382638304189598,0.0009382638304189598,0.0,0.0,0.0,0.0,0.04767886247024263,3.0807256647042993,0.0,0.0,0.0,0.0,-0.04767886247024267,-3.0807256647042993,3.081094593662162,0.0,2.7317975915295976,176.51257842519152,0.0,0.0,0.0,0.0,-2.7317975915295993,-176.51257842519152,176.5337164974172
34,0.16997194290161133,1775824091.0564682,0.213397087,-18.6024714126,-1.4816362014327475,0.6103322778695941,-19.31,-0.92,0.8429082867898835,-0.7075285873999988,0.5616362014327475,0.2325760089202894,0.9328041191339873,-7.416488292374791,0.6303967293402117,-0.2629229564910199,7.447873999225897,0.0,0.0,0.0009147805866871561,0.0009147805866871561,0.0,0.0,0.0,0.0,0.03530908241005482,3.0567971183524816,0.0,0.0,0.0,0.0,-0.03530908241005504,-3.0567971183524816,3.0570010392652263,0.0,2.0230614005757546,175.1415737093492,0.0,0.0,0.0,0.0,-2.023061400575767,-175.1415737093492,175.1532575170039
35,0.17496657371520996,1775824091.0614629,0.218391803,-18.6024714126,-1.4816362014327475,0.6103322778695941,-19.31,-0.92,0.8429128032427948,-0.7075285873999988,0.5616362014327475,0.23258052537320073,0.932805245231242,-8.057688952204158,0.8643483907221653,-0.19351235794752952,8.106225781687513,0.0,0.0,0.0008918940569438744,0.0008918940569438744,0.0,0.0,0.0,0.0,0.023874334065508155,3.034731270881241,0.0,0.0,0.0,0.0,-0.023874334065508318,-3.034731270881241,3.034825179527075,0.0,1.3678985806390256,173.8772937778677,0.0,0.0,0.0,0.0,-1.367898580639035,-173.8772937778677,173.88267434693378
36,0.1799781322479248,1775824091.0664744,0.22340332,-18.6024714126,-1.4816362014327475,0.6103322778695941,-19.31,-0.92,0.842917206679436,-0.7075285873999988,0.5616362014327475,0.23258492880984194,0.9328063431696435,-8.719467535834545,1.1066617201478226,-0.12143486562351119,8.790253733419876,0.0,0.0,0.0008695787465564319,0.0008695787465564319,0.0,0.0,0.0,0.0,0.013815156218002889,3.015349124891518,0.0,0.0,0.0,0.0,-0.01381515621800311,-3.015349124891518,3.0153807725601376,0.0,0.7915501446054818,172.76677861475017,0.0,0.0,0.0,0.0,-0.7915501446054944,-172.76677861475017,172.7685918925935
37,0.1852414608001709,1775824091.0717378,0.228666647,-18.6024714126,-1.4816362014327475,0.6103322778695941,-19.31,-0.92,0.8429214999780948,-0.7075285873999988,0.5616362014327475,0.23258922210850075,0.9328074136653722,-9.434364041780553,1.3693192571283839,-0.04311145949183513,9.53331624875227,0.0,0.0,0.0008478293371520289,0.0008478293371520289,0.0,0.0,0.0,0.0,0.004522204583159046,2.997457491840604,0.0,0.0,0.0,0.0,-0.004522204583158995,-2.997457491840604,2.997460903118781,0.0,0.25910323670973107,171.741663552336,0.0,0.0,0.0,0.0,-0.2591032367097281,-171.741663552336,171.74185900417828
38,0.18997859954833984,1775824091.076475,0.233403813,-18.6024714126,-1.4816362014327475,0.6103322778695941,-19.31,-0.92,0.8429256858730702,-0.7075285873999988,0.5616362014327475,0.23259340800347605,0.9328084573987926,0.0,0.0,0.0,0.0,0.0,0.0,0.0008266218378624725,0.0008266218378624725,0.0,0.0,0.0,0.0,0.004522204583159046,2.997457491840604,0.0,0.0,0.0,0.0,-0.004522204583158995,-2.997457491840604,2.997460903118781,0.0,0.25910323670973107,171.741663552336,0.0,0.0,0.0,0.0,-0.2591032367097281,-171.741663552336,171.74185900417828
39,0.1969895362854004,1775824091.0834858,0.240414627,-18.6024714126,-1.4816362014327475,0.6103322778695941,-19.31,-0.92,0.8429297670967456,-0.7075285873999988,0.5616362014327475,0.2325974892271515,0.9328094750498722,0.0,0.0,0.0,0.0,0.0,0.0,0.0008059518125430314,0.0008059518125430314,0.0,0.0,0.0,0.0,0.004522204583159046,2.997457491840604,0.0,0.0,0.0,0.0,-0.004522204583158995,-2.997457491840604,2.997460903118781,0.0,0.25910323670973107,171.741663552336,0.0,0.0,0.0,0.0,-0.2591032367097281,-171.741663552336,171.74185900417828
40,0.20009064674377441,1775824091.086587,0.243515742,-18.6024714126,-1.4816362014327475,0.6103322778695941,-19.31,-0.92,0.8429329584426055,-0.7075285873999988,0.5616362014327475,0.23260068057301142,0.9328102708220314,0.0,0.0,0.0,0.0,0.0,0.0,0.0007897792982200089,0.0007897792982200089,0.0,0.0,0.0,0.0,0.004522204583159046,2.997457491840604,0.0,0.0,0.0,0.0,-0.004522204583158995,-2.997457491840604,2.997460903118781,0.0,0.25910323670973107,171.741663552336,0.0,0.0,0.0,0.0,-0.2591032367097281,-171.741663552336,171.74185900417828
41,0.20525121688842773,1775824091.0917475,0.248676376,-18.6024714126,-1.4816362014327475,0.6103322778695941,-19.31,-0.92,0.8429368577740519,-0.7075285873999988,0.5616362014327475,0.23260457990445782,0.932811243146529,0.0,0.0,0.0,0.0,0.0,0.0,0.0007700356730363342,0.0007700356730363342,0.0,0.0,0.0,0.0,0.004522204583159046,2.997457491840604,0.0,0.0,0.0,0.0,-0.004522204583158995,-2.997457491840604,2.997460903118781,0.0,0.25910323670973107,171.741663552336,0.0,0.0,0.0,0.0,-0.2591032367097281,-171.741663552336,171.74185900417828
42,0.21008658409118652,1775824091.096583,0.25351173,-18.6024714126,-1.4816362014327475,0.6103322778695941,-19.31,-0.92,0.8429406596266127,-0.7075285873999988,0.5616362014327475,0.2326083817570186,0.9328121911787294,0.0,0.0,0.0,0.0,0.0,0.0,0.0007507899195082021,0.0007507899195082021,0.0,0.0,0.0,0.0,0.004522204583159046,2.997457491840604,0.0,0.0,0.0,0.0,-0.004522204583158995,-2.997457491840604,2.997460903118781,0.0,0.25910323670973107,171.741663552336,0.0,0.0,0.0,0.0,-0.2591032367097281,-171.741663552336,171.74185900417828
43,0.21560049057006836,1775824091.1020968,0.259025609,-18.6024714126,-1.4816362014327475,0.6103322778695941,-19.31,-0.92,0.842944366487532,-0.7075285873999988,0.5616362014327475,0.23261208861793792,0.9328131155377495,0.0,0.0,0.0,0.0,0.0,0.0,0.0007320305354780931,0.0007320305354780931,0.0,0.0,0.0,0.0,0.004522204583159046,2.997457491840604,0.0,0.0,0.0,0.0,-0.004522204583158995,-2.997457491840604,2.997460903118781,0.0,0.25910323670973107,171.741663552336,0.0,0.0,0.0,0.0,-0.2591032367097281,-171.741663552336,171.74185900417828
44,0.2201073169708252,1775824091.1066036,0.263532568,-18.6024714126,-1.4816362014327475,0.6103322778695941,-19.31,-0.92,0.8429479806717263,-0.7075285873999988,0.5616362014327475,0.23261570280213217,0.9328140167997977,0.0,0.0,0.0,0.0,0.0,0.0,0.0007137200978606043,0.0007137200978606043,0.0,0.0,0.0,0.0,0.004522204583159046,2.997457491840604,0.0,0.0,0.0,0.0,-0.004522204583158995,-2.997457491840604,2.997460903118781,0.0,0.25910323670973107,171.741663552336,0.0,0.0,0.0,0.0,-0.2591032367097281,-171.741663552336,171.74185900417828
45,0.22509098052978516,1775824091.1115873,0.268516073,-18.6024714126,-1.4816362014327475,0.6103322778695941,-19.31,-0.92,0.8429515044303731,-0.7075285873999988,0.5616362014327475,0.23261922656077905,0.9328148955252475,0.0,0.0,0.0,0.0,0.0,0.0,0.0006958559256596065,0.0006958559256596065,0.0,0.0,0.0,0.0,0.004522204583159046,2.997457491840604,0.0,0.0,0.0,0.0,-0.004522204583158995,-2.997457491840604,2.997460903118781,0.0,0.25910323670973107,171.741663552336,0.0,0.0,0.0,0.0,-0.2591032367097281,-171.741663552336,171.74185900417828
46,0.22972345352172852,1775824091.1162198,0.273148523,-18.6024714126,-1.4816362014327475,0.6103322778695941,-19.31,-0.92,0.8429542597967808,-0.7075285873999988,0.5616362014327475,0.23262198192718675,0.9328155826441665,0.0,0.0,0.0,0.0,0.0,0.0,0.0006818765655066843,0.0006818765655066843,0.0,0.0,0.0,0.0,0.004522204583159046,2.997457491840604,0.0,0.0,0.0,0.0,-0.004522204583158995,-2.997457491840604,2.997460903118781,0.0,0.25910323670973107,171.741663552336,0.0,0.0,0.0,0.0,-0.2591032367097281,-171.741663552336,171.74185900417828
47,0.23509788513183594,1775824091.1215942,0.278522935,-18.6024714126,-1.4816362014327475,0.6103322778695941,-19.31,-0.92,0.8429582894601872,-0.7075285873999988,0.5616362014327475,0.23262601159059315,0.9328165875543757,0.0,0.0,0.0,0.0,0.0,0.0,0.0006614460838160724,0.0006614460838160724,0.0,0.0,0.0,0.0,0.004522204583159046,2.997457491840604,0.0,0.0,0.0,0.0,-0.004522204583158995,-2.997457491840604,2.997460903118781,0.0,0.25910323670973107,171.741663552336,0.0,0.0,0.0,0.0,-0.2591032367097281,-171.741663552336,171.74185900417828
48,0.2403709888458252,1775824091.1268673,0.283796223,-18.6024714126,-1.4816362014327475,0.6103322778695941,-19.31,-0.92,0.8429615550853016,-0.7075285873999988,0.5616362014327475,0.23262927721570748,0.932817401942066,0.0,0.0,0.0,0.0,0.0,0.0,0.0006448760552381511,0.0006448760552381511,0.0,0.0,0.0,0.0,0.004522204583159046,2.997457491840604,0.0,0.0,0.0,0.0,-0.004522204583158995,-2.997457491840604,2.997460903118781,0.0,0.25910323670973107,171.741663552336,0.0,0.0,0.0,0.0,-0.2591032367097281,-171.741663552336,171.74185900417828
49,0.24509811401367188,1775824091.1315944,0.288523303,-18.6024714126,-1.4816362014327475,0.6103322778695941,-19.31,-0.92,0.8429647389292231,-0.7075285873999988,0.5616362014327475,0.23263246105962898,0.9328181959453317,0.0,0.0,0.0,0.0,0.0,0.0,0.0006287278065298149,0.0006287278065298149,0.0,0.0,0.0,0.0,0.004522204583159046,2.997457491840604,0.0,0.0,0.0,0.0,-0.004522204583158995,-2.997457491840604,2.997460903118781,0.0,0.25910323670973107,171.741663552336,0.0,0.0,0.0,0.0,-0.2591032367097281,-171.741663552336,171.74185900417828
50,0.2503228187561035,1775824091.1368191,0.293748066,-18.6024714126,-1.4816362014327475,0.6103322778695941,-19.31,-0.92,0.8429672284951096,-0.7075285873999988,0.5616362014327475,0.23263495062551554,0.9328188168130933,0.0,0.0,0.0,0.0,0.0,0.0,0.0006160991715137449,0.0006160991715137449,0.0,0.0,0.0,0.0,0.004522204583159046,2.997457491840604,0.0,0.0,0.0,0.0,-0.004522204583158995,-2.997457491840604,2.997460903118781,0.0,0.25910323670973107,171.741663552336,0.0,0.0,0.0,0.0,-0.2591032367097281,-171.741663552336,171.74185900417828
51,0.25460362434387207,1775824091.1411,0.298028781,-18.6024714126,-1.4816362014327475,0.6103322778695941,-19.31,-0.92,0.8429702702556037,-0.7075285873999988,0.5616362014327475,0.23263799238600957,0.9328195754,0.0,0.0,0.0,0.0,0.0,0.0,0.0006006693919587875,0.0006006693919587875,0.0,0.0,0.0,0.0,0.004522204583159046,2.997457491840604,0.0,0.0,0.0,0.0,-0.004522204583158995,-2.997457491840604,2.997460903118781,0.0,0.25910323670973107,171.741663552336,0.0,0.0,0.0,0.0,-0.2591032367097281,-171.741663552336,171.74185900417828
52,0.2616438865661621,1775824091.1481402,0.305069004,-18.6024714126,-1.4816362014327475,0.6103322778695941,-19.31,-0.92,0.8429732358160862,-0.7075285873999988,0.5616362014327475,0.2326409579464921,0.9328203149922846,0.0,0.0,0.0,0.0,0.0,0.0,0.000585619594074988,0.000585619594074988,0.0,0.0,0.0,0.0,0.004522204583159046,2.997457491840604,0.0,0.0,0.0,0.0,-0.004522204583158995,-2.997457491840604,2.997460903118781,0.0,0.25910323670973107,171.741663552336,0.0,0.0,0.0,0.0,-0.2591032367097281,-171.741663552336,171.74185900417828
53,0.2655496597290039,1775824091.152046,0.30897476,-18.6024714126,-1.4816362014327475,0.6103322778695941,-19.31,-0.92,0.8429755546882064,-0.7075285873999988,0.5616362014327475,0.2326432768186123,0.9328208933106853,0.0,0.0,0.0,0.0,0.0,0.0,0.000573855668606284,0.000573855668606284,0.0,0.0,0.0,0.0,0.004522204583159046,2.997457491840604,0.0,0.0,0.0,0.0,-0.004522204583158995,-2.997457491840604,2.997460903118781,0.0,0.25910323670973107,171.741663552336,0.0,0.0,0.0,0.0,-0.2591032367097281,-171.741663552336,171.74185900417828
54,0.2697420120239258,1775824091.1562383,0.313167205,-18.6024714126,-1.4816362014327475,0.6103322778695941,-19.31,-0.92,0.842978387867318,-0.7075285873999988,0.5616362014327475,0.23264610999772395,0.9328215999027448,0.0,0.0,0.0,0.0,0.0,0.0,0.0005594790189669652,0.0005594790189669652,0.0,0.0,0.0,0.0,0.004522204583159046,2.997457491840604,0.0,0.0,0.0,0.0,-0.004522204583158995,-2.997457491840604,2.997460903118781,0.0,0.25910323670973107,171.741663552336,0.0,0.0,0.0,0.0,-0.2591032367097281,-171.741663552336,171.74185900417828
55,0.2750985622406006,1775824091.1615949,0.318523767,-18.6024714126,-1.4816362014327475,0.6103322778695941,-19.31,-0.92,0.8429811500935146,-0.7075285873999988,0.5616362014327475,0.2326488722239205,0.9328222888069868,0.0,0.0,0.0,0.0,0.0,0.0,0.0005454689502352407,0.0005454689502352407,0.0,0.0,0.0,0.0,0.004522204583159046,2.997457491840604,0.0,0.0,0.0,0.0,-0.004522204583158995,-2.997457491840604,2.997460903118781,0.0,0.25910323670973107,171.741663552336,0.0,0.0,0.0,0.0,-0.2591032367097281,-171.741663552336,171.74185900417828
56,0.2805976867675781,1775824091.167094,0.324022949,-18.6024714126,-1.4816362014327475,0.6103322778695941,-19.31,-0.92,0.8429838431169255,-0.7075285873999988,0.5616362014327475,0.23265156524733144,0.9328229604593129,0.0,0.0,0.0,0.0,0.0,0.0,0.0005317999594190668,0.0005317999594190668,0.0,0.0,0.0,0.0,0.004522204583159046,2.997457491840604,0.0,0.0,0.0,0.0,-0.004522204583158995,-2.997457491840604,2.997460903118781,0.0,0.25910323670973107,171.741663552336,0.0,0.0,0.0,0.0,-0.2591032367097281,-171.741663552336,171.74185900417828
57,0.28484439849853516,1775824091.1713407,0.328269541,-18.6024714126,-1.4816362014327475,0.6103322778695941,-19.31,-0.92,0.8429864686770555,-0.7075285873999988,0.5616362014327475,0.23265419080746141,0.9328236152930082,0.0,0.0,0.0,0.0,0.0,0.0,0.0005184787101243112,0.0005184787101243112,0.0,0.0,0.0,0.0,0.004522204583159046,2.997457491840604,0.0,0.0,0.0,0.0,-0.004522204583158995,-2.997457491840604,2.997460903118781,0.0,0.25910323670973107,171.741663552336,0.0,0.0,0.0,0.0,-0.2591032367097281,-171.741663552336,171.74185900417828
58,0.29029297828674316,1775824091.1767893,0.333718073,-18.6024714126,-1.4816362014327475,0.6103322778695941,-19.31,-0.92,0.8429890284589109,-0.7075285873999988,0.5616362014327475,0.23265675058931679,0.9328242537277979,0.0,0.0,0.0,0.0,0.0,0.0,0.0005054914727676386,0.0005054914727676386,0.0,0.0,0.0,0.0,0.004522204583159046,2.997457491840604,0.0,0.0,0.0,0.0,-0.004522204583158995,-2.997457491840604,2.997460903118781,0.0,0.25910323670973107,171.741663552336,0.0,0.0,0.0,0.0,-0.2591032367097281,-171.741663552336,171.74185900417828
59,0.2947413921356201,1775824091.1812377,0.338166516,-18.6024714126,-1.4816362014327475,0.6103322778695941,-19.31,-0.92,0.8429915241467475,-0.7075285873999988,0.5616362014327475,0.2326592462771534,0.9328248761832504,0.0,0.0,0.0,0.0,0.0,0.0,0.0004928355545205194,0.0004928355545205194,0.0,0.0,0.0,0.0,0.004522204583159046,2.997457491840604,0.0,0.0,0.0,0.0,-0.004522204583158995,-2.997457491840604,2.997460903118781,0.0,0.25910323670973107,171.741663552336,0.0,0.0,0.0,0.0,-0.2591032367097281,-171.741663552336,171.74185900417828
60,0.299863338470459,1775824091.1863596,0.343288539,-18.6024714126,-1.4816362014327475,0.6103322778695941,-19.31,-0.92,0.8429939573411313,-0.7075285873999988,0.5616362014327475,0.23266167947153715,0.9328254830580904,0.0,0.0,0.0,0.0,0.0,0.0,0.0004804966498733668,0.0004804966498733668,0.0,0.0,0.0,0.0,0.004522204583159046,2.997457491840604,0.0,0.0,0.0,0.0,-0.004522204583158995,-2.997457491840604,2.997460903118781,0.0,0.25910323670973107,171.741663552336,0.0,0.0,0.0,0.0,-0.2591032367097281,-171.741663552336,171.74185900417828
61,0.304898738861084,1775824091.191395,0.348323945,-18.6024714126,-1.4816362014327475,0.6103322778695941,-19.31,-0.92,0.8429963296389569,-0.7075285873999988,0.5616362014327475,0.23266405176936278,0.9328260747501541,0.0,0.0,0.0,0.0,0.0,0.0,0.0004684716304200582,0.0004684716304200582,0.0,0.0,0.0,0.0,0.004522204583159046,2.997457491840604,0.0,0.0,0.0,0.0,-0.004522204583158995,-2.997457491840604,2.997460903118781,0.0,0.25910323670973107,171.741663552336,0.0,0.0,0.0,0.0,-0.2591032367097281,-171.741663552336,171.74185900417828
62,0.30994439125061035,1775824091.1964407,0.353369622,-18.6024714126,-1.4816362014327475,0.6103322778695941,-19.31,-0.92,0.8429981846504213,-0.7075285873999988,0.5616362014327475,0.23266590678082721,0.932826537426004,0.0,0.0,0.0,0.0,0.0,0.0,0.00045906716429453665,0.00045906716429453665,0.0,0.0,0.0,0.0,0.004522204583159046,2.997457491840604,0.0,0.0,0.0,0.0,-0.004522204583158995,-2.997457491840604,2.997460903118781,0.0,0.25910323670973107,171.741663552336,0.0,0.0,0.0,0.0,-0.2591032367097281,-171.741663552336,171.74185900417828
63,0.3149747848510742,1775824091.201471,0.358400015,-18.6024714126,-1.4816362014327475,0.6103322778695941,-19.31,-0.92,0.8430008976079111,-0.7075285873999988,0.5616362014327475,0.23266861973831698,0.9328272140964676,0.0,0.0,0.0,0.0,0.0,0.0,0.0004453201916585541,0.0004453201916585541,0.0,0.0,0.0,0.0,0.004522204583159046,2.997457491840604,0.0,0.0,0.0,0.0,-0.004522204583158995,-2.997457491840604,2.997460903118781,0.0,0.25910323670973107,171.741663552336,0.0,0.0,0.0,0.0,-0.2591032367097281,-171.741663552336,171.74185900417828
64,0.32019662857055664,1775824091.206693,0.363621701,-18.6024714126,-1.4816362014327475,0.6103322778695941,-19.31,-0.92,0.8430030962312928,-0.7075285873999988,0.5616362014327475,0.23267081836169867,0.9328277624862727,0.0,0.0,0.0,0.0,0.0,0.0,0.0004341780385191894,0.0004341780385191894,0.0,0.0,0.0,0.0,0.004522204583159046,2.997457491840604,0.0,0.0,0.0,0.0,-0.004522204583158995,-2.997457491840604,2.997460903118781,0.0,0.25910323670973107,171.741663552336,0.0,0.0,0.0,0.0,-0.2591032367097281,-171.741663552336,171.74185900417828
65,0.3247356414794922,1775824091.211232,0.368160852,-18.6024714126,-1.4816362014327475,0.6103322778695941,-19.31,-0.92,0.8430052398607717,-0.7075285873999988,0.5616362014327475,0.2326729619911776,0.9328282971639483,0.0,0.0,0.0,0.0,0.0,0.0,0.0004233179368808311,0.0004233179368808311,0.0,0.0,0.0,0.0,0.004522204583159046,2.997457491840604,0.0,0.0,0.0,0.0,-0.004522204583158995,-2.997457491840604,2.997460903118781,0.0,0.25910323670973107,171.741663552336,0.0,0.0,0.0,0.0,-0.2591032367097281,-171.741663552336,171.74185900417828
66,0.3297295570373535,1775824091.2162259,0.373154683,-18.6024714126,-1.4816362014327475,0.6103322778695941,-19.31,-0.92,0.8430073298599542,-0.7075285873999988,0.5616362014327475,0.2326750519903601,0.9328288184692625,0.0,0.0,0.0,0.0,0.0,0.0,0.0004127282634363387,0.0004127282634363387,0.0,0.0,0.0,0.0,0.004522204583159046,2.997457491840604,0.0,0.0,0.0,0.0,-0.004522204583158995,-2.997457491840604,2.997460903118781,0.0,0.25910323670973107,171.741663552336,0.0,0.0,0.0,0.0,-0.2591032367097281,-171.741663552336,171.74185900417828
67,0.3349158763885498,1775824091.2214122,0.378340917,-18.6024714126,-1.4816362014327475,0.6103322778695941,-19.31,-0.92,0.8430093675925635,-0.7075285873999988,0.5616362014327475,0.2326770897229694,0.9328293267420328,0.0,0.0,0.0,0.0,0.0,0.0,0.0004024067721367891,0.0004024067721367891,0.0,0.0,0.0,0.0,0.004522204583159046,2.997457491840604,0.0,0.0,0.0,0.0,-0.004522204583158995,-2.997457491840604,2.997460903118781,0.0,0.25910323670973107,171.741663552336,0.0,0.0,0.0,0.0,-0.2591032367097281,-171.741663552336,171.74185900417828
68,0.3398423194885254,1775824091.2263386,0.383267531,-18.6024714126,-1.4816362014327475,0.6103322778695941,-19.31,-0.92,0.8430113543361524,-0.7075285873999988,0.5616362014327475,0.23267907646655828,0.9328298223006026,0.0,0.0,0.0,0.0,0.0,0.0,0.0003923334946695718,0.0003923334946695718,0.0,0.0,0.0,0.0,0.004522204583159046,2.997457491840604,0.0,0.0,0.0,0.0,-0.004522204583158995,-2.997457491840604,2.997460903118781,0.0,0.25910323670973107,171.741663552336,0.0,0.0,0.0,0.0,-0.2591032367097281,-171.741663552336,171.74185900417828
69,0.3454098701477051,1775824091.2319062,0.388835105,-18.6024714126,-1.4816362014327475,0.6103322778695941,-19.31,-0.92,0.843013291351794,-0.7075285873999988,0.5616362014327475,0.23268101348219994,0.932830305459223,0.0,0.0,0.0,0.0,0.0,0.0,0.000382512918530507,0.000382512918530507,0.0,0.0,0.0,0.0,0.004522204583159046,2.997457491840604,0.0,0.0,0.0,0.0,-0.004522204583158995,-2.997457491840604,2.997460903118781,0.0,0.25910323670973107,171.741663552336,0.0,0.0,0.0,0.0,-0.2591032367097281,-171.741663552336,171.74185900417828
70,0.35064101219177246,1775824091.2371373,0.394066173,-18.6024714126,-1.4816362014327475,0.6103322778695941,-19.31,-0.92,0.8430144301973869,-0.7075285873999988,0.5616362014327475,0.23268215232779277,0.9328305895284189,0.0,0.0,0.0,0.0,0.0,0.0,0.00037673094249059726,0.00037673094249059726,0.0,0.0,0.0,0.0,0.004522204583159046,2.997457491840604,0.0,0.0,0.0,0.0,-0.004522204583158995,-2.997457491840604,2.997460903118781,0.0,0.25910323670973107,171.741663552336,0.0,0.0,0.0,0.0,-0.2591032367097281,-171.741663552336,171.74185900417828
71,0.35474514961242676,1775824091.2412415,0.398170398,-18.6024714126,-1.4816362014327475,0.6103322778695941,-19.31,-0.92,0.8430162901325886,-0.7075285873999988,0.5616362014327475,0.2326840122629945,0.9328310534661938,0.0,0.0,0.0,0.0,0.0,0.0,0.0003672813880399279,0.0003672813880399279,0.0,0.0,0.0,0.0,0.004522204583159046,2.997457491840604,0.0,0.0,0.0,0.0,-0.004522204583158995,-2.997457491840604,2.997460903118781,0.0,0.25910323670973107,171.741663552336,0.0,0.0,0.0,0.0,-0.2591032367097281,-171.741663552336,171.74185900417828
72,0.3621490001678467,1775824091.2486453,0.405574112,-18.6024714126,-1.4816362014327475,0.6103322778695941,-19.31,-0.92,0.8430181033917012,-0.7075285873999988,0.5616362014327475,0.23268582552210715,0.9328315057645448,0.0,0.0,0.0,0.0,0.0,0.0,0.00035806133448610544,0.00035806133448610544,0.0,0.0,0.0,0.0,0.004522204583159046,2.997457491840604,0.0,0.0,0.0,0.0,-0.004522204583158995,-2.997457491840604,2.997460903118781,0.0,0.25910323670973107,171.741663552336,0.0,0.0,0.0,0.0,-0.2591032367097281,-171.741663552336,171.74185900417828
73,0.3652353286743164,1775824091.2517316,0.408660405,-18.6024714126,-1.4816362014327475,0.6103322778695941,-19.31,-0.92,0.843019521175014,-0.7075285873999988,0.5616362014327475,0.2326872433054199,0.9328318594179335,0.0,0.0,0.0,0.0,0.0,0.0,0.00035085446454825614,0.00035085446454825614,0.0,0.0,0.0,0.0,0.004522204583159046,2.997457491840604,0.0,0.0,0.0,0.0,-0.004522204583158995,-2.997457491840604,2.997460903118781,0.0,0.25910323670973107,171.741663552336,0.0,0.0,0.0,0.0,-0.2591032367097281,-171.741663552336,171.74185900417828
74,0.3702571392059326,1775824091.2567534,0.413682236,-18.6024714126,-1.4816362014327475,0.6103322778695941,-19.31,-0.92,0.8430212533258066,-0.7075285873999988,0.5616362014327475,0.23268897545621248,0.9328322914902256,0.0,0.0,0.0,0.0,0.0,0.0,0.00034204334068876425,0.00034204334068876425,0.0,0.0,0.0,0.0,0.004522204583159046,2.997457491840604,0.0,0.0,0.0,0.0,-0.004522204583158995,-2.997457491840604,2.997460903118781,0.0,0.25910323670973107,171.741663552336,0.0,0.0,0.0,0.0,-0.2591032367097281,-171.741663552336,171.74185900417828
75,0.3746042251586914,1775824091.2611005,0.418029404,-18.6024714126,-1.4816362014327475,0.6103322778695941,-19.31,-0.92,0.8430226076806296,-0.7075285873999988,0.5616362014327475,0.23269032981103555,0.9328326293261895,0.0,0.0,0.0,0.0,0.0,0.0,0.00033515714093493456,0.00033515714093493456,0.0,0.0,0.0,0.0,0.004522204583159046,2.997457491840604,0.0,0.0,0.0,0.0,-0.004522204583158995,-2.997457491840604,2.997460903118781,0.0,0.25910323670973107,171.741663552336,0.0,0.0,0.0,0.0,-0.2591032367097281,-171.741663552336,171.74185900417828
76,0.3802528381347656,1775824091.2667491,0.42367792,-18.6024714126,-1.4816362014327475,0.6103322778695941,-19.31,-0.92,0.8430245882693123,-0.7075285873999988,0.5616362014327475,0.23269231039971816,0.9328331233758813,0.0,0.0,0.0,0.0,0.0,0.0,0.0003250922139843443,0.0003250922139843443,0.0,0.0,0.0,0.0,0.004522204583159046,2.997457491840604,0.0,0.0,0.0,0.0,-0.004522204583158995,-2.997457491840604,2.997460903118781,0.0,0.25910323670973107,171.741663552336,0.0,0.0,0.0,0.0,-0.2591032367097281,-171.741663552336,171.74185900417828
77,0.3852260112762451,1775824091.2717223,0.428651138,-18.6024714126,-1.4816362014327475,0.6103322778695941,-19.31,-0.92,0.8430261932614217,-0.7075285873999988,0.5616362014327475,0.2326939153918276,0.9328335237374472,0.0,0.0,0.0,0.0,0.0,0.0,0.00031693754446169333,0.00031693754446169333,0.0,0.0,0.0,0.0,0.004522204583159046,2.997457491840604,0.0,0.0,0.0,0.0,-0.004522204583158995,-2.997457491840604,2.997460903118781,0.0,0.25910323670973107,171.741663552336,0.0,0.0,0.0,0.0,-0.2591032367097281,-171.741663552336,171.74185900417828
78,0.3902263641357422,1775824091.2767227,0.433651602,-18.6024714126,-1.4816362014327475,0.6103322778695941,-19.31,-0.92,0.843027757967177,-0.7075285873999988,0.5616362014327475,0.2326954800975829,0.9328339140521682,0.0,0.0,0.0,0.0,0.0,0.0,0.0003089795302133059,0.0003089795302133059,0.0,0.0,0.0,0.0,0.004522204583159046,2.997457491840604,0.0,0.0,0.0,0.0,-0.004522204583158995,-2.997457491840604,2.997460903118781,0.0,0.25910323670973107,171.741663552336,0.0,0.0,0.0,0.0,-0.2591032367097281,-171.741663552336,171.74185900417828
79,0.39479684829711914,1775824091.2812932,0.438221977,-18.6024714126,-1.4816362014327475,0.6103322778695941,-19.31,-0.92,0.8430289814069639,-0.7075285873999988,0.5616362014327475,0.23269670353736982,0.9328342192400545,0.0,0.0,0.0,0.0,0.0,0.0,0.00030276122561998604,0.00030276122561998604,0.0,0.0,0.0,0.0,0.004522204583159046,2.997457491840604,0.0,0.0,0.0,0.0,-0.004522204583158995,-2.997457491840604,2.997460903118781,0.0,0.25910323670973107,171.741663552336,0.0,0.0,0.0,0.0,-0.2591032367097281,-171.741663552336,171.74185900417828
80,0.4002351760864258,1775824091.2867315,0.44366026,-18.6024714126,-1.4816362014327475,0.6103322778695941,-19.31,-0.92,0.8430307705347171,-0.7075285873999988,0.5616362014327475,0.232698492665123,0.9328346655418974,0.0,0.0,0.0,0.0,0.0,0.0,0.00029366097761441613,0.00029366097761441613,0.0,0.0,0.0,0.0,0.004522204583159046,2.997457491840604,0.0,0.0,0.0,0.0,-0.004522204583158995,-2.997457491840604,2.997460903118781,0.0,0.25910323670973107,171.741663552336,0.0,0.0,0.0,0.0,-0.2591032367097281,-171.741663552336,171.74185900417828
81,0.4052276611328125,1775824091.291724,0.448652693,-18.6024714126,-1.4816362014327475,0.6103322778695941,-19.31,-0.92,0.8430322203284561,-0.7075285873999988,0.5616362014327475,0.23269994245886205,0.9328350271984865,0.0,0.0,0.0,0.0,0.0,0.0,0.00028628632989031934,0.00028628632989031934,0.0,0.0,0.0,0.0,0.004522204583159046,2.997457491840604,0.0,0.0,0.0,0.0,-0.004522204583158995,-2.997457491840604,2.997460903118781,0.0,0.25910323670973107,171.741663552336,0.0,0.0,0.0,0.0,-0.2591032367097281,-171.741663552336,171.74185900417828
82,0.41027259826660156,1775824091.296769,0.453697816,-18.6024714126,-1.4816362014327475,0.6103322778695941,-19.31,-0.92,0.8430330726669344,-0.7075285873999988,0.5616362014327475,0.2327007947973403,0.9328352398185638,0.0,0.0,0.0,0.0,0.0,0.0,0.0002819517603188339,0.0002819517603188339,0.0,0.0,0.0,0.0,0.004522204583159046,2.997457491840604,0.0,0.0,0.0,0.0,-0.004522204583158995,-2.997457491840604,2.997460903118781,0.0,0.25910323670973107,171.741663552336,0.0,0.0,0.0,0.0,-0.2591032367097281,-171.741663552336,171.74185900417828
83,0.4152696132659912,1775824091.301766,0.458694763,-18.6024714126,-1.4816362014327475,0.6103322778695941,-19.31,-0.92,0.8430344646773007,-0.7075285873999988,0.5616362014327475,0.2327021868077066,0.9328355870640508,0.0,0.0,0.0,0.0,0.0,0.0,0.0002748830406699524,0.0002748830406699524,0.0,0.0,0.0,0.0,0.004522204583159046,2.997457491840604,0.0,0.0,0.0,0.0,-0.004522204583158995,-2.997457491840604,2.997460903118781,0.0,0.25910323670973107,171.741663552336,0.0,0.0,0.0,0.0,-0.2591032367097281,-171.741663552336,171.74185900417828
84,0.41961240768432617,1775824091.3061087,0.463037576,-18.6024714126,-1.4816362014327475,0.6103322778695941,-19.31,-0.92,0.8430347388637945,-0.7075285873999988,0.5616362014327475,0.23270246099420044,0.9328356554617758,0.0,0.0,0.0,0.0,0.0,0.0,0.0002734912917990015,0.0002734912917990015,0.0,0.0,0.0,0.0,0.004522204583159046,2.997457491840604,0.0,0.0,0.0,0.0,-0.004522204583158995,-2.997457491840604,2.997460903118781,0.0,0.25910323670973107,171.741663552336,0.0,0.0,0.0,0.0,-0.2591032367097281,-171.741663552336,171.74185900417828
85,0.4246838092803955,1775824091.31118,0.468108908,-18.6024714126,-1.4816362014327475,0.6103322778695941,-19.31,-0.92,0.8430363551060993,-0.7075285873999988,0.5616362014327475,0.2327040772365052,0.9328360586461786,0.0,0.0,0.0,0.0,0.0,0.0,0.0002652997720203954,0.0002652997720203954,0.0,0.0,0.0,0.0,0.004522204583159046,2.997457491840604,0.0,0.0,0.0,0.0,-0.004522204583158995,-2.997457491840604,2.997460903118781,0.0,0.25910323670973107,171.741663552336,0.0,0.0,0.0,0.0,-0.2591032367097281,-171.741663552336,171.74185900417828
86,0.4313468933105469,1775824091.3178432,0.474772132,-18.6024714126,-1.4816362014327475,0.6103322778695941,-19.31,-0.92,0.8430376649475204,-0.7075285873999988,0.5616362014327475,0.23270538707792632,0.9328363853983886,0.0,0.0,0.0,0.0,0.0,0.0,0.0002586663873077319,0.0002586663873077319,0.0,0.0,0.0,0.0,0.004522204583159046,2.997457491840604,0.0,0.0,0.0,0.0,-0.004522204583158995,-2.997457491840604,2.997460903118781,0.0,0.25910323670973107,171.741663552336,0.0,0.0,0.0,0.0,-0.2591032367097281,-171.741663552336,171.74185900417828
87,0.4347081184387207,1775824091.3212044,0.478133167,-18.6024714126,-1.4816362014327475,0.6103322778695941,-19.31,-0.92,0.8430389420523539,-0.7075285873999988,0.5616362014327475,0.23270666418275976,0.9328367039858108,0.0,0.0,0.0,0.0,0.0,0.0,0.00025220178644231884,0.00025220178644231884,0.0,0.0,0.0,0.0,0.004522204583159046,2.997457491840604,0.0,0.0,0.0,0.0,-0.004522204583158995,-2.997457491840604,2.997460903118781,0.0,0.25910323670973107,171.741663552336,0.0,0.0,0.0,0.0,-0.2591032367097281,-171.741663552336,171.74185900417828
88,0.43969273567199707,1775824091.326189,0.483117975,-18.6024714126,-1.4816362014327475,0.6103322778695941,-19.31,-0.92,0.8430401872212523,-0.7075285873999988,0.5616362014327475,0.2327079093516582,0.932837014608052,0.0,0.0,0.0,0.0,0.0,0.0,0.00024589305293047577,0.00024589305293047577,0.0,0.0,0.0,0.0,0.004522204583159046,2.997457491840604,0.0,0.0,0.0,0.0,-0.004522204583158995,-2.997457491840604,2.997460903118781,0.0,0.25910323670973107,171.741663552336,0.0,0.0,0.0,0.0,-0.2591032367097281,-171.741663552336,171.74185900417828
89,0.444688081741333,1775824091.3311844,0.488113199,-18.6024714126,-1.4816362014327475,0.6103322778695941,-19.31,-0.92,0.8430414012510022,-0.7075285873999988,0.5616362014327475,0.23270912338140815,0.9328373174637616,0.0,0.0,0.0,0.0,0.0,0.0,0.00023974393501883856,0.00023974393501883856,0.0,0.0,0.0,0.0,0.004522204583159046,2.997457491840604,0.0,0.0,0.0,0.0,-0.004522204583158995,-2.997457491840604,2.997460903118781,0.0,0.25910323670973107,171.741663552336,0.0,0.0,0.0,0.0,-0.2591032367097281,-171.741663552336,171.74185900417828
90,0.4496951103210449,1775824091.3361914,0.493120252,-18.6024714126,-1.4816362014327475,0.6103322778695941,-19.31,-0.92,0.8430425849152465,-0.7075285873999988,0.5616362014327475,0.23271030704565243,0.9328376127458226,0.0,0.0,0.0,0.0,0.0,0.0,0.000233748088711049,0.000233748088711049,0.0,0.0,0.0,0.0,0.004522204583159046,2.997457491840604,0.0,0.0,0.0,0.0,-0.004522204583158995,-2.997457491840604,2.997460903118781,0.0,0.25910323670973107,171.741663552336,0.0,0.0,0.0,0.0,-0.2591032367097281,-171.741663552336,171.74185900417828
91,0.4549098014831543,1775824091.341406,0.498334959,-18.6024714126,-1.4816362014327475,0.6103322778695941,-19.31,-0.92,0.8430437389860198,-0.7075285873999988,0.5616362014327475,0.2327114611164257,0.9328379006467229,0.0,0.0,0.0,0.0,0.0,0.0,0.0002279039791563095,0.0002279039791563095,0.0,0.0,0.0,0.0,0.004522204583159046,2.997457491840604,0.0,0.0,0.0,0.0,-0.004522204583158995,-2.997457491840604,2.997460903118781,0.0,0.25910323670973107,171.741663552336,0.0,0.0,0.0,0.0,-0.2591032367097281,-171.741663552336,171.74185900417828
92,0.46162986755371094,1775824091.3481262,0.505055119,-18.6024714126,-1.4816362014327475,0.6103322778695941,-19.31,-0.92,0.8430448641960353,-0.7075285873999988,0.5616362014327475,0.2327125863264412,0.9328381813491474,0.0,0.0,0.0,0.0,0.0,0.0,0.00022220441728046877,0.00022220441728046877,0.0,0.0,0.0,0.0,0.004522204583159046,2.997457491840604,0.0,0.0,0.0,0.0,-0.004522204583158995,-2.997457491840604,2.997460903118781,0.0,0.25910323670973107,171.741663552336,0.0,0.0,0.0,0.0,-0.2591032367097281,-171.741663552336,171.74185900417828
93,0.466571569442749,1775824091.3530679,0.509996646,-18.6024714126,-1.4816362014327475,0.6103322778695941,-19.31,-0.92,0.8430457440666494,-0.7075285873999988,0.5616362014327475,0.23271346619705535,0.9328384008484489,0.0,0.0,0.0,0.0,0.0,0.0,0.0002177454395621646,0.0002177454395621646,0.0,0.0,0.0,0.0,0.004522204583159046,2.997457491840604,0.0,0.0,0.0,0.0,-0.004522204583158995,-2.997457491840604,2.997460903118781,0.0,0.25910323670973107,171.741663552336,0.0,0.0,0.0,0.0,-0.2591032367097281,-171.741663552336,171.74185900417828
94,0.4697132110595703,1775824091.3562095,0.51313842,-18.6024714126,-1.4816362014327475,0.6103322778695941,-19.31,-0.92,0.8430468191029632,-0.7075285873999988,0.5616362014327475,0.2327145412333691,0.9328386690363457,0.0,0.0,0.0,0.0,0.0,0.0,0.00021229204071718095,0.00021229204071718095,0.0,0.0,0.0,0.0,0.004522204583159046,2.997457491840604,0.0,0.0,0.0,0.0,-0.004522204583158995,-2.997457491840604,2.997460903118781,0.0,0.25910323670973107,171.741663552336,0.0,0.0,0.0,0.0,-0.2591032367097281,-171.741663552336,171.74185900417828
95,0.47490739822387695,1775824091.3614037,0.51833257,-18.6024714126,-1.4816362014327475,0.6103322778695941,-19.31,-0.92,0.8430478672194278,-0.7075285873999988,0.5616362014327475,0.23271558934983372,0.9328389305097016,0.0,0.0,0.0,0.0,0.0,0.0,0.00020697636639466956,0.00020697636639466956,0.0,0.0,0.0,0.0,0.004522204583159046,2.997457491840604,0.0,0.0,0.0,0.0,-0.004522204583158995,-2.997457491840604,2.997460903118781,0.0,0.25910323670973107,171.741663552336,0.0,0.0,0.0,0.0,-0.2591032367097281,-171.741663552336,171.74185900417828
96,0.47971129417419434,1775824091.3662076,0.523136326,-18.6024714126,-1.4816362014327475,0.6103322778695941,-19.31,-0.92,0.8430488890880324,-0.7075285873999988,0.5616362014327475,0.23271661121843834,0.9328391854360736,0.0,0.0,0.0,0.0,0.0,0.0,0.00020179394524986704,0.00020179394524986704,0.0,0.0,0.0,0.0,0.004522204583159046,2.997457491840604,0.0,0.0,0.0,0.0,-0.004522204583158995,-2.997457491840604,2.997460903118781,0.0,0.25910323670973107,171.741663552336,0.0,0.0,0.0,0.0,-0.2591032367097281,-171.741663552336,171.74185900417828
97,0.484722375869751,1775824091.3712187,0.528147414,-18.6024714126,-1.4816362014327475,0.6103322778695941,-19.31,-0.92,0.8430498853794273,-0.7075285873999988,0.5616362014327475,0.23271760750983317,0.9328394339826893,0.0,0.0,0.0,0.0,0.0,0.0,0.00019674322725511835,0.00019674322725511835,0.0,0.0,0.0,0.0,0.004522204583159046,2.997457491840604,0.0,0.0,0.0,0.0,-0.004522204583158995,-2.997457491840604,2.997460903118781,0.0,0.25910323670973107,171.741663552336,0.0,0.0,0.0,0.0,-0.2591032367097281,-171.741663552336,171.74185900417828
98,0.4897165298461914,1775824091.3762128,0.533141782,-18.6024714126,-1.4816362014327475,0.6103322778695941,-19.31,-0.92,0.8430508567298045,-0.7075285873999988,0.5616362014327475,0.2327185788602104,0.932839676308185,0.0,0.0,0.0,0.0,0.0,0.0,0.00019181861899264914,0.00019181861899264914,0.0,0.0,0.0,0.0,0.004522204583159046,2.997457491840604,0.0,0.0,0.0,0.0,-0.004522204583158995,-2.997457491840604,2.997460903118781,0.0,0.25910323670973107,171.741663552336,0.0,0.0,0.0,0.0,-0.2591032367097281,-171.741663552336,171.74185900417828
99,0.49471378326416016,1775824091.38121,0.538138969,-18.6024714126,-1.4816362014327475,0.6103322778695941,-19.31,-0.92,0.8430518037752621,-0.7075285873999988,0.5616362014327475,0.23271952590566802,0.9328399125711776,0.0,0.0,0.0,0.0,0.0,0.0,0.0001870191678324374,0.0001870191678324374,0.0,0.0,0.0,0.0,0.004522204583159046,2.997457491840604,0.0,0.0,0.0,0.0,-0.004522204583158995,-2.997457491840604,2.997460903118781,0.0,0.25910323670973107,171.741663552336,0.0,0.0,0.0,0.0,-0.2591032367097281,-171.741663552336,171.74185900417828
100,0.4997215270996094,1775824091.3862178,0.543146584,-18.6024714126,-1.4816362014327475,0.6103322778695941,-19.31,-0.92,0.8430527271201884,-0.7075285873999988,0.5616362014327475,0.23272044925059432,0.9328401429223776,0.0,0.0,0.0,0.0,0.0,0.0,0.00018233935610649423,0.00018233935610649423,0.0,0.0,0.0,0.0,0.004522204583159046,2.997457491840604,0.0,0.0,0.0,0.0,-0.004522204583158995,-2.997457491840604,2.997460903118781,0.0,0.25910323670973107,171.741663552336,0.0,0.0,0.0,0.0,-0.2591032367097281,-171.741663552336,171.74185900417828
101,0.504753589630127,1775824091.39125,0.548178649,-18.6024714126,-1.4816362014327475,0.6103322778695941,-19.31,-0.92,0.8430536273678694,-0.7075285873999988,0.5616362014327475,0.23272134949827528,0.9328403675122244,0.0,0.0,0.0,0.0,0.0,0.0,0.00017777833716165406,0.00017777833716165406,0.0,0.0,0.0,0.0,0.004522204583159046,2.997457491840604,0.0,0.0,0.0,0.0,-0.004522204583158995,-2.997457491840604,2.997460903118781,0.0,0.25910323670973107,171.741663552336,0.0,0.0,0.0,0.0,-0.2591032367097281,-171.741663552336,171.74185900417828
102,0.5097105503082275,1775824091.3962069,0.553135598,-18.6024714126,-1.4816362014327475,0.6103322778695941,-19.31,-0.92,0.843054505091988,-0.7075285873999988,0.5616362014327475,0.23272222722239388,0.9328405864837759,0.0,0.0,0.0,0.0,0.0,0.0,0.00017333047797626382,0.00017333047797626382,0.0,0.0,0.0,0.0,0.004522204583159046,2.997457491840604,0.0,0.0,0.0,0.0,-0.004522204583158995,-2.997457491840604,2.997460903118781,0.0,0.25910323670973107,171.741663552336,0.0,0.0,0.0,0.0,-0.2591032367097281,-171.741663552336,171.74185900417828
103,0.5148777961730957,1775824091.401374,0.558302918,-18.6024714126,-1.4816362014327475,0.6103322778695941,-19.31,-0.92,0.8430553608595374,-0.7075285873999988,0.5616362014327475,0.23272308298994326,0.9328407999784247,0.0,0.0,0.0,0.0,0.0,0.0,0.00016899422877254572,0.00016899422877254572,0.0,0.0,0.0,0.0,0.004522204583159046,2.997457491840604,0.0,0.0,0.0,0.0,-0.004522204583158995,-2.997457491840604,2.997460903118781,0.0,0.25910323670973107,171.741663552336,0.0,0.0,0.0,0.0,-0.2591032367097281,-171.741663552336,171.74185900417828
104,0.5197210311889648,1775824091.4062173,0.563146225,-18.6024714126,-1.4816362014327475,0.6103322778695941,-19.31,-0.92,0.8430561952136851,-0.7075285873999988,0.5616362014327475,0.23272391734409104,0.932841008131623,0.0,0.0,0.0,0.0,0.0,0.0,0.00016476596124570766,0.00016476596124570766,0.0,0.0,0.0,0.0,0.004522204583159046,2.997457491840604,0.0,0.0,0.0,0.0,-0.004522204583158995,-2.997457491840604,2.997460903118781,0.0,0.25910323670973107,171.741663552336,0.0,0.0,0.0,0.0,-0.2591032367097281,-171.741663552336,171.74185900417828
105,0.5246181488037109,1775824091.4111145,0.568043334,-18.6024714126,-1.4816362014327475,0.6103322778695941,-19.31,-0.92,0.8430568476455906,-0.7075285873999988,0.5616362014327475,0.23272456977599654,0.9328411708996693,0.0,0.0,0.0,0.0,0.0,0.0,0.00016146084602313747,0.00016146084602313747,0.0,0.0,0.0,0.0,0.004522204583159046,2.997457491840604,0.0,0.0,0.0,0.0,-0.004522204583158995,-2.997457491840604,2.997460903118781,0.0,0.25910323670973107,171.741663552336,0.0,0.0,0.0,0.0,-0.2591032367097281,-171.741663552336,171.74185900417828
106,0.5297460556030273,1775824091.4162424,0.57317124,-18.6024714126,-1.4816362014327475,0.6103322778695941,-19.31,-0.92,0.8430578018162346,-0.7075285873999988,0.5616362014327475,0.23272552394664048,0.9328414089459589,0.0,0.0,0.0,0.0,0.0,0.0,0.000156619125853791,0.000156619125853791,0.0,0.0,0.0,0.0,0.004522204583159046,2.997457491840604,0.0,0.0,0.0,0.0,-0.004522204583158995,-2.997457491840604,2.997460903118781,0.0,0.25910323670973107,171.741663552336,0.0,0.0,0.0,0.0,-0.2591032367097281,-171.741663552336,171.74185900417828
