sample_idx,t_rel_s,stamp_s,t_in_traj_s,x_des_m,y_des_m,z_des_m,x_act_m,y_act_m,z_act_m,ex_m,ey_m,ez_m,e_pos_norm_m,vx_des_mps,vy_des_mps,vz_des_mps,speed_des_mps,vx_act_mps,vy_act_mps,vz_act_mps,speed_act_mps,wx_act_radps,wy_act_radps,wz_act_radps,roll_des_rad,pitch_des_rad,yaw_des_rad,roll_act_rad,pitch_act_rad,yaw_act_rad,e_roll_rad,e_pitch_rad,e_yaw_rad,e_ang_norm_rad,roll_des_deg,pitch_des_deg,yaw_des_deg,roll_act_deg,pitch_act_deg,yaw_act_deg,e_roll_deg,e_pitch_deg,e_yaw_deg,e_ang_norm_deg
0,0.0,1775827581.794161,0.003785996,-19.310267158131516,0.9194586061931838,0.9004872092136122,-19.31,0.92,0.9013349465572895,0.0002671581315176752,0.0005413938068162816,0.0008477373436772684,0.0010407397970482496,-0.3424019791205681,-0.7361822049546941,-0.43843576427590286,0.9227292525946234,0.0,0.0,0.0014775542151742726,0.0014775542151742726,0.0,0.0,0.0,0.0,0.4951356791326608,-2.006140278290422,0.0,0.0,0.0,0.0,-0.49513567913266066,2.006140278290422,2.0663393131161527,0.0,28.36918470064521,-114.94337105724163,0.0,0.0,0.0,0.0,-28.3691847006452,114.94337105724163,118.39252168351706
1,0.005713462829589844,1775827581.7998745,0.009499541,-19.31143857075528,0.9169932064662388,0.8986192698643006,-19.31,0.92,0.9013422418068001,0.0014385707552797555,0.0030067935337612095,0.002722971942499486,0.004304052668387529,-0.4142761896431555,-0.8983303132964111,-0.49618029271773423,1.1067145051791525,0.0,0.0,0.0014406938918638864,0.0014406938918638864,0.0,0.0,0.0,0.0,0.46490323164202596,-2.002894060752652,0.0,0.0,0.0,0.0,-0.46490323164202607,2.002894060752652,2.056141929291227,0.0,26.636993055080957,-114.75737649294607,0.0,0.0,0.0,0.0,-26.636993055080964,114.75737649294607,117.80825462827384
2,0.010007381439208984,1775827581.8041685,0.013793428,-19.312903806485743,0.9138648589546235,0.8967360575445076,-19.31,0.92,0.9013493549006807,0.002903806485743843,0.006135141045376491,0.004613297356173107,0.008206982408278034,-0.4666000560996495,-1.0180507817342974,-0.5378553624903495,1.2423491447663315,0.0,0.0,0.0014046877945006662,0.0014046877945006662,0.0,0.0,0.0,0.0,0.44774524566068363,-2.0005532871590423,0.0,0.0,0.0,0.0,-0.44774524566068363,2.0005532871590423,2.05004616040093,0.0,25.65391287340541,-114.62326004523655,0.0,0.0,0.0,0.0,-25.65391287340541,114.62326004523655,117.45899279797268
3,0.015003204345703125,1775827581.8091643,0.018789239,-19.315212847836445,0.9088821603248779,0.8940551219291499,-19.31,0.92,0.9013562901312226,0.005212847836446599,0.011117839675122143,0.0073011682020727164,0.014285909096820678,-0.5256503717850917,-1.1550325803836974,-0.5844837701919234,1.3971506191972978,0.0,0.0,0.001369546608312443,0.001369546608312443,0.0,0.0,0.0,0.0,0.4316167668550923,-1.9978797586812833,0.0,0.0,0.0,0.0,-0.4316167668550923,1.9978797586812833,2.043970783445504,0.0,24.72981910787883,-114.47007814705293,0.0,0.0,0.0,0.0,-24.72981910787883,114.47007814705293,117.11089933947572
4,0.020020484924316406,1775827581.8141816,0.023806441,-19.31815760438118,0.9024601708896075,0.8908612250329768,-19.31,0.92,0.9013630518193091,0.008157604381182182,0.017539829110392535,0.010501826786332269,0.022010917298281373,-0.6317094724034078,-1.3992007500735564,-0.6686344245001002,1.674482484279001,0.0,0.0,0.0013352765793730906,0.0013352765793730906,0.0,0.0,0.0,0.0,0.4107620489282905,-1.9948793415441086,0.0,0.0,0.0,0.0,-0.4107620489282904,1.9948793415441086,2.0367299890165174,0.0,23.534931787737264,-114.29816690831409,0.0,0.0,0.0,0.0,-23.534931787737257,114.29816690831409,116.69603237837296
5,0.02748274803161621,1775827581.8216438,0.031268748,-19.32363351771416,0.8903609504247998,0.8852463917405039,-19.31,0.92,0.9013670273584542,0.01363351771416177,0.02963904957520025,0.016120635617950296,0.036389846904188373,-0.8022249775374134,-1.8009745203803076,-0.80193606717176,2.1284209154852083,0.0,0.0,0.0013151334246178637,0.0013151334246178637,0.0,0.0,0.0,0.0,0.38631238573917037,-1.9898511737387048,0.0,0.0,0.0,0.0,-0.3863123857391706,1.989851173738705,2.027003935123164,0.0,22.134069276484315,-114.0100741143809,0.0,0.0,0.0,0.0,-22.134069276484325,114.01007411438091,116.13877053896702
6,0.029563188552856445,1775827581.8237243,0.033349047,-19.325382325289365,0.8864593343479732,0.8835084360353433,-19.31,0.92,0.9013709429100073,0.015382325289365895,0.033540665652026846,0.017862506874663953,0.04099586973752766,-0.8474158870857452,-1.9100151458578327,-0.8367112017140633,2.2508569874973023,0.0,0.0,0.0012952804987045583,0.0012952804987045583,0.0,0.0,0.0,0.0,0.38087193059765695,-1.9883735364851787,0.0,0.0,0.0,0.0,-0.3808719305976571,1.9883735364851791,2.024522844551714,0.0,21.822354158245346,-113.92541173610255,0.0,0.0,0.0,0.0,-21.822354158245354,113.92541173610257,115.99661452063324
7,0.034580230712890625,1775827581.8287413,0.038366138,-19.329978226185236,0.8761272580937628,0.8790279999460007,-19.31,0.92,0.9013773377715236,0.019978226185237702,0.043872741906237245,0.022349337825522952,0.05313605089879351,-0.9521982726617751,-2.1676743734969754,-0.9162992376147151,2.5387197625631863,0.0,0.0,0.0012627904769079883,0.0012627904769079883,0.0,0.0,0.0,0.0,0.369264546577393,-1.9846929693812698,0.0,0.0,0.0,0.0,-0.36926454657739294,1.9846929693812694,2.018752706021827,0.0,21.157300042696626,-113.71453077483388,0.0,0.0,0.0,0.0,-21.157300042696622,113.71453077483386,115.66600993566489
8,0.0395658016204834,1775827581.833727,0.043351879,-19.33505148146463,0.8645977333368371,0.8741949685230233,-19.31,0.92,0.9013835721595994,0.025051481464632985,0.05540226666316295,0.02718860363657616,0.06660486500771479,-1.0504361770165007,-2.416278442641121,-0.9893959434730177,2.8143777300352033,0.0,0.0,0.0012311040936053006,0.0012311040936053006,0.0,0.0,0.0,0.0,0.3592268250711584,-1.9808820146966857,0.0,0.0,0.0,0.0,-0.35922682507115855,1.980882014696686,2.013190867255141,0.0,20.582180964461685,-113.4961791554916,0.0,0.0,0.0,0.0,-20.582180964461692,113.49617915549162,115.34734004800153
9,0.04457545280456543,1775827581.8387365,0.048361437,-19.340627487417965,0.8517834543535815,0.8689868429282671,-19.31,0.92,0.9013896501743582,0.030627487417966393,0.06821654564641855,0.032402807246091125,0.08149528822511722,-1.1432299536636494,-2.6585950286821514,-1.0568237230349666,3.0809054894716796,0.0,0.0,0.0012002292858227163,0.0012002292858227163,0.0,0.0,0.0,0.0,0.35013406334470565,-1.9769052071252298,0.0,0.0,0.0,0.0,-0.35013406334470565,1.9769052071252293,2.007672299025197,0.0,20.061204093417853,-113.2683248657115,0.0,0.0,0.0,0.0,-20.061204093417853,113.26832486571148,115.03114937947076
10,0.0496368408203125,1775827581.843798,0.053422843,-19.346718119047924,0.8376229323982674,0.8633972199631301,-19.31,0.92,0.9013955757429633,0.03671811904792577,0.08237706760173269,0.037998355779833126,0.0978676482554315,-1.230964285398439,-2.895809938160115,-1.1188229414101245,3.3395737818019504,0.0,0.0,0.0011701285277703757,0.0011701285277703757,0.0,0.0,0.0,0.0,0.34162611760108896,-1.9727386512893232,0.0,0.0,0.0,0.0,-0.3416261176010891,1.9727386512893235,2.002100444662558,0.0,19.573734709982325,-113.02959880120846,0.0,0.0,0.0,0.0,-19.573734709982332,113.02959880120846,114.71190564042999
11,0.054578304290771484,1775827581.8487394,0.058364322,-19.353078298378666,0.8226580095634155,0.8576520985413008,-19.31,0.92,0.9014013527163777,0.04307829837866706,0.09734199043658454,0.04374925417507691,0.11508779315910558,-1.3107823271482746,-3.1200250999015307,-1.173412293930032,3.581843567874781,0.0,0.0,0.0011407820179474555,0.0011407820179474555,0.0,0.0,0.0,0.0,0.3337623778114075,-1.9685256069020858,0.0,0.0,0.0,0.0,-0.3337623778114076,1.9685256069020856,1.9966197409300424,0.0,19.123175608844484,-112.78820913891848,0.0,0.0,0.0,0.0,-19.12317560884449,112.78820913891846,114.39788444779525
12,0.059568166732788086,1775827581.8537292,0.063354101,-19.359886311694876,0.8064409590073374,0.8515919134475805,-19.31,0.92,0.9014069847925174,0.049886311694876895,0.11355904099266267,0.0498150713449369,0.13366316328290606,-1.3855282159922486,-3.339033978163266,-1.222579281244984,3.816220177553828,0.0,0.0,0.0011121755303984816,0.0011121755303984816,0.0,0.0,0.0,0.0,0.3261136371621737,-1.964122828693293,0.0,0.0,0.0,0.0,-0.32611363716217356,1.9641228286932932,1.9910119513798217,0.0,18.684935051053234,-112.53594852942248,0.0,0.0,0.0,0.0,-18.684935051053227,112.5359485294225,114.07658177417005
13,0.06529998779296875,1775827581.859461,0.069085988,-19.36814724299677,0.7864884918669117,0.8443479020744564,-19.31,0.92,0.9014124756994601,0.0581472429967711,0.13351150813308832,0.05706457362500372,0.15640585102578716,-1.4641329694702774,-3.5814406397889456,-1.2716723944762807,4.072781983791269,0.0,0.0,0.0010843020491381507,0.0010843020491381507,0.0,0.0,0.0,0.0,0.3175466349606333,-1.95887539404692,0.0,0.0,0.0,0.0,-0.3175466349606335,1.9588753940469203,1.984446692349608,0.0,18.194081981825683,-112.23529267091457,0.0,0.0,0.0,0.0,-18.194081981825697,112.2352926709146,113.70042014032865
14,0.07097291946411133,1775827581.865134,0.074758852,-19.376744979783457,0.7654009121023819,0.8369235522800565,-19.31,0.92,0.9014157039409012,0.06674497978345784,0.15459908789761811,0.06449215166084465,0.18031918348005857,-1.534287640798304,-3.8116926969957743,-1.3124840360213217,4.313427190280157,0.0,0.0,0.001067901585958976,0.001067901585958976,0.0,0.0,0.0,0.0,0.30918113767938454,-1.9534743787963011,0.0,0.0,0.0,0.0,-0.3091811376793845,1.953474378796301,1.97779046526934,0.0,17.714774294081966,-111.92583729196834,0.0,0.0,0.0,0.0,-17.714774294081963,111.92583729196832,113.31904642114861
15,0.07501769065856934,1775827581.8691788,0.078803625,-19.383107591278257,0.7495811739606256,0.831499413249768,-19.31,0.92,0.901420976264629,0.07310759127825861,0.17041882603937442,0.06992156301486108,0.19818254500734583,-1.579666259203982,-3.969995470035755,-1.3368587793076838,4.476985695575087,0.0,0.0,0.00104114365415241,0.00104114365415241,0.0,0.0,0.0,0.0,0.3032326135830434,-1.9494921498850877,0.0,0.0,0.0,0.0,-0.30323261358304343,1.9494921498850877,1.972934276757334,0.0,17.373948969029744,-111.69767238230082,0.0,0.0,0.0,0.0,-17.373948969029748,111.69767238230082,113.04080731489074
16,0.08005785942077637,1775827581.874219,0.083843837,-19.391280204757347,0.7289881509672332,0.824615351250803,-19.31,0.92,0.9014261165323549,0.08128020475734843,0.1910118490327668,0.07681076528155195,0.22134112094107286,-1.6308050417375595,-4.160421493304394,-1.361728781822671,4.671502687717311,0.0,0.0,0.0010150814071242158,0.0010150814071242158,0.0,0.0,0.0,0.0,0.2957913759812163,-1.9443704788517735,0.0,0.0,0.0,0.0,-0.2957913759812163,1.9443704788517735,1.9667407295154937,0.0,16.947597460091004,-111.40422224803751,0.0,0.0,0.0,0.0,-16.947597460091004,111.40422224803751,112.6859431977184
17,0.08505749702453613,1775827581.8792186,0.088843535,-19.399626916969396,0.7076311953135688,0.8176779041511525,-19.31,0.92,0.9014311281940888,0.08962691696939729,0.21236880468643127,0.08375322404293628,0.24525108763666903,-1.675604648633122,-4.341823188053167,-1.3803658023958467,4.8543268620130045,0.0,0.0,0.000989686910833838,0.000989686910833838,0.0,0.0,0.0,0.0,0.2883365293665765,-1.9391078109997,0.0,0.0,0.0,0.0,-0.2883365293665765,1.9391078109997002,1.960427773943027,0.0,16.520466212154755,-111.10269359113452,0.0,0.0,0.0,0.0,-16.520466212154755,111.10269359113452,112.32423748716246
18,0.0900571346282959,1775827581.8842182,0.093843102,-19.40818262743438,0.6853865375537906,0.8106624830707169,-19.31,0.92,0.9014360144598753,0.09818262743437955,0.2346134624462094,0.09077353138915845,0.27004284677024054,-1.7144991212141742,-4.5157570073981015,-1.3929938430022102,5.02712645883822,0.0,0.0,0.0009649305253548331,0.0009649305253548331,0.0,0.0,0.0,0.0,0.28076986023843725,-1.9336552653776238,0.0,0.0,0.0,0.0,-0.2807698602384372,1.9336552653776238,1.9539330591760098,0.0,16.08692800614044,-110.79028573938702,0.0,0.0,0.0,0.0,-16.086928006140436,110.79028573938702,111.95211774187109
19,0.09505486488342285,1775827581.889216,0.098840809,-19.416914755382493,0.662299687866852,0.8036015800733901,-19.31,0.92,0.901440778554681,0.10691475538249406,0.25770031213314804,0.09783919848129086,0.29565642991736524,-1.747478534895563,-4.68216725735212,-1.3996121252092595,5.189921536668334,0.0,0.0,0.000940805488645599,0.000940805488645599,0.0,0.0,0.0,0.0,0.2730595203102921,-1.9280055499432582,0.0,0.0,0.0,0.0,-0.2730595203102921,1.9280055499432578,1.947245978874803,0.0,15.645158069646522,-110.46658088954796,0.0,0.0,0.0,0.0,-15.645158069646522,110.46658088954793,111.56897626334688
20,0.10005450248718262,1775827581.8942156,0.103840503,-19.425800520158568,0.638390144722803,0.7965197897238847,-19.31,0.92,0.9014454235167249,0.11580052015856879,0.28160985527719706,0.10492563379284015,0.322060956474187,-1.774568050748559,-4.841181748372819,-1.4002255145457356,5.342917178761104,0.0,0.0,0.0009172846460827476,0.0009172846460827476,0.0,0.0,0.0,0.0,0.2651679475312497,-1.9221442640007984,0.0,0.0,0.0,0.0,-0.26516794753124984,1.9221442640007984,1.9403485800312033,0.0,15.193004255687066,-110.13075394252564,0.0,0.0,0.0,0.0,-15.193004255687073,110.13075394252564,111.17378441999018
21,0.10504651069641113,1775827581.8992076,0.108832473,-19.43479297275447,0.613742951881113,0.7894608509887027,-19.31,0.92,0.9014499524021571,0.1247929727544701,0.306257048118887,0.11198910141345442,0.3491535828353837,-1.7957252080272208,-4.992504461347041,-1.3948431551557752,5.4859199088939885,0.0,0.0,0.0008943625771110186,0.0008943625771110186,0.0,0.0,0.0,0.0,0.2570811909699588,-1.9160723529075279,0.0,0.0,0.0,0.0,-0.25708119096995885,1.9160723529075279,1.9332418369999969,0.0,14.72966723477537,-109.78285906330258,0.0,0.0,0.0,0.0,-14.729667234775373,109.78285906330258,110.76659803821805
22,0.1100618839263916,1775827581.904223,0.113847747,-19.44391892107556,0.5882387617816812,0.7824111191277525,-19.31,0.92,0.9014543680929679,0.13391892107556203,0.3317612382183188,0.11904324896521534,0.3770558204435902,-1.8110538984870141,-5.137041050683411,-1.383403491363622,5.6198676318529595,0.0,0.0,0.0008720136350988313,0.0008720136350988313,0.0,0.0,0.0,0.0,0.24871943639562885,-1.9097393341265276,0.0,0.0,0.0,0.0,-0.24871943639562888,1.9097393341265274,1.9258675142259896,0.0,14.250573988342053,-109.42000381557418,0.0,0.0,0.0,0.0,-14.250573988342055,109.42000381557416,110.34408046650023
23,0.11505889892578125,1775827581.90922,0.118844864,-19.45307350956003,0.5621246316931087,0.7754590146625885,-19.31,0.92,0.9014586734878038,0.14307350956003262,0.3578753683068914,0.12599965882521535,0.4054882518676572,-1.820418280253744,-5.27358511118027,-1.3659918123583499,5.743740616651684,0.0,0.0,0.000850232540764041,0.000850232540764041,0.0,0.0,0.0,0.0,0.2401236025598073,-1.9031846456966959,0.0,0.0,0.0,0.0,-0.24012360255980747,1.9031846456966957,1.9182729576684225,0.0,13.75806898815373,-109.04444783252158,0.0,0.0,0.0,0.0,-13.758068988153738,109.04444783252157,109.90894442847824
24,0.12005400657653809,1775827581.914215,0.123840001,-19.46225651374315,0.5353575401470722,0.7686116060999264,-19.31,0.92,0.9014628713196685,0.15225651374315063,0.3846424598529279,0.1328512652197421,0.43448973125888224,-1.823884358356587,-5.402623787683449,-1.3425880738234421,5.858108967907119,0.0,0.0,0.0008289949557140808,0.0008289949557140808,0.0,0.0,0.0,0.0,0.23123985284876872,-1.8963750691530379,0.0,0.0,0.0,0.0,-0.2312398528487689,1.8963750691530379,1.910421490784353,0.0,13.249067623460654,-108.6542878362987,0.0,0.0,0.0,0.0,-13.249067623460665,108.6542878362987,109.45908851303433
25,0.12505817413330078,1775827581.9192193,0.128844072,-19.471458525760575,0.5079149570441116,0.7618842073394129,-19.31,0.92,0.9014669643380862,0.16145852576057607,0.41208504295588844,0.13958275699867329,0.46407573112595074,-1.8214473901206676,-5.52442345178692,-1.313128606493308,5.963323889142846,0.0,0.0,0.0008082961403369192,0.0008082961403369192,0.0,0.0,0.0,0.0,0.22202030392480535,-1.889280668107757,0.0,0.0,0.0,0.0,-0.22202030392480543,1.889280668107757,1.9022813825090534,0.0,12.720826381103173,-108.2478085982309,0.0,0.0,0.0,0.0,-12.720826381103178,108.2478085982309,108.99269466408015
26,0.13008880615234375,1775827581.92425,0.133874739,-19.480682183753792,0.47973108087584115,0.7552848823438562,-19.31,0.92,0.9014709551364882,0.17068218375379374,0.4402689191241589,0.14618607279263207,0.49430708762494163,-1.8130357084546136,-5.639334277983283,-1.2774452500614293,6.059790090908535,0.0,0.0,0.0007881131332437476,0.0007881131332437476,0.0,0.0,0.0,0.0,0.21240028318002455,-1.881857696701722,0.0,0.0,0.0,0.0,-0.21240028318002446,1.8818576967017222,1.8938062918182696,0.0,12.169639793598934,-107.8225036652188,0.0,0.0,0.0,0.0,-12.169639793598929,107.82250366521882,108.50710773650762
27,0.13506674766540527,1775827581.9292278,0.138852604,-19.489752681432417,0.4512925918486342,0.7489464750730119,-19.31,0.92,0.9014748463239105,0.17975268143241863,0.46870740815136586,0.15252837125089858,0.5246547102376644,-1.7988285354226365,-5.745601384214869,-1.2361484725453982,6.146200648556707,0.0,0.0,0.0007684412646083842,0.0007684412646083842,0.0,0.0,0.0,0.0,0.20250523529505737,-1.874208817587037,0.0,0.0,0.0,0.0,-0.2025052352950576,1.8742088175870375,1.8851172542425332,0.0,11.602695311710464,-107.3842551739416,0.0,0.0,0.0,0.0,-11.602695311710477,107.38425517394163,108.00926255538734
28,0.1400604248046875,1775827581.9342215,0.143846473,-19.498766609475197,0.42224967766257604,0.7428091803171172,-19.31,0.92,0.9014786403607996,0.18876660947519852,0.497750322337424,0.15866946004368243,0.5554855657803588,-1.7786946909654768,-5.844776050826865,-1.1887338050916547,6.224005940498108,0.0,0.0,0.0007492588402129852,0.0007492588402129852,0.0,0.0,0.0,0.0,0.19217239930430421,-1.8662136451012261,0.0,0.0,0.0,0.0,-0.19217239930430408,1.866213645101226,1.876081981208811,0.0,11.010667419039429,-106.92616553402551,0.0,0.0,0.0,0.0,-11.010667419039422,106.9261655340255,107.4915795438067
29,0.1450638771057129,1775827581.939225,0.148849811,-19.50768202858847,0.39267368838339517,0.7369127350121045,-19.31,0.92,0.9014823397235595,0.19768202858847062,0.5273263116166049,0.164569604711455,0.5867149036328548,-1.7526154726163599,-5.936671550621736,-1.1352174474272232,6.293206555306996,0.0,0.0,0.0007305616741250036,0.0007305616741250036,0.0,0.0,0.0,0.0,0.18138066628766755,-1.857860703100588,0.0,0.0,0.0,0.0,-0.18138066628766758,1.857860703100588,1.8666936915917323,0.0,10.392346663554164,-106.44757721087139,0.0,0.0,0.0,0.0,-10.392346663554166,106.44757721087139,106.95367017190159
30,0.15006327629089355,1775827581.9442244,0.153849185,-19.516445289682316,0.3626805594381353,0.7313034315087167,-19.31,0.92,0.901485946748068,0.20644528968231768,0.5573194405618647,0.17018251523935135,0.6182125079237705,-1.7206511483301776,-6.021028837350819,-1.075733158326409,6.353788669949846,0.0,0.0,0.0007123291570439624,0.0007123291570439624,0.0,0.0,0.0,0.0,0.1701252394424172,-1.8491508321621177,0.0,0.0,0.0,0.0,-0.1701252394424171,1.8491508321621177,1.8569602572971755,0.0,9.747458208703073,-105.9485383659934,0.0,0.0,0.0,0.0,-9.747458208703065,105.9485383659934,106.39598546665559
31,0.15519475936889648,1775827581.9493558,0.158980797,-19.52525853114863,0.3314752134027923,0.725870938711497,-19.31,0.92,0.901489463785381,0.21525853114863125,0.5885247865972077,0.17561852507388398,0.6507991441456278,-1.681701619468968,-6.099856309384469,-1.0084270311728682,6.407284324053537,0.0,0.0,0.0006945573683399032,0.0006945573683399032,0.0,0.0,0.0,0.0,0.15804471125775504,-1.8398088230157497,0.0,0.0,0.0,0.0,-0.1580447112577552,1.8398088230157494,1.8465845867447135,0.0,9.055294929433092,-105.4132806697339,0.0,0.0,0.0,0.0,-9.055294929433103,105.41328066973388,105.80150333438134
32,0.16006970405578613,1775827581.9542308,0.163855677,-19.53343143760248,0.3014744550538223,0.7210446738270493,-19.31,0.92,0.9014928930488461,0.22343143760248196,0.6185255449461777,0.18044821922179677,0.6819508903729032,-1.638939837190013,-6.167457827261468,-0.9386253192735898,6.4501687831372765,0.0,0.0,0.0006772232970746048,0.0006772232970746048,0.0,0.0,0.0,0.0,0.14603803896964757,-1.8305333124292742,0.0,0.0,0.0,0.0,-0.1460380389696474,1.8305333124292744,1.8363494538729257,0.0,8.367363281327851,-104.88183306029993,0.0,0.0,0.0,0.0,-8.367363281327842,104.88183306029994,105.2150734180723
33,0.16506505012512207,1775827581.9592261,0.168851017,-19.54157562399461,0.27040873911455904,0.7164668236228635,-19.31,0.92,0.9014962367464101,0.23157562399461185,0.6495912608854411,0.1850294131235466,0.7140251813263137,-1.5892985562110171,-6.229369223418554,-0.8611728476052243,6.486334056761276,0.0,0.0,0.0006603238206796999,0.0006603238206796999,0.0,0.0,0.0,0.0,0.13316044550613226,-1.8205973045341455,0.0,0.0,0.0,0.0,-0.13316044550613215,1.8205973045341457,1.825460558194668,0.0,7.629531525583168,-104.31254174270039,0.0,0.0,0.0,0.0,-7.629531525583162,104.3125417427004,104.59118565214987
34,0.17006158828735352,1775827581.9642227,0.173847467,-19.549458834231125,0.23904536621593678,0.7122899754669909,-19.31,0.92,0.9014994969793285,0.2394588342311259,0.6809546337840633,0.1892095215123376,0.746217119606784,-1.5337503757241862,-6.283841482864096,-0.7777029086959989,6.5148964543568875,0.0,0.0,0.0006438410477158877,0.0006438410477158877,0.0,0.0,0.0,0.0,0.11965836964850982,-1.8101940612942353,0.0,0.0,0.0,0.0,-0.11965836964850984,1.8101940612942355,1.8141446097188223,0.0,6.85591956427592,-103.71647981180554,0.0,0.0,0.0,0.0,-6.855919564275922,103.71647981180554,103.94282956329643
35,0.175062894821167,1775827581.969224,0.178848873,-19.557057144545833,0.2073969719737047,0.7085416822723929,-19.31,0.92,0.9015026758494786,0.24705714454583472,0.7126030280262954,0.19296099357708574,0.778507709188318,-1.472241796837271,-6.330902958026969,-0.6881403208075929,6.536158296234144,0.0,0.0,0.0006277717707824975,0.0006277717707824975,0.0,0.0,0.0,0.0,0.1054775501839284,-1.7992837926947234,0.0,0.0,0.0,0.0,-0.10547755018392824,1.7992837926947232,1.8023727916961882,0.0,6.043418458918437,-103.0913674676994,0.0,0.0,0.0,0.0,-6.043418458918428,103.09136746769938,103.26835407340346
36,0.18007326126098633,1775827581.9742343,0.183859179,-19.56434569329175,0.1754750058766334,0.7052509485827503,-19.31,0.92,0.9015057753592967,0.25434569329175005,0.7445249941233667,0.19625482677654638,0.8108792484726394,-1.404699756354156,-6.3705597160053005,-0.5923894631412855,6.550430350498491,0.0,0.0,0.0006121018361113748,0.0006121018361113748,0.0,0.0,0.0,0.0,0.09055892459131462,-1.787822202405078,0.0,0.0,0.0,0.0,-0.09055892459131476,1.7878222024050778,1.7901142830097967,0.0,5.188644176325811,-102.4346667175946,0.0,0.0,0.0,0.0,-5.188644176325819,102.43466671759458,102.56599326254876
37,0.1850581169128418,1775827581.9792192,0.188844004,-19.571246654791842,0.1435367768057768,0.7024679889336906,-19.31,0.92,0.9015087975301022,0.2612466547918437,0.7764632231942232,0.1990408085964116,0.84306713558281,-1.3316170975264725,-6.402576751089762,-0.49113726936215485,6.558003428283373,0.0,0.0,0.000596828046812604,0.000596828046812604,0.0,0.0,0.0,0.0,0.07496146420375277,-1.77585443157092,0.0,0.0,0.0,0.0,-0.07496146420375283,1.7758544315709202,1.777435845043541,0.0,4.2949755249960315,-101.74896395861757,0.0,0.0,0.0,0.0,-4.294975524996035,101.74896395861758,101.83957227626388
38,0.19005537033081055,1775827581.9842165,0.193841263,-19.57778445392706,0.11137727650906465,0.7001996698997123,-19.31,0.92,0.9015117442692121,0.2677844539270602,0.8086227234909353,0.20131207436949983,0.8752746848834728,-1.2570234530751865,-6.426656191856673,-0.3896495463798543,6.5600186386095585,0.0,0.0,0.0005819337979323428,0.0005819337979323428,0.0,0.0,0.0,0.0,0.05943261008747254,-1.7639529891194339,0.0,0.0,0.0,0.0,-0.05943261008747269,1.763952989119434,1.7649539322501298,0.0,3.405237723458819,-101.06706153602958,0.0,0.0,0.0,0.0,-3.4052377234588276,101.0670615360296,101.12441135295107
39,0.1950695514678955,1775827581.9892306,0.198855621,-19.58393217994043,0.0790026898141751,0.6984786662829917,-19.31,0.92,0.9015146174971668,0.27393217994043084,0.8409973101858249,0.20303595121417506,0.9074904475707466,-1.2188887111797777,-6.441019005340982,-0.3373222119280937,6.564008058500941,0.0,0.0,0.0005674158597276981,0.0005674158597276981,0.0,0.0,0.0,0.0,0.05141231666936262,-1.7578231935534472,0.0,0.0,0.0,0.0,-0.051412316669362745,1.7578231935534472,1.7585748792985048,0.0,2.9457087601445675,-100.71585012082055,0.0,0.0,0.0,0.0,-2.9457087601445746,100.71585012082055,100.75891854153248
40,0.20005512237548828,1775827581.9942162,0.203841015,-19.589605388675377,0.04674799338688876,0.6973487729241037,-19.31,0.92,0.9015174190221267,0.2796053886753782,0.8732520066131113,0.204168646098023,0.9393790909316827,-1.1790117402081568,-6.452818080140348,-0.2832998812047981,6.565758804709893,0.0,0.0,0.0005532556659650049,0.0005532556659650049,0.0,0.0,0.0,0.0,0.04316147901147885,-1.7515155725995408,0.0,0.0,0.0,0.0,-0.04316147901147893,1.7515155725995406,1.752047292263869,0.0,2.4729705849002226,-100.35445006139342,0.0,0.0,0.0,0.0,-2.472970584900227,100.35445006139341,100.38491535404354
41,0.20508861541748047,1775827581.9992497,0.208874557,-19.594859446331615,0.014151623412351183,0.6968262485614899,-19.31,0.92,0.9015201506483599,0.2848594463316161,0.9058483765876488,0.20469390208687,0.971393730205411,-1.1367643866511066,-6.462221568104106,-0.22673540515193216,6.565359838575306,0.0,0.0,0.0005394504187691921,0.0005394504187691921,0.0,0.0,0.0,0.0,0.03454197563533436,-1.744924064061239,0.0,0.0,0.0,0.0,-0.03454197563533423,1.7449240640612391,1.7452659216923887,0.0,1.979109419948379,-99.97678444152427,0.0,0.0,0.0,0.0,-1.9791094199483719,99.97678444152429,99.9963714409835
42,0.21005725860595703,1775827582.0042183,0.213843241,-19.59909167954723,-0.014717483874260513,0.6969068327983023,-19.31,0.92,0.9015228140942437,0.28909167954723003,0.9347174838742606,0.20461598129594138,0.9995691440042395,-1.0931049875793075,-6.46903081793649,-0.16890872327761647,6.562908531594973,0.0,0.0,0.0005259876358197123,0.0005259876358197123,0.0,0.0,0.0,0.0,0.025739712075380276,-1.7381901819007053,0.0,0.0,0.0,0.0,-0.025739712075380172,1.7381901819007055,1.7383807526643094,0.0,1.474776867801211,-99.59096141398727,0.0,0.0,0.0,0.0,-1.474776867801205,99.59096141398727,99.60188031444036
43,0.21506786346435547,1775827582.009229,0.218853855,-19.59909167954723,-0.014717483874260513,0.6969068327983023,-19.31,0.92,0.9015254110921443,0.28909167954723003,0.9347174838742606,0.204618578293842,0.9995696756237956,-1.0471087563760395,-6.473409304301537,-0.1085908026606933,6.558449262677845,0.0,0.0,0.0005128642699177316,0.0005128642699177316,0.0,0.0,0.0,0.0,0.016558146684817823,-1.7311626788457575,0.0,0.0,0.0,0.0,-0.01655814668481792,1.7311626788457577,1.731241864341911,0.0,0.9487119215985971,-99.18831514842347,0.0,0.0,0.0,0.0,-0.9487119215986026,99.18831514842347,99.19285214315171
44,0.22004389762878418,1775827582.014205,0.223829819,-19.59909167954723,-0.014717483874260513,0.6969068327983023,-19.31,0.92,0.9015279432768887,0.28909167954723003,0.9347174838742606,0.20462111047858633,0.9995701939819718,-0.9994743930699911,-6.475284690541492,-0.04669915378869151,6.552132606787521,0.0,0.0,0.0005000665159222345,0.0005000665159222345,0.0,0.0,0.0,0.0,0.0071273815681727965,-1.7239399565023303,0.0,0.0,0.0,0.0,-0.007127381568172719,1.7239399565023303,1.7239546900058815,0.0,0.4083688828356355,-98.77448364155025,0.0,0.0,0.0,0.0,-0.40836888283563105,98.77448364155025,98.77532780912118
45,0.22504806518554688,1775827582.0192091,0.228833911,-19.59909167954723,-0.014717483874260513,0.6969068327983023,-19.31,0.92,0.9015304122981772,0.28909167954723003,0.9347174838742606,0.20462357949987486,0.9995706994160085,-0.9496047794654306,-6.474685502195596,0.017543146853239395,6.543975042092302,0.0,0.0,0.0004875922785159464,0.0004875922785159464,0.0,0.0,0.0,0.0,-0.0026808121598052843,-1.7164223243977972,0.0,0.0,0.0,0.0,0.0026808121598054235,1.7164223243977972,1.716424417923776,0.0,-0.15359922242419358,-98.34375505002845,0.0,0.0,0.0,0.0,0.15359922242420157,98.34375505002845,98.34387500023134
46,0.23005199432373047,1775827582.024213,0.233837924,-19.59909167954723,-0.014717483874260513,0.6969068327983023,-19.31,0.92,0.9015328197130434,0.28909167954723003,0.9347174838742606,0.2046259869147411,0.9995711922442037,0.0,0.0,0.0,0.0,0.0,0.0,0.0004754276622751903,0.0004754276622751903,0.0,0.0,0.0,0.0,-0.0026808121598052843,-1.7164223243977972,0.0,0.0,0.0,0.0,0.0026808121598054235,1.7164223243977972,1.716424417923776,0.0,-0.15359922242419358,-98.34375505002845,0.0,0.0,0.0,0.0,0.15359922242420157,98.34375505002845,98.34387500023134
47,0.2350473403930664,1775827582.0292084,0.238833254,-19.59909167954723,-0.014717483874260513,0.6969068327983023,-19.31,0.92,0.9015351670883692,0.28909167954723003,0.9347174838742606,0.20462833429006688,0.9995716727868964,0.0,0.0,0.0,0.0,0.0,0.0,0.00046357021085346734,0.00046357021085346734,0.0,0.0,0.0,0.0,-0.0026808121598052843,-1.7164223243977972,0.0,0.0,0.0,0.0,0.0026808121598054235,1.7164223243977972,1.716424417923776,0.0,-0.15359922242419358,-98.34375505002845,0.0,0.0,0.0,0.0,0.15359922242420157,98.34375505002845,98.34387500023134
48,0.24004507064819336,1775827582.0342062,0.243830961,-19.59909167954723,-0.014717483874260513,0.6969068327983023,-19.31,0.92,0.9015374559031057,0.28909167954723003,0.9347174838742606,0.2046306231048034,0.9995721413464498,0.0,0.0,0.0,0.0,0.0,0.0,0.00045200694847714147,0.00045200694847714147,0.0,0.0,0.0,0.0,-0.0026808121598052843,-1.7164223243977972,0.0,0.0,0.0,0.0,0.0026808121598054235,1.7164223243977972,1.716424417923776,0.0,-0.15359922242419358,-98.34375505002845,0.0,0.0,0.0,0.0,0.15359922242420157,98.34375505002845,98.34387500023134
49,0.24506163597106934,1775827582.0392227,0.248847513,-19.59909167954723,-0.014717483874260513,0.6969068327983023,-19.31,0.92,0.9015396876447629,0.28909167954723003,0.9347174838742606,0.20463285484646054,0.999572598227002,0.0,0.0,0.0,0.0,0.0,0.0,0.0004407349718684408,0.0004407349718684408,0.0,0.0,0.0,0.0,-0.0026808121598052843,-1.7164223243977972,0.0,0.0,0.0,0.0,0.0026808121598054235,1.7164223243977972,1.716424417923776,0.0,-0.15359922242419358,-98.34375505002845,0.0,0.0,0.0,0.0,0.15359922242420157,98.34375505002845,98.34387500023134
50,0.2500596046447754,1775827582.0442207,0.253845463,-19.59909167954723,-0.014717483874260513,0.6969068327983023,-19.31,0.92,0.9015418637154379,0.28909167954723003,0.9347174838742606,0.20463503091713553,0.9995730437152274,0.0,0.0,0.0,0.0,0.0,0.0,0.0004297419245396741,0.0004297419245396741,0.0,0.0,0.0,0.0,-0.0026808121598052843,-1.7164223243977972,0.0,0.0,0.0,0.0,0.0026808121598054235,1.7164223243977972,1.716424417923776,0.0,-0.15359922242419358,-98.34375505002845,0.0,0.0,0.0,0.0,0.15359922242420157,98.34375505002845,98.34387500023134
51,0.25504636764526367,1775827582.0492074,0.258832317,-19.59909167954723,-0.014717483874260513,0.6969068327983023,-19.31,0.92,0.9015439855259845,0.28909167954723003,0.9347174838742606,0.20463715272768213,0.999573478099614,0.0,0.0,0.0,0.0,0.0,0.0,0.0004190252355509471,0.0004190252355509471,0.0,0.0,0.0,0.0,-0.0026808121598052843,-1.7164223243977972,0.0,0.0,0.0,0.0,0.0026808121598054235,1.7164223243977972,1.716424417923776,0.0,-0.15359922242419358,-98.34375505002845,0.0,0.0,0.0,0.0,0.15359922242420157,98.34375505002845,98.34387500023134
52,0.26005053520202637,1775827582.0542116,0.263836545,-19.59909167954723,-0.014717483874260513,0.6969068327983023,-19.31,0.92,0.9015460544073411,0.28909167954723003,0.9347174838742606,0.2046392216090388,0.9995739016523091,0.0,0.0,0.0,0.0,0.0,0.0,0.00040857357656059546,0.00040857357656059546,0.0,0.0,0.0,0.0,-0.0026808121598052843,-1.7164223243977972,0.0,0.0,0.0,0.0,0.0026808121598054235,1.7164223243977972,1.716424417923776,0.0,-0.15359922242419358,-98.34375505002845,0.0,0.0,0.0,0.0,0.15359922242420157,98.34375505002845,98.34387500023134
53,0.26505184173583984,1775827582.059213,0.268837791,-19.59909167954723,-0.014717483874260513,0.6969068327983023,-19.31,0.92,0.9015480717014069,0.28909167954723003,0.9347174838742606,0.2046412389031046,0.9995743146477226,0.0,0.0,0.0,0.0,0.0,0.0,0.00039838491707449225,0.00039838491707449225,0.0,0.0,0.0,0.0,-0.0026808121598052843,-1.7164223243977972,0.0,0.0,0.0,0.0,0.0026808121598054235,1.7164223243977972,1.716424417923776,0.0,-0.15359922242419358,-98.34375505002845,0.0,0.0,0.0,0.0,0.15359922242420157,98.34375505002845,98.34387500023134
54,0.2700648307800293,1775827582.064226,0.273850747,-19.59909167954723,-0.014717483874260513,0.6969068327983023,-19.31,0.92,0.9015500386745378,0.28909167954723003,0.9347174838742606,0.2046432058762354,0.9995747173448167,0.0,0.0,0.0,0.0,0.0,0.0,0.0003884483203805383,0.0003884483203805383,0.0,0.0,0.0,0.0,-0.0026808121598052843,-1.7164223243977972,0.0,0.0,0.0,0.0,0.0026808121598054235,1.7164223243977972,1.716424417923776,0.0,-0.15359922242419358,-98.34375505002845,0.0,0.0,0.0,0.0,0.15359922242420157,98.34375505002845,98.34387500023134
55,0.2750663757324219,1775827582.0692275,0.278852277,-19.59909167954723,-0.014717483874260513,0.6969068327983023,-19.31,0.92,0.9015519566026213,0.28909167954723003,0.9347174838742606,0.20464512380431898,0.9995751100045218,0.0,0.0,0.0,0.0,0.0,0.0,0.0003787617689497059,0.0003787617689497059,0.0,0.0,0.0,0.0,-0.0026808121598052843,-1.7164223243977972,0.0,0.0,0.0,0.0,0.0026808121598054235,1.7164223243977972,1.716424417923776,0.0,-0.15359922242419358,-98.34375505002845,0.0,0.0,0.0,0.0,0.15359922242420157,98.34375505002845,98.34387500023134
56,0.2800567150115967,1775827582.0742178,0.283842616,-19.59909167954723,-0.014717483874260513,0.6969068327983023,-19.31,0.92,0.9015538266898612,0.28909167954723003,0.9347174838742606,0.20464699389155883,0.9995754928731089,0.0,0.0,0.0,0.0,0.0,0.0,0.00036931492587938155,0.00036931492587938155,0.0,0.0,0.0,0.0,-0.0026808121598052843,-1.7164223243977972,0.0,0.0,0.0,0.0,0.0026808121598054235,1.7164223243977972,1.716424417923776,0.0,-0.15359922242419358,-98.34375505002845,0.0,0.0,0.0,0.0,0.15359922242420157,98.34375505002845,98.34387500023134
57,0.28507089614868164,1775827582.079232,0.288856801,-19.59909167954723,-0.014717483874260513,0.6969068327983023,-19.31,0.92,0.901555650148713,0.28909167954723003,0.9347174838742606,0.20464881735041063,0.9995758661985535,0.0,0.0,0.0,0.0,0.0,0.0,0.00036010549838569637,0.00036010549838569637,0.0,0.0,0.0,0.0,-0.0026808121598052843,-1.7164223243977972,0.0,0.0,0.0,0.0,0.0026808121598054235,1.7164223243977972,1.716424417923776,0.0,-0.15359922242419358,-98.34375505002845,0.0,0.0,0.0,0.0,0.15359922242420157,98.34375505002845,98.34387500023134
58,0.2900552749633789,1775827582.0842164,0.293841223,-19.59909167954723,-0.014717483874260513,0.6969068327983023,-19.31,0.92,0.9015574281227589,0.28909167954723003,0.9347174838742606,0.2046505953244565,0.9995762302147452,0.0,0.0,0.0,0.0,0.0,0.0,0.0003511239493792232,0.0003511239493792232,0.0,0.0,0.0,0.0,-0.0026808121598052843,-1.7164223243977972,0.0,0.0,0.0,0.0,0.0026808121598054235,1.7164223243977972,1.716424417923776,0.0,-0.15359922242419358,-98.34375505002845,0.0,0.0,0.0,0.0,0.15359922242420157,98.34375505002845,98.34387500023134
59,0.2950441837310791,1775827582.0892053,0.298830118,-19.59909167954723,-0.014717483874260513,0.6969068327983023,-19.31,0.92,0.9015591617667581,0.28909167954723003,0.9347174838742606,0.20465232896845575,0.9995765851578756,0.0,0.0,0.0,0.0,0.0,0.0,0.00034236883870017334,0.00034236883870017334,0.0,0.0,0.0,0.0,-0.0026808121598052843,-1.7164223243977972,0.0,0.0,0.0,0.0,0.0026808121598054235,1.7164223243977972,1.716424417923776,0.0,-0.15359922242419358,-98.34375505002845,0.0,0.0,0.0,0.0,0.15359922242420157,98.34375505002845,98.34387500023134
60,0.3000454902648926,1775827582.0942066,0.30383148,-19.59909167954723,-0.014717483874260513,0.6969068327983023,-19.31,0.92,0.9015608521705031,0.28909167954723003,0.9347174838742606,0.20465401937220074,0.9995769312508488,0.0,0.0,0.0,0.0,0.0,0.0,0.0003338304862689585,0.0003338304862689585,0.0,0.0,0.0,0.0,-0.0026808121598052843,-1.7164223243977972,0.0,0.0,0.0,0.0,0.0026808121598054235,1.7164223243977972,1.716424417923776,0.0,-0.15359922242419358,-98.34375505002845,0.0,0.0,0.0,0.0,0.15359922242420157,98.34375505002845,98.34387500023134
61,0.305051326751709,1775827582.0992124,0.308837392,-19.59909167954723,-0.014717483874260513,0.6969068327983023,-19.31,0.92,0.9015625004315829,0.28909167954723003,0.9347174838742606,0.20465566763328058,0.999577268718177,0.0,0.0,0.0,0.0,0.0,0.0,0.00032550741041593556,0.00032550741041593556,0.0,0.0,0.0,0.0,-0.0026808121598052843,-1.7164223243977972,0.0,0.0,0.0,0.0,0.0026808121598054235,1.7164223243977972,1.716424417923776,0.0,-0.15359922242419358,-98.34375505002845,0.0,0.0,0.0,0.0,0.15359922242420157,98.34375505002845,98.34387500023134
62,0.3100471496582031,1775827582.1042082,0.313833013,-19.59909167954723,-0.014717483874260513,0.6969068327983023,-19.31,0.92,0.9015641075863997,0.28909167954723003,0.9347174838742606,0.20465727478809737,0.9995775977718576,0.0,0.0,0.0,0.0,0.0,0.0,0.0003173904963342385,0.0003173904963342385,0.0,0.0,0.0,0.0,-0.0026808121598052843,-1.7164223243977972,0.0,0.0,0.0,0.0,0.0026808121598054235,1.7164223243977972,1.716424417923776,0.0,-0.15359922242419358,-98.34375505002845,0.0,0.0,0.0,0.0,0.15359922242420157,98.34375505002845,98.34387500023134
63,0.3150463104248047,1775827582.1092074,0.318832367,-19.59909167954723,-0.014717483874260513,0.6969068327983023,-19.31,0.92,0.9015656746789227,0.28909167954723003,0.9347174838742606,0.20465884188062033,0.9995779186254484,0.0,0.0,0.0,0.0,0.0,0.0,0.00030947834266645534,0.00030947834266645534,0.0,0.0,0.0,0.0,-0.0026808121598052843,-1.7164223243977972,0.0,0.0,0.0,0.0,0.0026808121598054235,1.7164223243977972,1.716424417923776,0.0,-0.15359922242419358,-98.34375505002845,0.0,0.0,0.0,0.0,0.15359922242420157,98.34375505002845,98.34387500023134
64,0.32004761695861816,1775827582.1142087,0.323833534,-19.59909167954723,-0.014717483874260513,0.6969068327983023,-19.31,0.92,0.901567202694722,0.28909167954723003,0.9347174838742606,0.20466036989641967,0.9995782314805611,0.0,0.0,0.0,0.0,0.0,0.0,0.00030176209476732486,0.00030176209476732486,0.0,0.0,0.0,0.0,-0.0026808121598052843,-1.7164223243977972,0.0,0.0,0.0,0.0,0.0026808121598054235,1.7164223243977972,1.716424417923776,0.0,-0.15359922242419358,-98.34375505002845,0.0,0.0,0.0,0.0,0.15359922242420157,98.34375505002845,98.34387500023134
65,0.3250613212585449,1775827582.1192224,0.328847345,-19.59909167954723,-0.014717483874260513,0.6969068327983023,-19.31,0.92,0.9015686926240775,0.28909167954723003,0.9347174838742606,0.20466185982577512,0.9995785365397819,0.0,0.0,0.0,0.0,0.0,0.0,0.00029423978366154794,0.00029423978366154794,0.0,0.0,0.0,0.0,-0.0026808121598052843,-1.7164223243977972,0.0,0.0,0.0,0.0,0.0026808121598054235,1.7164223243977972,1.716424417923776,0.0,-0.15359922242419358,-98.34375505002845,0.0,0.0,0.0,0.0,0.15359922242420157,98.34375505002845,98.34387500023134
66,0.33005356788635254,1775827582.1242146,0.333839443,-19.59909167954723,-0.014717483874260513,0.6969068327983023,-19.31,0.92,0.9015701454008735,0.28909167954723003,0.9347174838742606,0.2046633126025712,0.9995788339941601,0.0,0.0,0.0,0.0,0.0,0.0,0.0002869033674665427,0.0002869033674665427,0.0,0.0,0.0,0.0,-0.0026808121598052843,-1.7164223243977972,0.0,0.0,0.0,0.0,0.0026808121598054235,1.7164223243977972,1.716424417923776,0.0,-0.15359922242419358,-98.34375505002845,0.0,0.0,0.0,0.0,0.15359922242420157,98.34375505002845,98.34387500023134
67,0.3350489139556885,1775827582.12921,0.338834762,-19.59909167954723,-0.014717483874260513,0.6969068327983023,-19.31,0.92,0.9015715619658751,0.28909167954723003,0.9347174838742606,0.20466472916757272,0.9995791240361629,0.0,0.0,0.0,0.0,0.0,0.0,0.0002797512735622412,0.0002797512735622412,0.0,0.0,0.0,0.0,-0.0026808121598052843,-1.7164223243977972,0.0,0.0,0.0,0.0,0.0026808121598054235,1.7164223243977972,1.716424417923776,0.0,-0.15359922242419358,-98.34375505002845,0.0,0.0,0.0,0.0,0.15359922242420157,98.34375505002845,98.34387500023134
68,0.3400542736053467,1775827582.1342154,0.343840201,-19.59909167954723,-0.014717483874260513,0.6969068327983023,-19.31,0.92,0.9015729432066295,0.28909167954723003,0.9347174838742606,0.20466611040832716,0.9995794068473702,0.0,0.0,0.0,0.0,0.0,0.0,0.00027277590155599154,0.00027277590155599154,0.0,0.0,0.0,0.0,-0.0026808121598052843,-1.7164223243977972,0.0,0.0,0.0,0.0,0.0026808121598054235,1.7164223243977972,1.716424417923776,0.0,-0.15359922242419358,-98.34375505002845,0.0,0.0,0.0,0.0,0.15359922242420157,98.34375505002845,98.34387500023134
69,0.34505224227905273,1775827582.1392133,0.348838105,-19.59909167954723,-0.014717483874260513,0.6969068327983023,-19.31,0.92,0.9015742900185406,0.28909167954723003,0.9347174838742606,0.20466745722023827,0.9995796826109787,0.0,0.0,0.0,0.0,0.0,0.0,0.00026597616132021306,0.00026597616132021306,0.0,0.0,0.0,0.0,-0.0026808121598052843,-1.7164223243977972,0.0,0.0,0.0,0.0,0.0026808121598054235,1.7164223243977972,1.716424417923776,0.0,-0.15359922242419358,-98.34375505002845,0.0,0.0,0.0,0.0,0.15359922242420157,98.34375505002845,98.34387500023134
70,0.3500654697418213,1775827582.1442266,0.353851503,-19.59909167954723,-0.014717483874260513,0.6969068327983023,-19.31,0.92,0.9015756032470859,0.28909167954723003,0.9347174838742606,0.2046687704487835,0.9995799514999707,0.0,0.0,0.0,0.0,0.0,0.0,0.0002593445200133898,0.0002593445200133898,0.0,0.0,0.0,0.0,-0.0026808121598052843,-1.7164223243977972,0.0,0.0,0.0,0.0,0.0026808121598054235,1.7164223243977972,1.716424417923776,0.0,-0.15359922242419358,-98.34375505002845,0.0,0.0,0.0,0.0,0.15359922242420157,98.34375505002845,98.34387500023134
71,0.35506510734558105,1775827582.1492262,0.358850967,-19.59909167954723,-0.014717483874260513,0.6969068327983023,-19.31,0.92,0.9015768837415622,0.28909167954723003,0.9347174838742606,0.20467005094325985,0.9995802136881179,0.0,0.0,0.0,0.0,0.0,0.0,0.00025287909238202777,0.00025287909238202777,0.0,0.0,0.0,0.0,-0.0026808121598052843,-1.7164223243977972,0.0,0.0,0.0,0.0,0.0026808121598054235,1.7164223243977972,1.716424417923776,0.0,-0.15359922242419358,-98.34375505002845,0.0,0.0,0.0,0.0,0.15359922242420157,98.34375505002845,98.34387500023134
72,0.36007118225097656,1775827582.1542323,0.363857241,-19.59909167954723,-0.014717483874260513,0.6969068327983023,-19.31,0.92,0.9015781323024417,0.28909167954723003,0.9347174838742606,0.20467129950413931,0.9995804693392023,0.0,0.0,0.0,0.0,0.0,0.0,0.0002465731160228095,0.0002465731160228095,0.0,0.0,0.0,0.0,-0.0026808121598052843,-1.7164223243977972,0.0,0.0,0.0,0.0,0.0026808121598054235,1.7164223243977972,1.716424417923776,0.0,-0.15359922242419358,-98.34375505002845,0.0,0.0,0.0,0.0,0.15359922242420157,98.34375505002845,98.34387500023134
73,0.3650650978088379,1775827582.1592262,0.368851064,-19.59909167954723,-0.014717483874260513,0.6969068327983023,-19.31,0.92,0.9015793497374854,0.28909167954723003,0.9347174838742606,0.2046725169391831,0.9995807186185051,0.0,0.0,0.0,0.0,0.0,0.0,0.00024042551262703444,0.00024042551262703444,0.0,0.0,0.0,0.0,-0.0026808121598052843,-1.7164223243977972,0.0,0.0,0.0,0.0,0.0026808121598054235,1.7164223243977972,1.716424417923776,0.0,-0.15359922242419358,-98.34375505002845,0.0,0.0,0.0,0.0,0.15359922242420157,98.34375505002845,98.34387500023134
74,0.37004637718200684,1775827582.1642075,0.373832236,-19.59909167954723,-0.014717483874260513,0.6969068327983023,-19.31,0.92,0.90158053680935,0.28909167954723003,0.9347174838742606,0.20467370401104767,0.9995809616820784,0.0,0.0,0.0,0.0,0.0,0.0,0.00023442977590032958,0.00023442977590032958,0.0,0.0,0.0,0.0,-0.0026808121598052843,-1.7164223243977972,0.0,0.0,0.0,0.0,0.0026808121598054235,1.7164223243977972,1.716424417923776,0.0,-0.15359922242419358,-98.34375505002845,0.0,0.0,0.0,0.0,0.15359922242420157,98.34375505002845,98.34387500023134
75,0.3750474452972412,1775827582.1692085,0.378833328,-19.59909167954723,-0.014717483874260513,0.6969068327983023,-19.31,0.92,0.9015816942878109,0.28909167954723003,0.9347174838742606,0.20467486148950853,0.9995811986874384,0.0,0.0,0.0,0.0,0.0,0.0,0.00022858508875265004,0.00022858508875265004,0.0,0.0,0.0,0.0,-0.0026808121598052843,-1.7164223243977972,0.0,0.0,0.0,0.0,0.0026808121598054235,1.7164223243977972,1.716424417923776,0.0,-0.15359922242419358,-98.34375505002845,0.0,0.0,0.0,0.0,0.15359922242420157,98.34375505002845,98.34387500023134
76,0.3800501823425293,1775827582.1742113,0.383836178,-19.59909167954723,-0.014717483874260513,0.6969068327983023,-19.31,0.92,0.9015828228999568,0.28909167954723003,0.9347174838742606,0.2046759901016545,0.9995814297833666,0.0,0.0,0.0,0.0,0.0,0.0,0.00022288497546232207,0.00022288497546232207,0.0,0.0,0.0,0.0,-0.0026808121598052843,-1.7164223243977972,0.0,0.0,0.0,0.0,0.0026808121598054235,1.7164223243977972,1.716424417923776,0.0,-0.15359922242419358,-98.34375505002845,0.0,0.0,0.0,0.0,0.15359922242420157,98.34375505002845,98.34387500023134
77,0.38504457473754883,1775827582.1792057,0.388830427,-19.59909167954723,-0.014717483874260513,0.6969068327983023,-19.31,0.92,0.9015839233772822,0.28909167954723003,0.9347174838742606,0.20467709057897987,0.9995816551195519,0.0,0.0,0.0,0.0,0.0,0.0,0.00021732823900463537,0.00021732823900463537,0.0,0.0,0.0,0.0,-0.0026808121598052843,-1.7164223243977972,0.0,0.0,0.0,0.0,0.0026808121598054235,1.7164223243977972,1.716424417923776,0.0,-0.15359922242419358,-98.34375505002845,0.0,0.0,0.0,0.0,0.15359922242420157,98.34375505002845,98.34387500023134
78,0.3900578022003174,1775827582.184219,0.39384373,-19.59909167954723,-0.014717483874260513,0.6969068327983023,-19.31,0.92,0.9015849964101049,0.28909167954723003,0.9347174838742606,0.20467816361180258,0.9995818748372575,0.0,0.0,0.0,0.0,0.0,0.0,0.00021190883921117504,0.00021190883921117504,0.0,0.0,0.0,0.0,-0.0026808121598052843,-1.7164223243977972,0.0,0.0,0.0,0.0,0.0026808121598054235,1.7164223243977972,1.716424417923776,0.0,-0.15359922242419358,-98.34375505002845,0.0,0.0,0.0,0.0,0.15359922242420157,98.34375505002845,98.34387500023134
79,0.39504528045654297,1775827582.1892064,0.398831197,-19.59909167954723,-0.014717483874260513,0.6969068327983023,-19.31,0.92,0.9015860426932824,0.28909167954723003,0.9347174838742606,0.20467920989498,0.9995820890786811,0.0,0.0,0.0,0.0,0.0,0.0,0.00020662558901769174,0.00020662558901769174,0.0,0.0,0.0,0.0,-0.0026808121598052843,-1.7164223243977972,0.0,0.0,0.0,0.0,0.0026808121598054235,1.7164223243977972,1.716424417923776,0.0,-0.15359922242419358,-98.34375505002845,0.0,0.0,0.0,0.0,0.15359922242420157,98.34375505002845,98.34387500023134
80,0.4000873565673828,1775827582.1942484,0.40387339,-19.59909167954723,-0.014717483874260513,0.6969068327983023,-19.31,0.92,0.9015870628824306,0.28909167954723003,0.9347174838742606,0.20468023008412828,0.9995822979779897,0.0,0.0,0.0,0.0,0.0,0.0,0.00020147282174922678,0.00020147282174922678,0.0,0.0,0.0,0.0,-0.0026808121598052843,-1.7164223243977972,0.0,0.0,0.0,0.0,0.0026808121598054235,1.7164223243977972,1.716424417923776,0.0,-0.15359922242419358,-98.34375505002845,0.0,0.0,0.0,0.0,0.15359922242420157,98.34375505002845,98.34387500023134
81,0.40506577491760254,1775827582.1992269,0.408851637,-19.59909167954723,-0.014717483874260513,0.6969068327983023,-19.31,0.92,0.9015880576375493,0.28909167954723003,0.9347174838742606,0.204681224839247,0.999582501670253,0.0,0.0,0.0,0.0,0.0,0.0,0.00019644930688384496,0.00019644930688384496,0.0,0.0,0.0,0.0,-0.0026808121598052843,-1.7164223243977972,0.0,0.0,0.0,0.0,0.0026808121598054235,1.7164223243977972,1.716424417923776,0.0,-0.15359922242419358,-98.34375505002845,0.0,0.0,0.0,0.0,0.15359922242420157,98.34375505002845,98.34387500023134
82,0.41005420684814453,1775827582.2042153,0.413840227,-19.59909167954723,-0.014717483874260513,0.6969068327983023,-19.31,0.92,0.9015890275812403,0.28909167954723003,0.9347174838742606,0.20468219478293792,0.9995827002828868,0.0,0.0,0.0,0.0,0.0,0.0,0.00019154985873844746,0.00019154985873844746,0.0,0.0,0.0,0.0,-0.0026808121598052843,-1.7164223243977972,0.0,0.0,0.0,0.0,0.0026808121598054235,1.7164223243977972,1.716424417923776,0.0,-0.15359922242419358,-98.34375505002845,0.0,0.0,0.0,0.0,0.15359922242420157,98.34375505002845,98.34387500023134
83,0.4151132106781006,1775827582.2092743,0.418899072,-19.59909167954723,-0.014717483874260513,0.6969068327983023,-19.31,0.92,0.9015899733423269,0.28909167954723003,0.9347174838742606,0.2046831405440246,0.9995828939445851,0.0,0.0,0.0,0.0,0.0,0.0,0.0001867737428907731,0.0001867737428907731,0.0,0.0,0.0,0.0,-0.0026808121598052843,-1.7164223243977972,0.0,0.0,0.0,0.0,0.0026808121598054235,1.7164223243977972,1.716424417923776,0.0,-0.15359922242419358,-98.34375505002845,0.0,0.0,0.0,0.0,0.15359922242420157,98.34375505002845,98.34387500023134
84,0.42006778717041016,1775827582.2142289,0.423853817,-19.59909167954723,-0.014717483874260513,0.6969068327983023,-19.31,0.92,0.9015908955145133,0.28909167954723003,0.9347174838742606,0.20468406271621098,0.9995830827768549,0.0,0.0,0.0,0.0,0.0,0.0,0.00018211576221978393,0.00018211576221978393,0.0,0.0,0.0,0.0,-0.0026808121598052843,-1.7164223243977972,0.0,0.0,0.0,0.0,0.0026808121598054235,1.7164223243977972,1.716424417923776,0.0,-0.15359922242419358,-98.34375505002845,0.0,0.0,0.0,0.0,0.15359922242420157,98.34375505002845,98.34387500023134
85,0.42505669593811035,1775827582.2192178,0.428842611,-19.59909167954723,-0.014717483874260513,0.6969068327983023,-19.31,0.92,0.9015917946963126,0.28909167954723003,0.9347174838742606,0.20468496189801022,0.999583266902191,0.0,0.0,0.0,0.0,0.0,0.0,0.00017757521323635223,0.00017757521323635223,0.0,0.0,0.0,0.0,-0.0026808121598052843,-1.7164223243977972,0.0,0.0,0.0,0.0,0.0026808121598054235,1.7164223243977972,1.716424417923776,0.0,-0.15359922242419358,-98.34375505002845,0.0,0.0,0.0,0.0,0.15359922242420157,98.34375505002845,98.34387500023134
86,0.43004417419433594,1775827582.2242053,0.433830249,-19.59909167954723,-0.014717483874260513,0.6969068327983023,-19.31,0.92,0.9015926714513816,0.28909167954723003,0.9347174838742606,0.2046858386530792,0.9995834464359548,0.0,0.0,0.0,0.0,0.0,0.0,0.00017314588532461905,0.00017314588532461905,0.0,0.0,0.0,0.0,-0.0026808121598052843,-1.7164223243977972,0.0,0.0,0.0,0.0,0.0026808121598054235,1.7164223243977972,1.716424417923776,0.0,-0.15359922242419358,-98.34375505002845,0.0,0.0,0.0,0.0,0.15359922242420157,98.34375505002845,98.34387500023134
87,0.4350450038909912,1775827582.229206,0.438831,-19.59909167954723,-0.014717483874260513,0.6969068327983023,-19.31,0.92,0.9015935263397006,0.28909167954723003,0.9347174838742606,0.20468669354139823,0.9995836214927579,0.0,0.0,0.0,0.0,0.0,0.0,0.00016882670260806714,0.00016882670260806714,0.0,0.0,0.0,0.0,-0.0026808121598052843,-1.7164223243977972,0.0,0.0,0.0,0.0,0.0026808121598054235,1.7164223243977972,1.716424417923776,0.0,-0.15359922242419358,-98.34375505002845,0.0,0.0,0.0,0.0,0.15359922242420157,98.34375505002845,98.34387500023134
88,0.4400515556335449,1775827582.2342126,0.44383754,-19.59909167954723,-0.014717483874260513,0.6969068327983023,-19.31,0.92,0.9015943598955402,0.28909167954723003,0.9347174838742606,0.2046875270972378,0.9995837921819508,0.0,0.0,0.0,0.0,0.0,0.0,0.00016461430367851633,0.00016461430367851633,0.0,0.0,0.0,0.0,-0.0026808121598052843,-1.7164223243977972,0.0,0.0,0.0,0.0,0.0026808121598054235,1.7164223243977972,1.716424417923776,0.0,-0.15359922242419358,-98.34375505002845,0.0,0.0,0.0,0.0,0.15359922242420157,98.34375505002845,98.34387500023134
89,0.4450562000274658,1775827582.2392173,0.448842161,-19.59909167954723,-0.014717483874260513,0.6969068327983023,-19.31,0.92,0.9015951726600231,0.28909167954723003,0.9347174838742606,0.20468833986172075,0.9995839586142898,0.0,0.0,0.0,0.0,0.0,0.0,0.00016050796757008167,0.00016050796757008167,0.0,0.0,0.0,0.0,-0.0026808121598052843,-1.7164223243977972,0.0,0.0,0.0,0.0,0.0026808121598054235,1.7164223243977972,1.716424417923776,0.0,-0.15359922242419358,-98.34375505002845,0.0,0.0,0.0,0.0,0.15359922242420157,98.34375505002845,98.34387500023134
90,0.4500548839569092,1775827582.244216,0.453840869,-19.59909167954723,-0.014717483874260513,0.6969068327983023,-19.31,0.92,0.9015959651443796,0.28909167954723003,0.9347174838742606,0.20468913234607722,0.9995841208944132,0.0,0.0,0.0,0.0,0.0,0.0,0.00015650363624715812,0.00015650363624715812,0.0,0.0,0.0,0.0,-0.0026808121598052843,-1.7164223243977972,0.0,0.0,0.0,0.0,0.0026808121598054235,1.7164223243977972,1.716424417923776,0.0,-0.15359922242419358,-98.34375505002845,0.0,0.0,0.0,0.0,0.15359922242420157,98.34375505002845,98.34387500023134
91,0.45505595207214355,1775827582.249217,0.458841873,-19.59909167954723,-0.014717483874260513,0.6969068327983023,-19.31,0.92,0.9015967378661587,0.28909167954723003,0.9347174838742606,0.20468990506785634,0.9995842791282559,0.0,0.0,0.0,0.0,0.0,0.0,0.00015260085678303907,0.00015260085678303907,0.0,0.0,0.0,0.0,-0.0026808121598052843,-1.7164223243977972,0.0,0.0,0.0,0.0,0.0026808121598054235,1.7164223243977972,1.716424417923776,0.0,-0.15359922242419358,-98.34375505002845,0.0,0.0,0.0,0.0,0.15359922242420157,98.34375505002845,98.34387500023134
92,0.46005678176879883,1775827582.2542179,0.463842715,-19.59909167954723,-0.014717483874260513,0.6969068327983023,-19.31,0.92,0.901597491313212,0.28909167954723003,0.9347174838742606,0.20469065851490964,0.9995844334156742,0.0,0.0,0.0,0.0,0.0,0.0,0.00014879453324057737,0.00014879453324057737,0.0,0.0,0.0,0.0,-0.0026808121598052843,-1.7164223243977972,0.0,0.0,0.0,0.0,0.0026808121598054235,1.7164223243977972,1.716424417923776,0.0,-0.15359922242419358,-98.34375505002845,0.0,0.0,0.0,0.0,0.15359922242420157,98.34375505002845,98.34387500023134
93,0.4650533199310303,1775827582.2592144,0.468839368,-19.59909167954723,-0.014717483874260513,0.6969068327983023,-19.31,0.92,0.9015982259712965,0.28909167954723003,0.9347174838742606,0.20469139317299412,0.9995845838560977,0.0,0.0,0.0,0.0,0.0,0.0,0.0001450836380588501,0.0001450836380588501,0.0,0.0,0.0,0.0,-0.0026808121598052843,-1.7164223243977972,0.0,0.0,0.0,0.0,0.0026808121598054235,1.7164223243977972,1.716424417923776,0.0,-0.15359922242419358,-98.34375505002845,0.0,0.0,0.0,0.0,0.15359922242420157,98.34375505002845,98.34387500023134
94,0.470050573348999,1775827582.2642117,0.473836537,-19.59909167954723,-0.014717483874260513,0.6969068327983023,-19.31,0.92,0.9015989423021856,0.28909167954723003,0.9347174838742606,0.20469210950388328,0.9995847305440478,0.0,0.0,0.0,0.0,0.0,0.0,0.00014146475362927942,0.00014146475362927942,0.0,0.0,0.0,0.0,-0.0026808121598052843,-1.7164223243977972,0.0,0.0,0.0,0.0,0.0026808121598054235,1.7164223243977972,1.716424417923776,0.0,-0.15359922242419358,-98.34375505002845,0.0,0.0,0.0,0.0,0.15359922242420157,98.34375505002845,98.34387500023134
95,0.4750549793243408,1775827582.269216,0.478840847,-19.59909167954723,-0.014717483874260513,0.6969068327983023,-19.31,0.92,0.901599640771221,0.28909167954723003,0.9347174838742606,0.20469280797291867,0.9995848735747781,0.0,0.0,0.0,0.0,0.0,0.0,0.00013793702565612854,0.00013793702565612854,0.0,0.0,0.0,0.0,-0.0026808121598052843,-1.7164223243977972,0.0,0.0,0.0,0.0,0.0026808121598054235,1.7164223243977972,1.716424417923776,0.0,-0.15359922242419358,-98.34375505002845,0.0,0.0,0.0,0.0,0.15359922242420157,98.34375505002845,98.34387500023134
96,0.48005127906799316,1775827582.2742124,0.4838372,-19.59909167954723,-0.014717483874260513,0.6969068327983023,-19.31,0.92,0.9016003218162919,0.28909167954723003,0.9347174838742606,0.20469348901798956,0.999585013037923,0.0,0.0,0.0,0.0,0.0,0.0,0.00013449590841244126,0.00013449590841244126,0.0,0.0,0.0,0.0,-0.0026808121598052843,-1.7164223243977972,0.0,0.0,0.0,0.0,0.0026808121598054235,1.7164223243977972,1.716424417923776,0.0,-0.15359922242419358,-98.34375505002845,0.0,0.0,0.0,0.0,0.15359922242420157,98.34375505002845,98.34387500023134
97,0.4850611686706543,1775827582.2792222,0.488847128,-19.59909167954723,-0.014717483874260513,0.6969068327983023,-19.31,0.92,0.9016009858746737,0.28909167954723003,0.9347174838742606,0.2046941530763714,0.9995851490229933,0.0,0.0,0.0,0.0,0.0,0.0,0.00013114095040281902,0.00013114095040281902,0.0,0.0,0.0,0.0,-0.0026808121598052843,-1.7164223243977972,0.0,0.0,0.0,0.0,0.0026808121598054235,1.7164223243977972,1.716424417923776,0.0,-0.15359922242419358,-98.34375505002845,0.0,0.0,0.0,0.0,0.15359922242420157,98.34375505002845,98.34387500023134
98,0.49004602432250977,1775827582.284207,0.493832039,-19.59909167954723,-0.014717483874260513,0.6969068327983023,-19.31,0.92,0.9016016333636916,0.28909167954723003,0.9347174838742606,0.20469480056538925,0.9995852816154164,0.0,0.0,0.0,0.0,0.0,0.0,0.0001278691890626737,0.0001278691890626737,0.0,0.0,0.0,0.0,-0.0026808121598052843,-1.7164223243977972,0.0,0.0,0.0,0.0,0.0026808121598054235,1.7164223243977972,1.716424417923776,0.0,-0.15359922242419358,-98.34375505002845,0.0,0.0,0.0,0.0,0.15359922242420157,98.34375505002845,98.34387500023134
99,0.49504566192626953,1775827582.2892067,0.498831662,-19.59909167954723,-0.014717483874260513,0.6969068327983023,-19.31,0.92,0.9016022647049939,0.28909167954723003,0.9347174838742606,0.2046954319066916,0.9995854109015067,0.0,0.0,0.0,0.0,0.0,0.0,0.0001246802025337652,0.0001246802025337652,0.0,0.0,0.0,0.0,-0.0026808121598052843,-1.7164223243977972,0.0,0.0,0.0,0.0,0.0026808121598054235,1.7164223243977972,1.716424417923776,0.0,-0.15359922242419358,-98.34375505002845,0.0,0.0,0.0,0.0,0.15359922242420157,98.34375505002845,98.34387500023134
100,0.5000848770141602,1775827582.294246,0.503870823,-19.59909167954723,-0.014717483874260513,0.6969068327983023,-19.31,0.92,0.9016028802968549,0.28909167954723003,0.9347174838742606,0.20469604749855252,0.9995855369627936,0.0,0.0,0.0,0.0,0.0,0.0,0.00012157029973065782,0.00012157029973065782,0.0,0.0,0.0,0.0,-0.0026808121598052843,-1.7164223243977972,0.0,0.0,0.0,0.0,0.0026808121598054235,1.7164223243977972,1.716424417923776,0.0,-0.15359922242419358,-98.34375505002845,0.0,0.0,0.0,0.0,0.15359922242420157,98.34375505002845,98.34387500023134
101,0.5050466060638428,1775827582.2992077,0.508832558,-19.59909167954723,-0.014717483874260513,0.6969068327983023,-19.31,0.92,0.9016034805387907,0.28909167954723003,0.9347174838742606,0.20469664774048835,0.9995856598810631,0.0,0.0,0.0,0.0,0.0,0.0,0.00011853863352734989,0.00011853863352734989,0.0,0.0,0.0,0.0,-0.0026808121598052843,-1.7164223243977972,0.0,0.0,0.0,0.0,0.0026808121598054235,1.7164223243977972,1.716424417923776,0.0,-0.15359922242419358,-98.34375505002845,0.0,0.0,0.0,0.0,0.15359922242420157,98.34375505002845,98.34387500023134
102,0.5100550651550293,1775827582.3042161,0.513841128,-19.59909167954723,-0.014717483874260513,0.6969068327983023,-19.31,0.92,0.9016040658077199,0.28909167954723003,0.9347174838742606,0.20469723300941756,0.9995857797334747,0.0,0.0,0.0,0.0,0.0,0.0,0.00011558208326778438,0.00011558208326778438,0.0,0.0,0.0,0.0,-0.0026808121598052843,-1.7164223243977972,0.0,0.0,0.0,0.0,0.0026808121598054235,1.7164223243977972,1.716424417923776,0.0,-0.15359922242419358,-98.34375505002845,0.0,0.0,0.0,0.0,0.15359922242420157,98.34375505002845,98.34387500023134
103,0.5150496959686279,1775827582.3092108,0.518835552,-19.59909167954723,-0.014717483874260513,0.6969068327983023,-19.31,0.92,0.9016046364847355,0.28909167954723003,0.9347174838742606,0.2046978036864332,0.9995858965980444,0.0,0.0,0.0,0.0,0.0,0.0,0.00011270035451616164,0.00011270035451616164,0.0,0.0,0.0,0.0,-0.0026808121598052843,-1.7164223243977972,0.0,0.0,0.0,0.0,0.0026808121598054235,1.7164223243977972,1.716424417923776,0.0,-0.15359922242419358,-98.34375505002845,0.0,0.0,0.0,0.0,0.15359922242420157,98.34375505002845,98.34387500023134
104,0.5200469493865967,1775827582.314208,0.523832879,-19.59909167954723,-0.014717483874260513,0.6969068327983023,-19.31,0.92,0.9016051929293888,0.28909167954723003,0.9347174838742606,0.20469836013108644,0.9995860105483784,0.0,0.0,0.0,0.0,0.0,0.0,0.00010988972326852445,0.00010988972326852445,0.0,0.0,0.0,0.0,-0.0026808121598052843,-1.7164223243977972,0.0,0.0,0.0,0.0,0.0026808121598054235,1.7164223243977972,1.716424417923776,0.0,-0.15359922242419358,-98.34375505002845,0.0,0.0,0.0,0.0,0.15359922242420157,98.34375505002845,98.34387500023134
