sample_idx,t_rel_s,stamp_s,t_in_traj_s,x_des_m,y_des_m,z_des_m,x_act_m,y_act_m,z_act_m,ex_m,ey_m,ez_m,e_pos_norm_m,vx_des_mps,vy_des_mps,vz_des_mps,speed_des_mps,vx_act_mps,vy_act_mps,vz_act_mps,speed_act_mps,wx_act_radps,wy_act_radps,wz_act_radps,roll_des_rad,pitch_des_rad,yaw_des_rad,roll_act_rad,pitch_act_rad,yaw_act_rad,e_roll_rad,e_pitch_rad,e_yaw_rad,e_ang_norm_rad,roll_des_deg,pitch_des_deg,yaw_des_deg,roll_act_deg,pitch_act_deg,yaw_act_deg,e_roll_deg,e_pitch_deg,e_yaw_deg,e_ang_norm_deg
0,0.0,1775872616.6853163,0.024333888,-19.293432653077176,-0.9361094684828662,0.8317618933933107,-19.31000101994226,-0.9189869327099043,0.8515128461022651,-0.01656836686508356,0.017122535772961966,0.019750952708954328,0.03094821715032566,1.205012497669422,-1.186980281450764,-0.9021667890594665,1.9169982324911783,-1.220409519019789e-07,9.47384345452012e-06,0.0016444277680802203,0.0016444550626384077,-0.0008973014924617461,-2.7560056773761593e-07,-2.4396069936273564e-05,0.0,0.4899868710827426,-0.777859731510541,4.087035775387311e-05,4.287394163159248e-08,-1.8061765562289128e-06,4.087035775368619e-05,-0.48998682820880113,0.7778579253339846,0.9193204259089417,0.0,28.07417972986191,-44.56807966873337,0.0023416990064867083,2.456495906580484e-06,-0.00010348629372739013,0.0023416990064759986,-28.074177273366015,44.56797618243963,52.673180424751656
1,0.004925727844238281,1775872616.690242,0.029259422,-19.286934221569155,-0.9425190882922803,0.8271903328744086,-19.310001020667038,-0.918986882757359,0.8515225587325773,-0.023066799097883006,0.023532205534921302,0.024332225858168743,0.04096216709566051,1.4135194532455488,-1.3752806039769307,-0.9360545756063156,2.1830327878646867,-1.195671113344116e-07,7.230866989137531e-06,0.0015933907283123196,0.001593407139686958,-0.0009311831421381338,-1.906358955234225e-07,-1.83239143863152e-05,0.0,0.4431488886096683,-0.7716874446800078,3.537583207432424e-05,4.1483810541995024e-08,-1.9342306184212684e-06,3.5375832074358016e-05,-0.4431488471258578,0.7716855104493892,0.8898760750789745,0.0,25.390561013247034,-44.21443368339964,0.0020268858746223073,2.376847262176627e-06,-0.00011082325104051786,0.0020268858746242424,-25.390558636399774,44.214322860148584,50.98614339169201
2,0.009922504425048828,1775872616.6952388,0.034256253,-19.279301347252463,-0.9499510974571309,0.8223901405471765,-19.310001021259833,-0.9189868507462374,0.8515304219963857,-0.030699674007369282,0.030964246710893484,0.029140281449209215,0.052444356812444075,1.6214103973453573,-1.5590255741657009,-0.9671759379233422,2.448461090648618,-1.1755783071222667e-07,5.611953549166953e-06,0.0015520892905319706,0.001552099440637267,-0.000945749261794931,-1.2744599369332467e-07,-1.3446918083155816e-05,0.0,0.40608288080003596,-0.7657854987748423,3.067837536441241e-05,4.069518802833119e-08,-2.013580021369625e-06,3.067837536452345e-05,-0.40608284010484796,0.7657834851948211,0.8667915667367265,0.0,23.26683520235615,-43.87627709211913,0.00175774143069895,2.331662520514691e-06,-0.00011536963693634164,0.0017577414307053119,-23.266832870693634,43.87616172248221,49.66349849154666
3,0.014407873153686523,1775872616.6997242,0.03874155,-19.27157239582838,-0.9573897059635431,0.81795541213366,-19.31000102149416,-0.9189868401113717,0.8515335099109601,-0.0384286256657802,0.03840286585217145,0.03357809777730014,0.06386726882028436,1.8049018177832106,-1.717714608467435,-0.9923175357679779,2.6819597572991665,-1.1676355996533703e-07,5.029100707555934e-06,0.0015358530409184086,0.0015358612791479505,-0.0009481582724806355,-1.0346789532442156e-07,-1.1551070364765511e-05,0.0,0.37900598074179853,-0.7606525193167677,2.878414941224881e-05,4.0464976442337504e-08,-2.0385724391953774e-06,2.8784149412430793e-05,-0.379005940276822,0.7606504807443284,0.8498439018138703,0.0,21.715443106721615,-43.58217903284412,0.0016492102781958259,2.31847236824224e-06,-0.00011680159699758476,0.0016492102782062529,-21.71544078824924,43.58206223124711,48.692468818865095
4,0.019526243209838867,1775872616.7048426,0.04385996,-19.26175585196795,-0.966730144178823,0.8127648645664303,-19.310001022187645,-0.9189868146806635,0.8515425812063048,-0.04824517021969399,0.047743329498159515,0.038777716639874504,0.07817117927279514,2.0106905798098924,-1.8915844399601862,-1.0177788924017743,2.9422512086928125,-1.1440106458215587e-07,3.5035408267721723e-06,0.001488155234640271,0.0014881593631977622,-0.0009442315141922506,-3.846210067075887e-08,-6.0775146242683844e-06,0.0,0.3532174594801614,-0.754885405270791,2.309872197331138e-05,4.0046426317444957e-08,-2.091290931463126e-06,2.3098721973369152e-05,-0.3532174194337352,0.7548833139798594,0.8334334788393092,0.0,20.237869678546417,-43.25174773803903,0.0013234592812168388,2.2944912125712235e-06,-0.00011982214410681981,0.0013234592812201487,-20.23786738405521,43.25162791589492,47.75222084239822
5,0.02449774742126465,1775872616.709814,0.048831461,-19.25122189609531,-0.9766359900846162,0.8076068035256876,-19.310001022754754,-0.9189867998010017,0.8515499248543787,-0.05877912665944507,0.05764919028361448,0.04394312132869116,0.09332423470520157,2.206895999902781,-2.0530974380867457,-1.0392142990995141,3.188348381861391,-1.1244320677207477e-07,2.486611814540977e-06,0.0014494616119711179,0.0014494637492740903,-0.0009286647255826478,8.678275354789317e-09,-1.7869224003199493e-06,0.0,0.33200719222206493,-0.749310832622257,1.8411990164353542e-05,3.99731225780051e-08,-2.110843555789951e-06,1.84119901645019e-05,-0.3320071522489423,0.7493087217787009,0.8195683681164643,0.0,19.02261088231297,-42.93234825268897,0.0010549293288538409,2.2902912176787933e-06,-0.0001209424269591517,0.0010549293288623412,-19.02260859202175,42.93222731026199,46.957808515497625
6,0.029531002044677734,1775872616.7148473,0.0538647,-19.239572695780375,-0.9874642976106105,0.802284419008218,-19.310001023312076,-0.9189867894354904,0.8515570774221081,-0.07042832753170103,0.0684775081751201,0.04927265841389006,0.10989592036084911,2.401846959178932,-2.2092212330410086,-1.0576079827610634,3.4304608898858246,-1.1048278629042919e-07,1.6970312352452841e-06,0.0014117211764097222,0.0014117222007339507,-0.0009027244183919853,5.1930876503286176e-08,2.2325446305939028e-06,0.0,0.31340451221960114,-0.7436477958959768,1.3829355144195742e-05,4.0127342211142096e-08,-2.1096121681263017e-06,1.3829355144157063e-05,-0.31340447209225886,0.7436456862838088,0.8069890148243627,0.0,17.956755830539382,-42.607880149045535,0.00079236368314995,2.2991273517755988e-06,-0.00012087187364308014,0.0007923636831477338,-17.956753531412026,42.607759277171894,46.237064662856206
7,0.03449201583862305,1775872616.7198083,0.058825789,-19.227139305098927,-0.9988882278911249,0.7969558492055836,-19.310001023641746,-0.9189867849148231,0.8515612791817196,-0.08286171854281932,0.07990144297630175,0.054605429976136044,0.12740509398153319,2.5903690348982873,-2.3558256958370545,-1.0724808934949064,3.661986033976326,-1.0930085833328643e-07,1.3298762099900002e-06,0.001389501589564407,0.0013895022302678845,-0.0008824955421252546,7.492675566434219e-08,4.50596870319106e-06,0.0,0.29722566213126733,-0.738014711275628,1.1150679904506327e-05,4.031802243874779e-08,-2.099477818713785e-06,1.1150679904314842e-05,-0.29722562181324497,0.7380126117978092,0.7956165442970826,0.0,17.029776003102995,-42.28512817465949,0.0006388868972295523,2.310052524053999e-06,-0.00012029121819363206,0.0006388868972185811,-17.029773693050476,42.285007883441295,45.58547009900614
8,0.0404050350189209,1775872616.7257214,0.064738768,-19.211111822026815,-1.0134276957166446,0.7905203177524014,-19.31000102385956,-0.918986782462198,0.8515640435326532,-0.09888920183274408,0.09444091325444659,0.061043725780251856,0.14974811114864084,2.8103501357792378,-2.5211169975064474,-1.085983724480155,3.928544189725514,-1.0850926133551351e-07,1.1284667389163555e-06,0.001374880321919935,0.0013748807893101513,-0.0008671788164266458,8.91438619006514e-08,5.961822857493814e-06,0.0,0.2800816704157807,-0.7312010943236739,9.400769424791973e-06,4.048212844319061e-08,-2.0890019586433088e-06,9.400769424683375e-06,-0.2800816299336524,0.7311990053217152,0.7830055586636224,0.0,16.04749763379836,-41.89473668009373,0.0005386244122162066,2.319455105501328e-06,-0.00011969099562482414,0.0005386244122099844,-16.047495314343266,41.894616989098104,44.86291384670876
9,0.044510602951049805,1775872616.729827,0.068844477,-19.199224997314378,-1.0240839609695032,0.7860111661029991,-19.310001024397128,-0.9189867777968208,0.8515708280644899,-0.1107760270827498,0.10509718317268235,0.06555966196149077,0.16617706028082038,2.960080176245938,-2.6298473104301108,-1.0926573962433044,4.107562745904908,-1.0651353183650841e-07,7.722330473296295e-07,0.0013391183921331526,0.0013391186190320453,-0.0008229442373742349,1.1911855172048607e-07,9.38596443425934e-06,0.0,0.2692526906149506,-0.7263903326735756,5.172043006262657e-06,4.1007001766547435e-08,-2.050502722274484e-06,5.172043006318461e-06,-0.2692526496079486,0.7263882821708534,0.7746850494380114,0.0,15.42704279477838,-41.619100341299706,0.0002963362357190046,2.3495281317086792e-06,-0.00011748515186641391,0.000296336235722202,-15.427040445250235,41.618982856147845,44.386183784681585
10,0.05048942565917969,1775872616.7358057,0.074823137,-19.180828078104724,-1.040376055259624,0.7794066228023375,-19.31000102481995,-0.9189867750284844,0.8515761286365249,-0.12917294671522583,0.1213892802311396,0.07216950583418735,0.19138820520209573,3.173695168993795,-2.7793245699935514,-1.0984149439875188,4.359300572367028,-1.0489596905188853e-07,6.329239996379415e-07,0.001311274116773579,0.0013112742737186158,-0.0007819388157230912,1.3851481541717499e-07,1.1898105090979129e-05,0.0,0.2547158675558688,-0.7192476703878392,1.9607049430181354e-06,4.1522898387062685e-08,-2.007866387560834e-06,1.9607049428493895e-06,-0.2547158260329705,0.7192456625214518,0.7630166938484538,0.0,14.594144185964536,-41.20985593783975,0.00011234011810537772,2.3790868307292654e-06,-0.00011504226983341465,0.00011234011809570929,-14.594141806877712,41.20974089556992,43.71763625554205
11,0.05447554588317871,1775872616.7397919,0.078809247,-19.167859597528164,-1.0517213502404372,0.7749901631126146,-19.310001025236268,-0.9189867725699475,0.8515813191171205,-0.14214142770810412,0.13273457767048968,0.07659115600450594,0.20901880001178846,3.313205745523717,-2.8731514199746226,-1.0996443713882724,4.521233143490774,-1.0325643654457282e-07,6.162025250618937e-07,0.0012840744982672136,0.0012840746502706297,-0.0007364824927038666,1.5570967313497985e-07,1.4203956133545348e-05,0.0,0.24568189324971842,-0.714384746688595,-1.077532326405181e-06,4.2112017746666176e-08,-1.955593027572797e-06,-1.0775323264766712e-06,-0.24568185113770058,0.7143827910955673,0.7554484391360548,0.0,14.076535585992495,-40.931230933778906,-6.17380545919299e-05,2.4128408836639952e-06,-0.0001120472269251321,-6.1738054596026e-05,-14.076533173151606,40.93111888655198,43.28400720224158
12,0.05949759483337402,1775872616.744814,0.083831451,-19.150736315680646,-1.0665325058054862,0.769425723051874,-19.310001025747344,-0.9189867692095681,0.8515876563007173,-0.1592647100666973,0.14754573659591808,0.08216193324884336,0.2321326679626299,3.4856626408409133,-2.9847224825909895,-1.098221426197382,4.7185275928828885,-1.011720729265386e-07,7.567842112679358e-07,0.0012509558694856421,0.0012509561024906949,-0.0006742163185997775,1.7448542906835782e-07,1.6792359879505022e-05,0.0,0.23490092904049867,-0.7081318389621921,-4.606608773369424e-06,4.293890950590089e-08,-1.8779655917637485e-06,-4.606608773549681e-06,-0.2349008861015891,0.7081299609966001,0.7460740365229036,0.0,13.458831837722608,-40.572965711371275,-0.0002639392405820051,2.460218291582292e-06,-0.0001075995024788509,-0.0002639392405923331,-13.458829377504314,40.57285811186878,42.746893497051616
13,0.06539106369018555,1775872616.7507074,0.089724835,-19.129551435915808,-1.0846009834450772,0.7629169956180675,-19.31000102624791,-0.9189867647268,0.8515938301325063,-0.18044959033210262,0.1656142187182772,0.08867683451443886,0.2604874374556097,3.6833196423472705,-3.1062003194858074,-1.0923258093207127,4.940495894764321,-9.90446571702193e-08,1.062507803741181e-06,0.0012187119281968878,0.0012187123953837726,-0.0006068909462837069,1.8897517200661752e-07,1.905238495315553e-05,0.0,0.22293854000416088,-0.700600508140979,-7.811261643017656e-06,4.385217739648938e-08,-1.788216903592341e-06,-7.811261642842737e-06,-0.22293849615198358,0.7005987199240753,0.7352143493477101,0.0,12.773437433046885,-40.14145224119897,-0.0004475523248173368,2.512544687277828e-06,-0.00010245728142979356,-0.00044755232480731466,-12.773434920502202,40.14134978391753,42.12467925508068
14,0.07011651992797852,1775872616.7554328,0.094450293,-19.111732822621022,-1.0995870394336213,0.7577316691186629,-19.31000102664063,-0.9189867598021388,0.8515986543583136,-0.19826820401960887,0.1806002796314825,0.09386698523965076,0.28414389426153736,3.8381277975297214,-3.196235302473132,-1.0843022953791523,5.111052393266025,-9.730941187523901e-08,1.4149534064663494e-06,0.0011934886899251382,0.0011934895326484798,-0.000550106394412768,1.9239248999305165e-07,2.062455517918322e-05,0.0,0.21377302100292925,-0.6943992043810376,-1.012602023395734e-05,4.4618042343921016e-08,-1.7087933968686846e-06,-1.0126020233869326e-05,-0.2137729763848868,0.6943974955876406,0.7265581651962746,0.0,12.24829187722935,-39.78614370827572,-0.00058017822266983,2.556425516442669e-06,-9.790664970039913e-05,-0.0005801782226647872,-12.248289320803828,39.78604580162601,41.62871643651539
15,0.07541012763977051,1775872616.7607265,0.09974396,-19.090912772657408,-1.1168604744320647,0.7519767563376403,-19.310001027026345,-0.9189867532921341,0.8516033787203862,-0.21908825436893764,0.19787372113993063,0.09962662238274589,0.31157525031296307,4.007663162749785,-3.289307729580287,-1.0718299249164895,5.294310980088412,-9.554395952988693e-08,1.8536674823876511e-06,0.0011687731348606117,0.001168774608717902,-0.0004913080166523595,1.8787730538409315e-07,2.1989196167177448e-05,0.0,0.20385843980192692,-0.6872686539420784,-1.220942603951343e-05,4.538005414801777e-08,-1.6234972055427778e-06,-1.2209426039522242e-05,-0.2038583944218728,0.6872670304448727,0.7168641546777517,0.0,11.68022821877217,-39.3775932625182,-0.0006995485823412474,2.6000855767565627e-06,-9.301953792888428e-05,-0.0006995485823417523,-11.680225618686595,39.37750024298026,41.073290547248604
16,0.0794992446899414,1775872616.7648156,0.103833091,-19.074222110314544,-1.1305280977215575,0.7475821904561109,-19.310001027498462,-0.91898674243102,0.8516091467160839,-0.23577891718391797,0.21154135529053752,0.10402695625997305,0.3334112331870248,4.135809708031689,-3.355567836581485,-1.0596751817401104,5.4302549606574875,-9.329559234479791e-08,2.5093149319449676e-06,0.0011385423815993348,0.0011385451506476941,-0.0004158305718332275,1.8043364388126927e-07,2.3408142196720026e-05,0.0,0.1964030517294574,-0.6816203430983266,-1.4477994519612956e-05,4.630450058500642e-08,-1.5098724441711584e-06,-1.4477994519701554e-05,-0.1964030054249566,0.6816188332258823,0.7093506710772755,0.0,11.253065947587494,-39.053968889793246,-0.0008295279817873582,2.653052455981919e-06,-8.650931865410939e-05,-0.0008295279817924344,-11.253063294535025,39.05388238047458,40.64279964750055
17,0.08448982238769531,1775872616.7698061,0.108823662,-19.05314980129848,-1.147560238215653,0.742293177617094,-19.310001027959217,-0.9189867280291261,0.8516147653272932,-0.2568512266607357,0.22857351018652683,0.10932158771019918,0.3607902600342665,4.288884532394198,-3.4297805339705048,-1.0418643349489385,5.589580157386759,-9.100283742168123e-08,3.2668675775204535e-06,0.0011090212802564667,0.001109026095620377,-0.00033911454845882865,1.6842886661658312e-07,2.451637300708122e-05,0.0,0.18749056126945987,-0.6745522394154696,-1.6365668652333094e-05,4.718351815104847e-08,-1.3899337233204436e-06,-1.6365668652262855e-05,-0.18749051408594175,0.6745508494817463,0.7001225190469104,0.0,10.742417859279024,-38.64899637960467,-0.00093768374268824,2.7034164526339912e-06,-7.963733614916571e-05,-0.0009376837426842157,-10.742415155862574,38.64891674226852,40.114065483455555
18,0.0894920825958252,1775872616.7748084,0.113825801,-19.03127121463873,-1.1649851664831354,0.7370893065771351,-19.31000102840842,-0.9189867096237969,0.8516202382691531,-0.2787298137696901,0.24599845685933852,0.114530931692018,0.3890024218118746,4.43865038232616,-3.496824850605185,-1.0207286793383537,5.742063069068291,-8.866883039295835e-08,4.1075468707934454e-06,0.0010803031257863283,0.0010803109382891431,-0.0002621583055047365,1.4671090539515418e-07,2.5324023033681265e-05,0.0,0.1787131887151599,-0.6672653171183963,-1.786874389586e-05,4.7976971293290466e-08,-1.2652098530461267e-06,-1.7868743895643746e-05,-0.17871314073818878,0.6672640519085435,0.6907819496492414,0.0,10.239511456703674,-38.23148648634259,-0.0010238036104329303,2.7488779689258504e-06,-7.249118477791016e-05,-0.0010238036104205398,-10.239508707825715,38.23141399515783,39.578890278720074
19,0.09546542167663574,1775872616.7807817,0.119799229,-19.004176462761908,-1.1862057447010381,0.7310256509994857,-19.310001028672307,-0.9189866965017341,0.851623453865626,-0.30582456591039886,0.267219048199304,0.1205978028661403,0.42364904684298094,4.612691426957215,-3.5672595809942633,-0.9911822429986892,5.9147870086213485,-8.725073434111918e-08,4.644013369482461e-06,0.0010634749861214141,0.0010634851294582396,-0.00021628717158694128,1.3232690898603436e-07,2.5669422339812734e-05,0.0,0.16837139455777464,-0.6582830999084789,-1.8586314942487303e-05,4.8396599711021017e-08,-1.1886941185116718e-06,-1.8586314942670157e-05,-0.16837134616117488,0.6582819112143605,0.6794733145500333,0.0,9.646970298892445,-37.71684334954455,-0.00106491740290546,2.772920906225564e-06,-6.81071561227425e-05,-0.0010649174029159366,-9.646967525971537,37.71677524238844,38.93095321548194
20,0.09946012496948242,1775872616.7847764,0.123793998,-18.985483358256968,-1.2006183057637538,0.7270751118315477,-19.3100010290175,-0.9189866764468155,0.8516276635985413,-0.32451767076053173,0.2816316293169383,0.12455255176699354,0.4473716926887795,4.72616373701582,-3.6085155118657,-0.9688070413020858,6.024665546877704,-8.534196972918432e-08,5.388310099817894e-06,0.0010414731358847197,0.0010414870781428522,-0.00015590613581017022,1.1182291726721993e-07,2.597393339244865e-05,0.0,0.16150801222186772,-0.6520972342358843,-1.933034294565559e-05,4.888745218643135e-08,-1.0853490944169503e-06,-1.9330342945433898e-05,-0.16150796333441564,0.6520961488867898,0.6717992333927417,0.0,9.253727457860338,-37.362419353870024,-0.001107547067326549,2.8010446814301247e-06,-6.218592240843715e-05,-0.001107547067313847,-9.253724656815663,37.362357167947614,38.49126075352826
21,0.1044614315032959,1775872616.7897778,0.128795181,-18.96144955634544,-1.2188787719503187,0.7222621946535894,-19.31000102943819,-0.9189866471081357,0.851632803542059,-0.34855147309275125,0.29989212484218297,0.12937060888846952,0.4776611459828607,4.864925753896899,-3.653558225412779,-0.9378393564754923,6.155934775155196,-8.293191739611565e-08,6.352020299168529e-06,0.0010146205617153424,0.0010146404482845835,-8.232827080119197e-05,7.587555271056159e-08,2.611524012881541e-05,0.0,0.15294275134689306,-0.6441406681539481,-1.9924894695640902e-05,4.936490291652332e-08,-9.550183897739008e-07,-1.992489469548886e-05,-0.15294270198199023,0.6441397131355582,0.6620479140703582,0.0,8.762974159295759,-36.90654169795814,-0.0011416123733028246,2.8284005931898347e-06,-5.4718523091424336e-05,-0.0011416123732941133,-8.762971330895171,36.90648697943504,37.93255131167132
22,0.10942459106445312,1775872616.794741,0.133758282,-18.936921712615188,-1.237204824324953,0.7176471187489224,-19.31000102976604,-0.9189866201300806,0.8516368199160765,-0.3730793171508502,0.31821820419487234,0.13398970116715414,0.5083347739291671,4.999006290482023,-3.690995557655114,-0.9038588474784505,6.279368830947398,-8.098997405925329e-08,7.138412881523561e-06,0.0009936397119796041,0.0009936653565062806,-2.548560419786183e-05,4.5828899774621865e-08,2.604743520624475e-05,0.0,0.14444277998337954,-0.6360006362304638,-2.0139849622443998e-05,4.96092016441225e-08,-8.506411610129066e-07,-2.0139849622236028e-05,-0.14444273037417776,0.6359997855893029,0.6521958525114985,0.0,8.275961674184375,-36.44015222364073,-0.0011539283833941856,2.842397879221684e-06,-4.873814840614786e-05,-0.0011539283833822698,-8.275958831786488,36.44010348549233,37.36806976484557
23,0.115081787109375,1775872616.800398,0.139415677,-18.90816298476502,-1.258297203614437,0.7126028300872189,-19.31000103016489,-0.9189865819679848,0.8516417237790357,-0.4018380453998702,0.3393106216464523,0.13903889369181677,0.5440012193478378,5.147439445044101,-3.7248465153482018,-0.8611778080470562,6.411882845184423,-7.855284523097078e-08,8.126066054427051e-06,0.0009680098707756579,0.0009680439809425893,4.241539509880671e-05,1.1766518525472219e-08,2.5751201968525625e-05,0.0,0.13471677793454778,-0.6264102408910828,-2.0095923794414883e-05,4.9755879633542346e-08,-7.210499331670588e-07,-2.0095923794372084e-05,-0.1347167281786681,0.6264095198411495,0.6407319906190346,0.0,7.718702805250723,-35.890663046832266,-0.0011514116188364998,2.8508019089629054e-06,-4.1313117988662544e-05,-0.0011514116188340476,-7.7186999544488115,35.89062173371427,36.71123886148654
24,0.12089419364929199,1775872616.8062105,0.145227886,-18.877756822834364,-1.2801380170498353,0.707684583657961,-19.31000103055155,-0.9189865388866427,0.8516465010251796,-0.4322442077171864,0.3611514781631926,0.14396191736721853,0.5813694857287945,5.29504813496722,-3.7498340745408716,-0.8129496470028007,6.539088427813896,-7.611285222127327e-08,9.10341995841005e-06,0.0009429926218624729,0.0009430365650043302,0.00010615172383758833,-2.6754800842994234e-08,2.5237247492565266e-05,0.0,0.12464405311116987,-0.6161931765712337,-1.972265933267953e-05,4.972646682943515e-08,-5.934920357823269e-07,-1.9722659332810366e-05,-0.12464400338470316,0.6161925830791981,0.6286727506505779,0.0,7.141578184674511,-35.30526838229121,-0.0011300251405368417,2.8491166794239184e-06,-3.400458882495456e-05,-0.001130025140544338,-7.141575335557839,35.3052343777024,36.02029530715849
25,0.12450551986694336,1775872616.8098218,0.148839371,-18.858436849933156,-1.2937713650605829,0.704774630547128,-19.310001030926035,-0.9189864909770366,0.8516511546881013,-0.45156418099287876,0.3747848740835463,0.1468765241409733,0.6049352235911899,5.3842719538824495,-3.7603624870038286,-0.780746834951968,6.613643181130826,-7.367960980188417e-08,1.00548619040684e-05,0.0009185675574601055,0.0009186225902375899,0.00016513987600505018,-7.269449655625042e-08,2.4524809615155835e-05,0.0,0.11832687357098812,-0.609649702962371,-1.904232323891301e-05,4.947828726858996e-08,-4.6900831969781886e-07,-1.90423232391268e-05,-0.1183268240927009,0.6096492339540514,0.6210261074409326,0.0,6.779630458595703,-34.93035496114814,-0.0010910447537136035,2.8348970380260787e-06,-2.6872197275207454e-05,-0.0010910447537258528,-6.779627623698668,34.930328088950866,35.58217492380344
26,0.12948822975158691,1775872616.8148046,0.15382207,-18.831259569489887,-1.3126292320664648,0.7009571055940065,-19.310001031288387,-0.9189864384053624,0.8516556878186747,-0.4787414617984993,0.39364279366110233,0.15069858222466825,0.6378542928685251,5.504233619073065,-3.7685997973434158,-0.7335042067871254,6.710958246572945,-7.126418768572416e-08,1.0965943762773244e-05,0.0008947977761252162,0.0008948649714676652,0.000218826484554737,-1.182039546730828e-07,2.3633893904978663e-05,0.0,0.1095182744394704,-0.6003651082108412,-1.808009339797032e-05,4.900394713065575e-08,-3.4854137156438887e-07,-1.808009339798744e-05,-0.10951822543552314,0.6003647596694694,0.61027214149297,0.0,6.274934904937136,-34.39838686739617,-0.0010359130449060427,2.807719350068795e-06,-1.9969949576340527e-05,-0.0010359130449070237,-6.2749320972177784,34.39836689744658,34.96601806195779
27,0.13776397705078125,1775872616.8230803,0.162097865,-18.784828680082526,-1.3439832437080568,0.6951625921469822,-19.31000103163872,-0.918986381406865,0.851660103799097,-0.5251723515561935,0.4249968623011918,0.15649751165211478,0.6934838159310022,5.69543607902814,-3.7661678837960806,-0.6478308005249681,6.858695022038909,-6.887761313103648e-08,1.1823512700801387e-05,0.0008717081459737856,0.0008717883297875501,0.0002668185378942982,-1.596308438288529e-07,2.25846227899159e-05,0.0,0.09459495748441751,-0.5842506473788658,-1.6863555890500445e-05,4.830879165419503e-08,-2.3293337282971656e-07,-1.6863555890367365e-05,-0.09459490917562574,0.584250414445493,0.5918587195488926,0.0,5.419891827076582,-33.4750962725951,-0.000966210580108654,2.76788987516219e-06,-1.334609917089004e-05,-0.0009662105801010292,-5.4198890591867,33.47508292649593,33.91100669816858
28,0.1396195888519287,1775872616.824936,0.163953442,-18.774203650472778,-1.351005080065013,0.6939631379048978,-19.31000103177553,-0.9189863574326765,0.85166183814807,-0.5357973813027535,0.43201872263233654,0.15769870024317212,0.7061075630342376,5.736929022299189,-3.762861849764578,-0.627386387441806,6.88949182352804,-6.793338283124192e-08,1.2148873817261244e-05,0.0008626577062190683,0.0008627432514074605,0.00028435168868985386,-1.7453628327948206e-07,2.2125218525038375e-05,0.0,0.09119058071746346,-0.5805129041021894,-1.6312223051078552e-05,4.797521717544491e-08,-1.8821996411804077e-07,-1.6312223050984898e-05,-0.09119053274224642,0.5805127158822252,0.58763145493486,0.0,5.224835406457722,-33.26093935793814,-0.0009346215353028157,2.7487774653765317e-06,-1.078420956406753e-05,-0.0009346215352974498,-5.224832657680265,33.26092857372858,33.66880227689951
29,0.1454157829284668,1775872616.830732,0.169749473,-18.740527027934753,-1.3728841969350098,0.6904673984143214,-19.310001031843232,-0.918986345204296,0.8516626985602227,-0.5694740039084785,0.45389785173071384,0.16119530014590133,0.7458604599537625,5.863284585045039,-3.746022461116984,-0.5606134665925719,6.980335082454471,-6.746379752141291e-08,1.2307415375104047e-05,0.0008581710897222303,0.000858259340910205,0.00029275208850085613,-1.8165987201322275e-07,2.1887660113803828e-05,0.0,0.08039985130448211,-0.5685287973540288,-1.602365086813108e-05,4.779745709414798e-08,-1.662130953605421e-07,-1.602365086794677e-05,-0.08039980350702525,0.5685286311409334,0.5741854518252001,0.0,4.606572153226211,-32.5743006200343,-0.0009180875671350486,2.738592562952315e-06,-9.523308863964546e-06,-0.0009180875671244884,-4.606569414633661,32.57429109672543,32.898403047396215
30,0.14986824989318848,1775872616.8351846,0.174201991,-18.714167405715678,-1.3896090540766672,0.6880521615581457,-19.310001032174725,-0.9189862817650645,0.8516669340331057,-0.5958336264590471,0.47062277231160277,0.16361477247495992,0.7767067001189258,5.957006355114827,-3.726385278181778,-0.5063208592862525,7.044730851414885,-6.514390171050038e-08,1.3055510167990548e-05,0.0008361206786540001,0.0008362226018604735,0.0003310397349377856,-2.1423798938029154e-07,2.062760857474568e-05,0.0,0.07193430053712,-0.5589923043836097,-1.4461564044100615e-05,4.6807297918489906e-08,-5.987670300814198e-08,-1.4461564044054853e-05,-0.0719342537298222,0.5589922445069067,0.5636016913456457,0.0,4.121531823002626,-32.0278998214731,-0.000828586584885108,2.6818606211409546e-06,-3.430682373524816e-06,-0.0008285865848824861,-4.1215291411420125,32.02789639079073,32.291998240540394
31,0.1545243263244629,1775872616.8398407,0.178858069,-18.68616345606652,-1.4069907272526583,0.6857914654453501,-19.310001032494757,-0.918986214784303,0.851671060765362,-0.6238375764282367,0.4880045124683553,0.16587959532001195,0.8092204681648038,6.051904297756308,-3.6996222663150187,-0.4467601584450034,7.107203752657507,-6.287640885110443e-08,1.3722591360595046e-05,0.0008146693495935311,0.0008147849180208477,0.0003630036301628822,-2.4227305361750133e-07,1.926161781339178e-05,0.0,0.06290165865276764,-0.5486981259685366,-1.272379867268917e-05,4.5665625006769186e-08,3.9886457144779544e-08,-1.2723798672897857e-05,-0.06290161298714247,0.5486981658549936,0.5522918524574787,0.0,3.603999565176142,-31.438086844734745,-0.0007290199633192482,2.6164475817149455e-06,2.2853256541252957e-06,-0.0007290199633312051,-3.603996948728551,31.43808913006039,31.64399220527549
32,0.15955877304077148,1775872616.844875,0.183892592,-18.655394945549716,-1.425627381050842,0.6836669317789217,-19.310001032803594,-0.9189861446873211,0.8516750816280464,-0.6546060872538781,0.5066412363635209,0.1680081498491247,0.8446426524095945,6.15093949186383,-3.6635193957689345,-0.3791535087211974,7.169322728049062,-6.066820005530418e-08,1.430082311230594e-05,0.0007937593158067187,0.000793888133588272,0.00038851662659593946,-2.663987493588214e-07,1.780936653878385e-05,0.0,0.05291022417280813,-0.5371803052597987,-1.0842285166488551e-05,4.43935309995998e-08,1.3259584780223685e-07,-1.0842285166567933e-05,-0.05291017977927703,0.5371804378556466,0.5397798718520493,0.0,3.031532538192973,-30.77816432893568,-0.0006212171803170911,2.5435619639602553e-06,7.597182460027184e-06,-0.0006212171803216393,-3.0315299946310037,30.778171926118148,30.92710852323485
33,0.1644282341003418,1775872616.8497446,0.188762106,-18.625169242179503,-1.4434628481909237,0.6819436479367396,-19.310001032864044,-0.9189861303339758,0.8516758733244997,-0.6848317906845409,0.5244767178569479,0.16973222538776012,0.8791356194815865,6.243193751025803,-3.621517442115942,-0.31059459976310894,7.224218006248125,-6.023420869530598e-08,1.4405228947662386e-05,0.0007896372451676698,0.0007897686327052887,0.0003928395492946851,-2.7080417415365116e-07,1.751025888397155e-05,0.0,0.043006781530405894,-0.5256395323697715,-1.0451585816768598e-05,4.412510655394933e-08,1.5025587960085214e-07,-1.0451585816806386e-05,-0.043006737405299145,0.5256396826256511,0.5273961087477601,0.0,2.4641070721334373,-30.116926750018123,-0.000598831756519632,2.528182376106345e-06,8.609027748154669e-06,-0.0005988317565217971,-2.46410454395105,30.116935359045872,30.217571162869252
34,0.1698439121246338,1775872616.8551602,0.194177795,-18.59103640426482,-1.4630371475742523,0.6804287682489588,-19.310001033217752,-0.9189860421985679,0.8516805378903877,-0.7189646289529321,0.5440511053756844,0.17125176964142885,0.9177303043657501,6.334594505603642,-3.5720318953249515,-0.2374213019965844,7.276185009074767,-5.768741488161945e-08,1.4949469255306603e-05,0.0007653365327848759,0.0007654825264981746,0.0004134051855759302,-2.9463084633892476e-07,1.5667383671610342e-05,0.0,0.03263570851476859,-0.5134468222568803,-8.02824826217188e-06,4.242757948608123e-08,2.4982663615913857e-07,-8.028248262181847e-06,-0.03263566608718893,0.5134470720835163,0.514483218964956,0.0,1.8698883593154043,-29.418335919722985,-0.00045998474230568635,2.4309212395082845e-06,1.4314011861869043e-05,-0.00045998474230625746,-1.8698859283941551,29.418350233734834,29.47771707699697
35,0.1758713722229004,1775872616.8611877,0.2002051,-18.552436190983023,-1.4844430231979249,0.6792648230317908,-19.310001033501052,-0.9189859665522301,0.8516843150774337,-0.757564842518029,0.5654570566456948,0.17241949204564289,0.960923854822564,6.390402743145264,-3.543460715803331,-0.19383873259145476,7.309646675338873,-5.564408630182398e-08,1.5291941858365873e-05,0.0007456199219292946,0.0007457767189715106,0.0004235920209120644,-3.114569612134651e-07,1.4084816014805814e-05,0.0,0.026521317211351158,-0.5062894320916621,-5.9331575212293475e-06,4.0911829008408686e-08,3.242205751945888e-07,-5.933157521287313e-06,-0.026521276299522167,0.5062897563122375,0.5069839203352142,0.0,1.5195595433380913,-29.00824767092754,-0.0003399448851527427,2.3440751343427095e-06,1.857647058995389e-05,-0.00033994488515606396,-1.519557199262958,29.00826624739814,29.04803891620453
36,0.18242788314819336,1775872616.8677442,0.206761683,-18.50974979543699,-1.5072025020585775,0.6786556593204732,-19.31000103372045,-0.9189859049634483,0.8516872666597204,-0.8002512382834617,0.5882165970951292,0.17303160733924716,1.008137265758384,6.4490958155588824,-3.5083418072657206,-0.14462238789318668,7.343038520254916,-5.406414658611902e-08,1.549131404997861e-05,0.0007302291255490981,0.0007303934279100049,0.00042727825308153583,-3.232130642451577e-07,1.2800800260014113e-05,0.0,0.01969644295842993,-0.4982290474386951,-4.2301077356121195e-06,3.9642292680482684e-08,3.7799543469041145e-07,-4.230107735647692e-06,-0.01969640331613709,0.49822942543412996,0.4986186004251235,0.0,1.1285230529382042,-28.54642164906051,-0.00024236732013621594,2.271336060814013e-06,2.1657543082973523e-05,-0.0002423673201382541,-1.1285207816021343,28.5464433066036,28.568741391079573
37,0.1859569549560547,1775872616.8712733,0.210290737,-18.486487538205445,-1.5191976630349338,0.6786237563205054,-19.310001033827806,-0.9189858739034468,0.8516887195350528,-0.8235134956223611,0.600211789131487,0.17306496321454734,1.0336247630436461,6.479817495309351,-3.4876969049179314,-0.11735252543232612,7.359744295036113,-5.3293065902289086e-08,1.5565892200542546e-05,0.0007226604282362025,0.0007228280531209905,0.00042766457566971553,-3.2858261231264774e-07,1.2155720352157615e-05,0.0,0.01594586633617555,-0.49376960228905037,-3.3750059253494355e-06,3.899053829206503e-08,4.0295215703918044e-07,-3.375005925398966e-06,-0.01594582734563721,0.4937700052412075,0.49402741573421777,0.0,0.9136308417425961,-28.29091426301578,-0.00019337359535416762,2.233993285078551e-06,2.3087457944037804e-05,-0.00019337359535700552,-0.9136286077493083,28.29093735047373,28.305685885325598
38,0.18952012062072754,1775872616.8748364,0.213854009,-18.466277313854054,-1.5293832470167774,0.6787682691864714,-19.310001033985973,-0.9189858270757042,0.8516908706837439,-0.8437237201319192,0.6103974199410732,0.17292260149727257,1.0556310682679573,6.51021959501151,-3.4656147492320777,-0.08926487967038528,7.375731352490362,-5.216065254896755e-08,1.5646317702295145e-05,0.0007114712962744891,0.0007116433203514782,0.0004264854046084396,-3.36056283772352e-07,1.118717326021147e-05,0.0,0.01210280779821897,-0.48917939601814214,-2.093259200133825e-06,3.799350783907847e-08,4.3796646520556916e-07,-2.0932592001976502e-06,-0.012102769804711144,0.4891798339846072,0.48932952804683205,0.0,0.6934398070959674,-28.027914816598255,-0.0001199349175945987,2.1768676480764047e-06,2.509363002454233e-05,-0.00011993491759825562,-0.6934376302283202,28.02793991022827,28.036516748211923
39,0.19622492790222168,1775872616.8815413,-0.019778543000000037,-19.310001033501052,-0.9189859665522301,0.8516843150774337,-19.310001034089556,-0.9189857957475858,0.8516922862592432,-5.885034681796242e-10,1.7080464431717957e-07,7.9711818095074e-06,7.973011602467308e-06,0.13754978503370976,-0.176749470770068,-0.6990744976827814,0.7340745684811264,-5.142213358819627e-08,1.5679018213166655e-05,0.000704118288831373,0.0007042928360584008,0.0004245541423780196,-3.4067786576646374e-07,1.0542292657821664e-05,0.0,1.2607545466437986,-0.9094783413645773,-1.242069433894097e-06,3.731676380498559e-08,4.596957043167383e-07,-1.2420694339709826e-06,-1.2607545093270347,0.9094788010602812,1.5545589800223218,0.0,72.23591452461915,-52.10927051874864,-7.116533642433515e-05,2.1380930711122254e-06,2.6338623717642923e-05,-7.116533642874038e-05,-72.23591238652607,52.109296857372335,89.0696685594411
40,0.2093348503112793,1775872616.8946512,-0.006668558999999963,-19.310001033501052,-0.9189859665522301,0.8516843150774337,-19.31000103434216,-0.9189857172866215,0.8516957615883063,-8.411085161696974e-10,2.492656085983924e-07,1.1446510872592519e-05,1.1449224655297503e-05,0.4364518586799215,-0.4702464215194297,-0.7633875226679828,0.9971872600781396,-4.963462014007727e-08,1.5688175292302e-05,0.0006860959472589531,0.0006862752874413865,0.00041588945425244335,-3.510887058195649e-07,8.939895560564523e-06,0.0,0.8718814459562594,-0.8226530334612632,8.612772452440981e-07,3.558670772891588e-08,5.083935562412658e-07,8.612772450788952e-07,-0.8718814103695518,0.8226535418548195,1.198722671711443,0.0,49.955127089057235,-47.13454682096487,4.9347551143140776e-05,2.038968159632467e-06,2.9128805104271384e-05,4.934755113367535e-05,-49.95512505008909,47.13457594976998,68.6817498957118
41,0.2093508243560791,1775872616.8946671,-0.006652670000000027,-19.310001033501052,-0.9189859665522301,0.8516843150774337,-19.31000103439162,-0.918985701603348,0.8516964459095285,-8.90569396005958e-10,2.649488820560819e-07,1.2130832094836563e-05,1.2133725150024352e-05,0.4368090252081574,-0.4705919236243744,-0.7634608985172144,0.9975627432139305,-4.9287359269984766e-08,1.5677693566837103e-05,0.0006825496089788133,0.0006827296399175521,0.00041352323386022145,-3.529900467574243e-07,8.621979255725736e-06,0.0,0.8715479730278509,-0.8226113739130895,1.2760007026625282e-06,3.5234654228360843e-08,5.171744064499362e-07,1.2760007028767006e-06,-0.8715479377931965,0.822611891087496,1.1984515556465969,0.0,49.93602049767757,-47.1321599046781,7.310945491829033e-05,2.0187969798878568e-06,2.9631910761764764e-05,7.31094549305615e-05,-49.93601847888058,47.13218953658886,68.66621608943792
42,0.2104029655456543,1775872616.8957193,-0.005600548999999955,-19.310001033501052,-0.9189859665522301,0.8516843150774337,-19.310001034440734,-0.918985685932586,0.8516971266939591,-9.39682109901696e-10,2.8061964407744e-07,1.281161652544327e-05,1.2814689471955834e-05,0.4604320444870899,-0.4934150094692153,-0.768295000054851,1.0226109945963573,-4.894355716973451e-08,1.566315678402339e-05,0.0006790225735056275,0.0006792032039133192,0.00041095344440986013,-3.5483523593228697e-07,8.305167649858667e-06,0.0,0.8500405958248828,-0.8199632735667869,1.6882558581988594e-06,3.4880724442884806e-08,5.256378821394741e-07,1.6882558582231866e-06,-0.8500405609441586,0.8199637992046691,1.1810629057163995,0.0,48.70373855555161,-46.98043493110782,9.672993541303142e-05,1.998518296936109e-06,3.0116832198786863e-05,9.672993541442527e-05,-48.70373655703333,46.98046504794003,67.66991983700716
43,0.2152712345123291,1775872616.9005876,-0.0007321200000000028,-19.310001033501052,-0.9189859665522301,0.8516843150774337,-19.310001034633814,-0.9189856234550988,0.8516998148537613,-1.132761440203467e-09,3.4309713126123853e-07,1.549977632764321e-05,1.5503573237534535e-05,0.5690374205498826,-0.5976121715989189,-0.7900319971280393,1.1424073048240535,-4.760329036028937e-08,1.5564991944504393e-05,0.000665107432598476,0.0006652895370724254,0.0003987089329287534,-3.616870039353896e-07,7.0510517532058366e-06,0.0,0.7636329657360169,-0.8098862695359729,3.308609742691074e-06,3.3447330073300684e-08,5.563427240316526e-07,3.308609742624924e-06,-0.7636329322886866,0.8098868258786966,1.1131270933809108,0.0,43.75294603373197,-46.403065130005864,0.0001895693743120638,1.9163908491811237e-06,3.187609004982517e-05,0.0001895693743082737,-43.75294411734111,46.4030970060959,63.77748451239086
44,0.220383882522583,1775872616.9057002,0.004380538,-19.308979121034618,-0.9201760816242083,0.8485290430720444,-19.310001034913657,-0.9189855307880032,0.8517037441524385,-0.0010219138790397153,0.0011905508362051176,0.0031747010803941933,0.0035412492456220533,0.6818442038519247,-0.7045384147532344,-0.8117412433365064,1.2728745980350786,-4.569949884732874e-08,1.5301244623839514e-05,0.000644755858673299,0.000644937398100797,0.0003748502292558457,-3.7054132699501005e-07,5.220203573153256e-06,0.0,0.6915383452326993,-0.8017660721577902,5.632420621856336e-06,3.124968703691061e-08,5.931223095888952e-07,5.632420621903833e-06,-0.6915383139830125,0.8017666652800997,1.058798859695534,0.0,39.62222855329454,-45.9378120914228,0.0003227139300748186,1.790475178319657e-06,3.3983405074495495e-05,0.00032271393007754,-39.62222676281937,45.93784607482787,60.664706013818304
45,0.22538352012634277,1775872616.9106998,0.009380007,-19.306743872028427,-0.9225837256234942,0.8446981217788224,-19.310001035138402,-0.9189854550476223,0.8517069264814701,-0.0032571631099749254,0.0035982705758719202,0.007008804702647642,0.008525256947566031,0.790918281250679,-0.8066225938395042,-0.8318620629940444,1.4029206065767248,-4.4212587621912935e-08,1.4980072922831111e-05,0.000628249513468888,0.0006284280831673746,0.00035046160947411407,-3.732293786541508e-07,3.752862717722099e-06,0.0,0.6347176841627894,-0.7952281508497702,7.447298776051297e-06,2.9389046217650172e-08,6.155304650798547e-07,7.447298775886679e-06,-0.634717654773743,0.7952287663802351,1.0174749590115588,0.0,36.3666444848454,-45.5632167936846,0.00042669878864068296,1.6838683121862703e-06,3.526729781080037e-05,0.00042669878863125106,-36.36664280097708,45.5632520609824,58.29702091160875
46,0.23038053512573242,1775872616.9156969,0.014377201,-19.30338848387502,-0.9260729701892372,0.8406398460023509,-19.310001035355935,-0.9189853811304092,0.8517100274116355,-0.006612551480916551,0.007087589058828003,0.011070181409284618,0.014714233659591684,0.8987221057292347,-0.9062148646801041,-0.8508790682706375,1.533923724672996,-4.281710790607302e-08,1.4573049268258743e-05,0.0006121949780084039,0.0006123684076575065,0.0003224823267205611,-3.7517618012825557e-07,2.3492583502758973e-06,0.0,0.5880114394155488,-0.7895493975033426,9.131043580039215e-06,2.751778602384588e-08,6.307572477616237e-07,9.131043579913012e-06,-0.5880114118977628,0.7895500282605905,0.9844524710374167,0.0,33.69057378392345,-45.23784819403851,0.0005231702596862727,1.576653000710452e-06,3.613972819402863e-05,0.0005231702596790418,-33.69057220727045,45.23788433376671,56.40497172166889
47,0.235382080078125,1775872616.9206984,0.019378684,-19.298926197647074,-0.9306123370773822,0.8363651817675901,-19.310001035566717,-0.9189853094488455,0.851713049159129,-0.011074837919643699,0.011627027628536735,0.015347867391538927,0.022212537898434713,1.0053965435482328,-1.0034445667390843,-0.8688165768062114,1.665102234828296,-4.1513483943936846e-08,1.4087021027996233e-05,0.0005965770786502394,0.0005967433758791685,0.0002914415633420008,-3.736182778591633e-07,1.0181100270387718e-06,0.0,0.5489358502166376,-0.7844264707211043,1.066701736810386e-05,2.5642712722750828e-08,6.391438849623168e-07,1.0667017368071186e-05,-0.5489358245739249,0.7844271098649891,0.9574217619761834,0.0,31.451707440838852,-44.94432611066172,0.0006111750751850985,1.4692192142800423e-06,3.6620247109935756e-05,0.0006111750751832263,-31.451705971619635,44.94436273090882,54.85622617521419
48,0.2404496669769287,1775872616.925766,0.02444637,-19.293297112327355,-0.9362426233974657,0.8318335373220126,-19.31000103577122,-0.9189852403792445,0.8517159938728016,-0.01670392344386329,0.017257383018221217,0.01988245655078902,0.03117932657306839,1.2097720801564904,-1.191313315961856,-0.9042424703421037,1.9236502665205506,-4.030115850127089e-08,1.3529586011092184e-05,0.0005813736419432951,0.0005815310506483946,0.00025789715001122446,-3.628324617835409e-07,-2.3332448703396104e-07,0.0,0.48936548471143887,-0.7777106398309901,1.2041287014842767e-05,2.379912775080177e-08,6.410713037749452e-07,1.2041287015041036e-05,-0.48936546091231126,0.7777112809022939,0.9188652735420999,0.0,28.03857691333926,-44.559537344734586,0.0006899149258561725,1.363589576213617e-06,3.673068007325348e-05,0.0006899149258675324,-28.03857554974969,44.559574075414666,52.64710211509623
49,0.24447846412658691,1775872616.9297948,0.028475173,-19.288039045878158,-0.9414337470972053,0.8280982819565944,-19.310001035930586,-0.9189851872318628,0.8517182955252807,-0.021961990052428604,0.022448559865342443,0.02362001356868626,0.03929595256608191,1.3805214855866057,-1.3457352755971044,-0.9321471467214905,2.1414344041538325,-3.9395420561213264e-08,1.303772654667495e-05,0.0005694957565247654,0.0005696449776529413,0.00022962582436747387,-3.5077035726301266e-07,-1.1727206562226943e-06,0.0,0.4503614929631917,-0.7726391588814036,1.3016707447743048e-05,2.237089427235694e-08,6.382402180723432e-07,1.3016707447910392e-05,-0.4503614705922976,0.7726397971216219,0.8943141005595475,0.0,25.80381280200161,-44.26896289044228,0.0007458023999121822,1.2817578257394394e-06,3.656847081105455e-05,0.0007458023999217703,-25.80381152024379,44.26899945891311,51.24042352110037
50,0.24960708618164062,1775872616.9349234,0.03360368,-19.280358727833367,-0.9489254611166147,0.8231881593151944,-19.310001036124884,-0.9189851236839944,0.8517211065882332,-0.029642308291517594,0.029940337432620256,0.02853294727303879,0.0508843721245978,1.5944361908650782,-1.5354113542092176,-0.9645814064983352,2.414566644998069,-3.8340385103024463e-08,1.2372781071581625e-05,0.0005549883643432809,0.0005551262664816543,0.00019296607791369983,-3.337107142513803e-07,-2.2651753822555467e-06,0.0,0.4109542134072692,-0.7665417047687888,1.40736883737798e-05,2.0657327723482812e-08,6.296068536518372e-07,1.4073688373805737e-05,-0.4109541927499416,0.7665423343756426,0.8697531253906963,0.0,23.545942001355073,-43.91960450401477,0.0008063629459999175,1.183577694574154e-06,3.607381546676115e-05,0.0008063629460014037,-23.54594081777739,43.91964057783024,49.833183303199576
51,0.2548947334289551,1775872616.940211,0.038891453,-19.271301768453533,-0.9576471970145153,0.8179608614208871,-19.310001036314105,-0.9189850635828933,0.8517238460009577,-0.038699267860572206,0.03866213343162195,0.033762984580070654,0.06428322504497534,1.8109565912481254,-1.7228890123668463,-0.9944021174641577,2.690120052253549,-3.7366978237130857e-08,1.166053904143384e-05,0.0005408361226432684,0.0005409618111501331,0.00015535549323517713,-3.0955862364392065e-07,-3.2631486717023616e-06,0.0,0.3786320086387721,-0.7604821473472172,1.4944781295556844e-05,1.904648714383156e-08,6.157460052855201e-07,1.4944781295600507e-05,-0.37863198959228495,0.7604827630932225,0.8495270547356694,0.0,21.69401608356257,-43.57241743804154,0.0008562728939814617,1.0912833278917303e-06,3.527964735490038e-05,0.0008562728939839634,-21.69401499227924,43.5724527176889,48.67431481853313
52,0.2603800296783447,1775872616.9456964,0.044376637,-19.260708594570566,-0.9677185760801836,0.8123823108529955,-19.310001036535056,-0.9189849963086939,0.8517270411504967,-0.04929244196448934,0.04873357977148973,0.039344730297501185,0.07970391730868572,2.031228874130963,-1.9086877421532613,-1.0214515534619826,2.9685590632863197,-3.629822794444629e-08,1.0756392637989579e-05,0.0005242862676263935,0.0005243965977404489,0.00010975345851118616,-2.721092023651431e-07,-4.332173363364933e-06,0.0,0.35126945477953514,-0.754305718331705,1.5740144265544394e-05,1.729758193217605e-08,5.928890435142796e-07,1.574014426575232e-05,-0.35126943748195316,0.7543063112207484,0.8320866716298805,0.0,20.126257230728886,-43.21853412299055,0.0009018438353427387,9.910784404954356e-07,3.397003991291643e-05,0.000901843835354652,-20.126256239650445,43.218568093030456,47.67505447348017
53,0.2653806209564209,1775872616.950697,0.049377158,-19.250008524965708,-0.9777682314303614,0.807176284131344,-19.310001036714485,-0.9189849444768242,0.8517296287919701,-0.059992511748777844,0.058783286953537184,0.044553344660626104,0.0950766891064139,2.228194659640526,-2.0703691751930045,-1.0426640176013082,3.2153426281565114,-3.548158307149369e-08,9.972643138518257e-06,0.0005108223642739614,0.0005109197028032396,7.197290462598229e-05,-2.404964168077327e-07,-5.114180097042852e-06,0.0,0.33024810133728216,-0.7486987845609056,1.619428195857424e-05,1.6017485968830074e-08,5.692317956208523e-07,1.6194281958537005e-05,-0.3302480853197962,0.7486993537927011,0.8182997742204592,0.0,18.921822398834987,-42.897280481914365,0.0009278640084711566,9.177343444239778e-07,3.2614579453728296e-05,0.0009278640084690231,-18.921821481100643,42.89731309649382,46.885123439340475
54,0.2711794376373291,1775872616.9564958,0.055176127,-19.236379255578598,-0.9904095410609828,0.8010175536551436,-19.310001036855176,-0.9189849058635836,0.8517316509087137,-0.0736217812765787,0.07142463519739917,0.05071409725357012,0.11442711589331664,2.4520199060739327,-2.248669602352377,-1.0631466165691135,3.4927349353549246,-3.487105719871647e-08,9.332484990568883e-06,0.0005002657398579746,0.0005003527825122357,4.221889921951137e-05,-2.1555247203120198e-07,-5.668220698302111e-06,0.0,0.30929588057711244,-0.7421654428123462,1.6422473715277084e-05,1.5106737869599625e-08,5.476457632441832e-07,1.6422473715138608e-05,-0.3092958654703746,0.7421659904581093,0.8040362492197923,0.0,17.721348577850875,-42.52294757360529,0.0009409384330499057,8.655523221385111e-07,3.1377790902112405e-05,0.0009409384330419716,-17.721347712298552,42.52297895139619,46.06788365582293
55,0.27570056915283203,1775872616.961017,0.059697256,-19.22486129429847,-1.0009656103343751,0.7961411244111147,-19.31000103695914,-0.9189848785925272,0.8517331399770345,-0.08513974266066882,0.08198073174184795,0.05559201556591975,0.1306142731554833,2.623103629750912,-2.38082818150652,-1.0760484923526799,3.702282517604853,-3.4435576933377794e-08,8.84775950619704e-06,0.0004924637812505022,0.0004925432568593656,2.0343668196877774e-05,-1.9871337397287816e-07,-6.042047946528287e-06,0.0,0.2949004710385099,-0.7370189271153305,1.6516212914982912e-05,1.4486007396855776e-08,5.300714685836747e-07,1.6516212915096418e-05,-0.29490045655250263,0.7370194571867992,0.7938286715781837,0.0,16.896552366926585,-42.228073944968465,0.0009463092935679836,8.299870858351282e-07,3.0370857990145967e-05,0.000946309293574487,-16.896551536939505,42.228104315826464,45.48303253790665
56,0.279893159866333,1775872616.9652095,0.063889872,-19.213494779748572,-1.0112770761155945,0.791572063593197,-19.310001037095766,-0.9189848444987205,0.8517350893072002,-0.09650625734719398,0.09229223161687394,0.060163025714003227,0.14646126923883102,2.7790781194868326,-2.4980186456951543,-1.0856112521000492,3.8912625379351313,-3.388193596796784e-08,8.198985400033652e-06,0.00048224050055798064,0.0004823101957122483,-8.103564405943226e-06,-1.75677766434224e-07,-6.485266220282434e-06,0.0,0.2827389534037178,-0.7321881917896957,1.6540397069375875e-05,1.3737864009563194e-08,5.049957633172427e-07,1.6540397069331192e-05,-0.28273893966585373,0.732188696785459,0.7848831734579005,0.0,16.19974873397907,-41.95129319886484,0.0009476949435457932,7.871216272726418e-07,2.8934125910065442e-05,0.000947694943543233,-16.199747946857443,41.95132213299075,44.970493249972215
57,0.2874751091003418,1775872616.9727914,0.071471763,-19.191300207050535,-1.0311296109118233,0.7832265361508995,-19.310001037129577,-0.918984836380829,0.8517355702873367,-0.11870083007904242,0.11214477453099436,0.06850903413643716,0.17708705563752752,3.054597099877476,-2.6968343605162253,-1.09703580603335,4.219830158947168,-3.37479723884906e-08,8.036816819214664e-06,0.0004797224610116806,0.00047978977809308806,-1.5069949092624767e-05,-1.7023863598275785e-07,-6.586248728383618e-06,0.0,0.26299274437449055,-0.7232740863902546,1.6528805259696883e-05,1.356502747716479e-08,4.984596808723562e-07,1.652880525959688e-05,-0.2629927308094633,0.7232745848499356,0.769604639942917,0.0,15.068374295221233,-41.44055258134208,0.000947030781774268,7.772188234205372e-07,2.85596359714239e-05,0.0009470307817685382,-15.06837351800242,41.44058114097806,44.095097762414476
58,0.2896151542663574,1775872616.9749315,0.073611703,-19.18466094482057,-1.036999588738272,0.7808580943681516,-19.310001037196805,-0.9189848206311657,0.8517365247331051,-0.12534009237623422,0.1180147681071062,0.07087843036495356,0.18617565936302347,3.1308355613991696,-2.749893549917564,-1.0988926839970101,4.309479200476785,-3.348499718711337e-08,7.712989830921568e-06,0.0004747335915069349,0.0004747962449708825,-2.881112794649277e-05,-1.5859535073355194e-07,-6.776580565169352e-06,0.0,0.2578418207897824,-0.720710518978346,1.648488001975573e-05,1.323624903566431e-08,4.850942575166384e-07,1.648488001970705e-05,-0.25784180755353336,0.7207110040726037,0.7654454581389618,0.0,14.773248113223058,-41.293670988142445,0.0009445140509115404,7.583812063276708e-07,2.7793853621735688e-05,0.0009445140509087512,-14.773247354841851,41.29369878199608,43.85679419882024
59,0.2954244613647461,1775872616.9807408,0.079421102,-19.16582214958984,-1.0534920711545215,0.7744152959350561,-19.310001037329723,-0.9189847910688964,0.8517384039920289,-0.14417888773988352,0.13450728008562507,0.07732310805697284,0.2117985436813318,3.3344186295012785,-2.887153842947276,-1.1008977870036183,4.545985134933887,-3.2977271552160465e-08,7.06924900514817e-06,0.00046493486702911264,0.0004649886084071048,-5.5431095223881994e-05,-1.3651991822440515e-07,-7.1110773363637205e-06,0.0,0.24460102484189242,-0.713632276375325,1.6315990907758708e-05,1.2647357092772597e-08,4.5729860577463553e-07,1.6315990907678213e-05,-0.24460101219453545,0.713632733673931,0.7543880526650263,0.0,14.01460638801504,-40.88811756061965,0.0009348374175883989,7.246401834107166e-07,2.6201280088103473e-05,0.0009348374175837868,-14.014605663374864,40.88814376189975,43.22325153279888
60,0.2994120121002197,1775872616.9847283,0.083408686,-19.152213224486367,-1.0652608808915103,0.7699921035153385,-19.31000103746066,-0.9189847640655947,0.8517402445078185,-0.15778781297429134,0.14627611682591557,0.08174814099247996,0.2301661461479625,3.4712948208451158,-2.975632379211279,-1.0997059414634829,4.702513045928399,-3.2491002587466924e-08,6.434185700346978e-06,0.0004553578470667011,0.0004554033033328952,-8.073424534922294e-05,-1.1693988032872974e-07,-7.3852745461762185e-06,0.0,0.23604069237263542,-0.7086655987471505,1.6043186719542025e-05,1.2141689814582192e-08,4.2828602863752657e-07,1.604318671954985e-05,-0.23604068023094538,0.7086660270331793,0.7469422607218459,0.0,13.524135466297812,-40.603547894323206,0.0009192068889700904,6.956675825325387e-07,2.4538981865349386e-05,0.0009192068889705388,-13.524134770630216,40.603572433305075,42.796639079322134
61,0.3044593334197998,1775872616.9897757,0.08845582,-19.134213472088483,-1.0806469825293634,0.7644074645448764,-19.310001037621657,-0.9189847338434506,0.8517424919690091,-0.17578756553317376,0.16166224868591283,0.08733502742413268,0.25428990908299876,3.641198133325662,-3.080924075045199,-1.095199777720279,4.893861415635505,-3.190868945830278e-08,5.658583686085849e-06,0.0004436806074285771,0.00044371669113938913,-0.000110265254607349,-9.512743292878765e-08,-7.645674996707592e-06,0.0,0.22570190223946912,-0.7022425704088608,1.5564673304093874e-05,1.1612543362456009e-08,3.906711341154682e-07,1.5564673303991583e-05,-0.22570189062692592,0.7022429610799952,0.7376222068655658,0.0,12.931766426395884,-40.23553547884628,0.0008917900898245211,6.653497240813871e-07,2.238380716240568e-05,0.0008917900898186603,-12.931765761046169,40.23555786265346,42.26263932852265
62,0.30943846702575684,1775872616.9947548,0.093435037,-19.115624792974057,-1.0963284471140073,0.758928469482813,-19.310001037748393,-0.9189847124182284,0.8517442483848957,-0.19437624477433602,0.1773437346957789,0.0928157789020827,0.2790119954081181,3.805155614328636,-3.1774672259928187,-1.087472372276968,5.075244169690847,-3.145985927041876e-08,5.0571999219468e-06,0.00043455751293513736,0.0004345869398741124,-0.00013202851115496893,-7.703046254346013e-08,-7.790532533761563e-06,0.0,0.2159443711904399,-0.6957462053031359,1.5079502261927628e-05,1.1269424424238362e-08,3.597803274953347e-07,1.507950226198318e-05,-0.21594435992101557,0.6957465650834633,0.7284883318451479,0.0,12.372701078818652,-39.86332117611218,0.0008639918367664316,6.456904570505058e-07,2.0613894317317244e-05,0.0008639918367696145,-12.3727004331282,39.863341790006494,41.73930683925274
63,0.3151428699493408,1775872617.0004592,0.099139389,-19.093337828621507,-1.1148600118845866,0.7527097875734896,-19.31000103793519,-0.9189846846878531,0.8517468154779048,-0.21666320931368332,0.1958753271967335,0.09903702790441515,0.3084127477434619,3.9885233302915593,-3.2791201956683387,-1.0746133267477447,5.274063084183189,-3.0808539707382966e-08,4.194912063949754e-06,0.00042120786709164327,0.0004212287567774567,-0.00016127466570096605,-5.364671815360566e-08,-7.90715583342237e-06,0.0,0.2051912033373246,-0.6880952514856634,1.4197506643598683e-05,1.088018591178811e-08,3.126283895039849e-07,1.4197506643665037e-05,-0.2051911924571388,0.6880955641140529,0.7180382517784053,0.0,11.756589944439392,-39.424953813121505,0.0008134572102871516,6.233887330631561e-07,1.791228727455034e-05,0.0008134572102909533,-11.756589321050665,39.424971725408774,41.1405613558546
64,0.31997084617614746,1775872617.0052872,0.103967361,-19.073667143967807,-1.1309784660466462,0.7475123757715674,-19.31000103808791,-0.9189846654197997,0.8517488943286097,-0.2363338941201043,0.21199380062684647,0.1042365185570423,0.33415615034752905,4.139992182024431,-3.357688125755342,-1.0603870840720646,5.434889657125404,-3.028058915210181e-08,3.519342451526517e-06,0.00041037275327860664,0.0004103878449974723,-0.00018233097913649904,-3.431368753966781e-08,-7.917358789922459e-06,0.0,0.1963669335144626,-0.6814348687582031,1.3337185156192236e-05,1.065986954725043e-08,2.7303527091865923e-07,1.333718515628135e-05,-0.196366922854593,0.6814351417934743,0.7091641707251958,0.0,11.250996526304744,-39.043341992896195,0.0007641644200343448,6.107655352174813e-07,1.5643768681850196e-05,0.0007641644200394506,-11.250995915539207,39.043357636664894,40.632113964448685
65,0.32538652420043945,1775872617.0107028,0.109383033,-19.05074236416697,-1.14948912199547,0.7417735446974492,-19.310001038267735,-0.9189846465919567,0.8517513183385828,-0.25925867410076364,0.23050447540351326,0.10997777364113359,0.3639264815489459,4.305832496115957,-3.4376728182025578,-1.0407821940796729,5.607228857923509,-2.9657719291732483e-08,2.7679810870023553e-06,0.00039769523442742164,0.00039770486806821987,-0.00020340331743328994,-9.740098120348891e-09,-7.832736971252454e-06,0.0,0.186697049873895,-0.6737498416864959,1.2177694905902544e-05,1.0527738383321555e-08,2.2573425075913963e-07,1.2177694905801673e-05,-0.18669703934615667,0.6737500674207464,0.6991387115575685,0.0,10.69695300531762,-38.60302237624359,0.0006977305223061779,6.031949771822056e-07,1.29336198600465e-05,0.0006977305223003985,-10.696952402122648,38.60303530986344,40.057697466462905
66,0.3303864002227783,1775872617.0157027,0.114383085,-19.02878933889719,-1.166944128220226,0.7365781943960517,-19.310001038414736,-0.9189846342026997,0.851753281075221,-0.2812116995175451,0.24795949401752626,0.11517508667916931,0.3922106974707955,4.455128027025613,-3.5038708924997226,-1.0192582638123366,5.758833595168875,-2.9141730085355646e-08,2.1963332177013337e-06,0.000387446292627809,0.0003874525188973191,-0.00021741763339551,8.536898752334187e-09,-7.688194811497263e-06,0.0,0.1779277296767758,-0.6664427496559374,1.1124275165947877e-05,1.052632433895317e-08,1.8690526752467485e-07,1.1124275165919073e-05,-0.17792771915045158,0.666442936561205,0.689785808101438,0.0,10.194507968823862,-38.18435684237891,0.0006373740171510069,6.031139584078528e-07,1.0708882997927436e-05,0.0006373740171493565,-10.194507365709908,38.184367551261914,39.5218155722333
67,0.3353855609893799,1775872617.020702,0.11938207,-19.00610391075689,-1.18470794803356,0.7314997528427045,-19.310001038559154,-0.9189846245398449,0.8517551932764441,-0.3038971278022622,0.2657233234937152,0.12025544043373959,0.42121695109399715,4.6007276594256306,-3.562714103021847,-0.9944529942610137,5.903267191468594,-2.8623706893666635e-08,1.677926508231452e-06,0.0003774827827575383,0.0003774865130505439,-0.00022818235844215647,2.3849691345770134e-08,-7.4826179204840174e-06,0.0,0.16926517325142362,-0.6589229590857008,1.0008934338069806e-05,1.0609583380642572e-08,1.4895401024040138e-07,1.0008934338223696e-05,-0.16926516264184022,0.6589231080397111,0.6803163658865339,0.0,9.698180045857248,-37.753504579882076,0.0005734696949949662,6.078843501029594e-07,8.534436128323444e-06,0.0005734696950037834,-9.698179437972897,37.75351311431821,38.979256498976284
